~VERSION INFORMATION
VERS.                  2.0   : CWLS LOG ASCII STANDARD - VERSION 2.0
WRAP.                  NO    : ONE LINE PER DEPTH STEP
~WELL INFORMATION
STRT.M        0.0000      : START DEPTH
STOP.M        3100.0000      : STOP DEPTH
STEP.M        1.0000           : STEP VALUE
NULL.         -9999.25           : NULL VALUE
COMP.         Drake AI             : COMPANY
WELL.         GBG-02H          : WELL NAME
FLD.          Brady Hot Springs         : FIELD NAME
LOC.          Churchill County, NV        : LOCATION
CNTY.         Churchill County : COUNTY
STAT.         Nevada               : STATE
CTRY.         USA                  : COUNTRY
UWI.          49-023--02H02     : UNIQUE WELL ID
LATI.DEG      39.8201       : LATITUDE
LONG.DEG      -118.4610       : LONGITUDE (W)
KB.M          1218.0        : KB ELEVATION
GDAT.         WGS84               : GEODETIC DATUM
APIN.         49-023-10002 : API NUMBER
SPUD.         2024-03-15  : SPUD DATE
COMP_DATE.    2025-01-25  : COMPLETION DATE
WELL_TYPE.    Hydrothermal          : WELL TYPE
FLUID_TYPE.   Brine         : FLUID TYPE
TD_DRILLER.M  3100.0            : TOTAL DEPTH (DRILLER)
~CURVE INFORMATION
DEPT.M        :  1  DEPTH
TEMP.DEGC     :  2  FORMATION TEMPERATURE (CORRECTED BHT)
GRAD.DEGC_KM  :  3  GEOTHERMAL GRADIENT
GR.API        :  4  GAMMA RAY
RT.OHMM       :  5  TRUE RESISTIVITY (DEEP)
RHOB.G_CC     :  6  BULK DENSITY
NPHI.V_V      :  7  NEUTRON POROSITY
DT.US_FT      :  8  SONIC DELTA-T
CALI.IN       :  9  CALIPER
SP.MV         : 10  SPONTANEOUS POTENTIAL
~PARAMETER INFORMATION
MFLT.         Water-based mud       : MUD TYPE
MWT.G_CC      1.08                 : MUD WEIGHT
BHT.DEGC      195.0       : BOTTOM HOLE TEMPERATURE (MEASURED)
SURF_T.DEGC   15.0 : SURFACE TEMPERATURE
GRADIENT.DEGC_KM  58.1 : AVERAGE GEOTHERMAL GRADIENT
BS.IN         8.5                  : BIT SIZE
~A  DEPT     TEMP      GRAD     GR       RT       RHOB     NPHI     DT       CALI     SP
# ...
 1387.0000    107.390  -2610.000     23.870     16.400     2.7330     0.0467     61.750      8.850    -25.790
 1388.0000    107.980    590.000     54.530     21.920     2.8770     0.1731     57.750     10.320    -27.290
 1389.0000    110.490   2510.000     35.280     26.200     2.8250     0.1159     59.270     10.110    -33.920
 1390.0000    109.990   -500.000     37.980     22.300     2.7510     0.0764     71.110     11.240    -18.900
 1391.0000    108.100  -1890.000     31.030      6.330     2.6560     0.1345     56.770     11.260    -23.410
 1392.0000    109.990   1890.000     38.890     51.390     2.8100     0.1660     65.160      9.960    -25.130
 1393.0000    110.300    310.000     32.700     42.520     2.6290     0.0223     64.490      9.310    -40.770
 1394.0000    109.200  -1100.000     31.960     29.180     2.7990     0.1710     67.450      9.970    -20.270
 1395.0000    111.170   1970.000     35.070     11.340     2.6730     0.1110     53.050      9.730    -30.530
 1396.0000    110.450   -720.000     57.310     19.340     2.8700     0.2018     64.780     10.630    -22.690
 1397.0000    110.140   -310.000     48.410     38.190     2.6880     0.1138     64.420      9.120    -23.080
 1398.0000    113.640   3500.000     15.480     18.330     2.8330     0.1647     52.620     10.260    -45.640
 1399.0000    109.430  -4210.000     33.250     35.700     2.6630     0.0955     65.900     10.380    -30.560
 1400.0000    109.370    -60.000     48.340     37.740     2.7790     0.1186     60.760      9.110    -28.410
 1401.0000     96.490 -12880.000     36.980     11.990     2.7490     0.0849     66.850      8.310    -16.930
 1402.0000     97.250    760.000     42.740     22.070     2.7270     0.1591     54.120      8.640    -29.790
 1403.0000     95.110  -2140.000     38.900     18.740     2.7260     0.1229     60.820      8.330    -43.440
 1404.0000     95.010   -100.000     52.100     15.600     2.6000     0.1106     68.120      9.190    -44.870
 1405.0000     96.210   1200.000     25.340     60.560     2.7340     0.1668     56.180      8.310    -30.460
 1406.0000     97.380   1170.000     38.490     16.950     2.7080     0.1754     60.850      9.110    -32.940
 1407.0000     96.890   -490.000     37.980     30.330     2.7640     0.1287     56.250      9.020    -16.470
 1408.0000     95.490  -1400.000     38.690     14.600     2.8440     0.0329     53.340      8.750    -35.560
 1409.0000     97.990   2500.000     30.090     47.050     2.6440     0.1278     65.750      8.910    -28.270
 1410.0000     98.710    720.000     37.710     30.200     2.7920     0.1356     55.610      8.880    -44.150
 1411.0000     97.120  -1590.000     26.540     50.430     2.7290     0.0967     62.930      8.650    -38.400
 1412.0000     97.220    100.000     14.980     60.330     2.8200     0.2044     53.360      8.560    -39.340
 1413.0000     95.390  -1830.000     39.250     10.380     2.7150     0.1311     62.570      8.800    -40.590
 1414.0000     95.370    -20.000     49.650     13.590     2.7730     0.1528     50.970      8.950    -38.470
 1415.0000     97.230   1860.000     32.320     22.090     2.6850     0.1798     64.040      8.880    -32.920
 1416.0000     97.370    140.000     35.910     32.120     2.8200     0.1774     48.420      8.700    -31.340
 1417.0000     95.520  -1850.000     38.550     19.380     2.7040     0.1638     63.460      8.550    -48.330
 1418.0000     95.770    250.000      8.360     30.760     2.8040     0.1068     62.200      8.450    -48.700
 1419.0000     97.600   1830.000     42.410     36.410     2.6350     0.1957     70.370      8.920    -34.830
 1420.0000     98.450    850.000     19.700     17.810     2.6680     0.0879     59.910      8.420    -40.770
 1421.0000     98.380    -70.000     23.770      6.670     2.7040     0.0907     78.810      8.880    -47.490
 1422.0000     98.760    380.000     27.720     14.470     2.8650     0.1471     61.890      8.520    -52.580
 1423.0000     95.280  -3480.000     35.950     12.160     2.7850     0.2593     49.170      8.810    -32.980
 1424.0000     95.640    360.000     27.760     10.040     2.7060     0.1250     71.010      8.470    -33.200
 1425.0000     96.220    580.000     34.350     45.050     2.8080     0.0894     53.190      8.750    -29.970
 1426.0000     97.910   1690.000     32.670     21.210     2.8590     0.0830     70.060      8.600    -42.490
 1427.0000     98.640    730.000     50.560     16.310     2.7780     0.1280     60.760      8.470    -54.940
 1428.0000     97.500  -1140.000     18.140     36.540     2.6980     0.2179     63.390      9.090    -42.010
 1429.0000     96.830   -670.000     49.100     26.520     2.6060     0.1355     59.710      8.780    -27.040
 1430.0000     99.120   2290.000     49.610     14.690     2.8820     0.1345     65.230      8.600    -34.920
 1431.0000     98.480   -640.000     14.260     29.280     2.7490     0.1266     75.710      8.450    -32.600
 1432.0000    100.140   1660.000     35.650     21.060     2.7020     0.1030     54.070      8.310    -32.560
 1433.0000    100.540    400.000     54.310     38.330     2.8230     0.2090     63.610      8.830    -30.150
 1434.0000     97.580  -2960.000     28.960     17.100     2.7930     0.0631     72.380      8.880    -37.600
 1435.0000     98.240    660.000     40.960     13.900     2.6940     0.1380     62.140      8.630    -28.720
 1436.0000     97.980   -260.000     47.350     25.150     2.6310     0.1039     58.780      8.940    -28.930
 1437.0000     98.800    820.000     14.050     36.120     2.5450     0.1613     64.110      8.090    -35.710
 1438.0000     99.470    670.000     23.690     32.400     2.6980     0.1517     65.570      9.130    -31.210
 1439.0000     98.910   -560.000     40.240     44.550     2.7820     0.1296     56.660      8.480    -21.980
 1440.0000     99.290    380.000     44.530     56.380     2.6530     0.1684     52.300      8.570    -14.630
 1441.0000     98.100  -1190.000     45.030     25.270     2.8270     0.1156     50.540      8.880    -19.470
 1442.0000     99.620   1520.000     27.540     36.040     2.7960     0.0607     54.040      8.800    -23.540
 1443.0000     97.900  -1720.000     36.230     37.330     2.7730     0.1216     55.550      8.330    -44.150
 1444.0000     99.960   2060.000     33.780     12.830     2.8570     0.0611     67.850      8.770    -38.130
 1445.0000     99.560   -400.000     29.680     27.570     2.7580     0.1269     59.030      7.970    -43.760
 1446.0000     99.440   -120.000     26.340     30.080     2.7980     0.0607     57.340      8.520    -46.000
 1447.0000     97.420  -2020.000     28.730     40.160     2.8550     0.1341     67.380      8.650    -43.850
 1448.0000     97.600    180.000     38.030     18.980     2.7540     0.1111     64.030      8.550    -40.500
 1449.0000     97.200   -400.000     29.910     13.040     2.8060     0.1301     54.940      8.670    -30.510
 1450.0000    100.260   3060.000     41.430     23.290     2.6300     0.1085     62.600      8.910    -23.330
 1451.0000     98.260  -2000.000     31.760     15.900     2.7380     0.1128     54.920      8.890    -24.780
 1452.0000    100.720   2460.000     28.940     23.010     2.6970     0.1286     61.490      9.040    -37.760
 1453.0000     99.330  -1390.000     31.090     42.060     2.7210     0.1054     67.500      8.800    -32.680
 1454.0000    101.130   1800.000     26.380     33.540     2.7380     0.1794     71.170      8.600    -28.760
 1455.0000     99.010  -2120.000     42.890     32.150     2.6150     0.1553     68.260      8.850    -35.870
 1456.0000     99.620    610.000     41.520     86.040     2.7760     0.1107     65.680      8.830    -39.590
 1457.0000     97.360  -2260.000     38.180     22.070     2.7080     0.1179     70.550      8.830    -28.430
 1458.0000     99.200   1840.000     29.510     32.390     2.7010     0.0428     70.000      8.690    -23.240
 1459.0000     98.910   -290.000     20.610     25.240     2.7240     0.1457     60.730      8.390    -44.290
