~VERSION INFORMATION
VERS.                  2.0   : CWLS LOG ASCII STANDARD - VERSION 2.0
WRAP.                  NO    : ONE LINE PER DEPTH STEP
~WELL INFORMATION
STRT.M        0.0000      : START DEPTH
STOP.M        3100.0000      : STOP DEPTH
STEP.M        1.0000           : STEP VALUE
NULL.         -9999.25           : NULL VALUE
COMP.         Drake AI             : COMPANY
WELL.         GBG-02H          : WELL NAME
FLD.          Brady Hot Springs         : FIELD NAME
LOC.          Churchill County, NV        : LOCATION
CNTY.         Churchill County : COUNTY
STAT.         Nevada               : STATE
CTRY.         USA                  : COUNTRY
UWI.          49-023--02H02     : UNIQUE WELL ID
LATI.DEG      39.8201       : LATITUDE
LONG.DEG      -118.4610       : LONGITUDE (W)
KB.M          1218.0        : KB ELEVATION
GDAT.         WGS84               : GEODETIC DATUM
APIN.         49-023-10002 : API NUMBER
SPUD.         2024-03-15  : SPUD DATE
COMP_DATE.    2025-01-25  : COMPLETION DATE
WELL_TYPE.    Hydrothermal          : WELL TYPE
FLUID_TYPE.   Brine         : FLUID TYPE
TD_DRILLER.M  3100.0            : TOTAL DEPTH (DRILLER)
~CURVE INFORMATION
DEPT.M        :  1  DEPTH
TEMP.DEGC     :  2  FORMATION TEMPERATURE (CORRECTED BHT)
GRAD.DEGC_KM  :  3  GEOTHERMAL GRADIENT
GR.API        :  4  GAMMA RAY
RT.OHMM       :  5  TRUE RESISTIVITY (DEEP)
RHOB.G_CC     :  6  BULK DENSITY
NPHI.V_V      :  7  NEUTRON POROSITY
DT.US_FT      :  8  SONIC DELTA-T
CALI.IN       :  9  CALIPER
SP.MV         : 10  SPONTANEOUS POTENTIAL
~PARAMETER INFORMATION
MFLT.         Water-based mud       : MUD TYPE
MWT.G_CC      1.08                 : MUD WEIGHT
BHT.DEGC      195.0       : BOTTOM HOLE TEMPERATURE (MEASURED)
SURF_T.DEGC   15.0 : SURFACE TEMPERATURE
GRADIENT.DEGC_KM  58.1 : AVERAGE GEOTHERMAL GRADIENT
BS.IN         8.5                  : BIT SIZE
~A  DEPT     TEMP      GRAD     GR       RT       RHOB     NPHI     DT       CALI     SP
    0.0000     16.450  -9999.250     41.130      6.170     1.9470     0.2206    116.860      9.120    -50.840
    1.0000     12.270  -4180.000     41.240      5.090     1.9410     0.3486    123.020      8.940    -56.030
    2.0000     13.070    800.000     46.850     11.210     1.8240     0.3588    105.670      8.660    -57.920
    3.0000     16.080   3010.000     53.360      3.780     2.0180     0.2108    106.700      8.680    -58.640
    4.0000     15.730   -350.000     31.480      7.680     2.0960     0.3063    118.330      8.460    -50.290
    5.0000     15.170   -560.000     45.470      5.450     2.0970     0.2859    109.920      8.760    -59.090
    6.0000     16.640   1470.000     10.880      7.200     1.9710     0.2887     92.900      8.640    -53.880
    7.0000     13.530  -3110.000     55.000      9.820     2.1560     0.4828    118.420      8.960    -57.610
    8.0000     17.710   4180.000     47.020      7.770     2.0860     0.4083    106.240      8.830    -65.680
    9.0000     14.540  -3170.000     43.410      3.640     2.0780     0.2908    100.770      8.790    -74.540
   10.0000     15.080    540.000     52.870      4.680     2.0090     0.2813    116.720      8.550    -61.510
   11.0000     14.350   -730.000     49.910      2.140     2.0070     0.1841    111.650      8.370    -54.000
   12.0000     13.810   -540.000     40.890      4.940     2.1070     0.2390    119.610      8.480    -50.850
   13.0000     14.870   1060.000     37.280      2.570     2.1730     0.1845     94.860      8.540    -50.900
   14.0000     17.390   2520.000     46.520      6.900     1.9920     0.3789    118.610      8.360    -61.270
   15.0000     18.980   1590.000     30.960      4.580     2.0420     0.4002     96.960      8.950    -70.850
   16.0000     17.410  -1570.000     34.150      5.730     1.9870     0.3069    104.320      8.590    -72.920
   17.0000     14.700  -2710.000     43.980      5.580     2.1250     0.3088    109.290      8.370    -51.680
   18.0000     15.230    530.000     49.790      6.270     2.1330     0.3027     93.620      8.630    -56.760
   19.0000     18.850   3620.000     40.110      4.890     2.0500     0.2834    114.900      8.840    -53.600
   20.0000     16.560  -2290.000     27.450      5.260     2.0220     0.3493    112.820      8.730    -51.050
   21.0000     15.060  -1500.000     37.950      2.390     2.1520     0.2991    108.160      7.900    -56.230
   22.0000     16.810   1750.000     59.410      7.520     2.0600     0.3313     98.050      8.220    -56.670
   23.0000     17.590    780.000     48.310      4.260     2.2110     0.4070    122.880      8.300    -47.020
   24.0000     17.210   -380.000     46.540      5.210     1.9620     0.3760    110.910      8.570    -63.980
   25.0000     14.210  -3000.000     44.350      2.410     1.9820     0.4046    112.720      8.540    -82.520
   26.0000     15.410   1200.000     60.280      3.370     1.8330     0.3130    117.440      8.610    -56.230
   27.0000     13.980  -1430.000     59.060      3.240     2.1750     0.4058    116.450      9.260    -63.950
   28.0000     16.130   2150.000     42.360      5.960     2.1230     0.3266     99.870      8.900    -51.560
   29.0000     18.250   2120.000     48.290      4.050     2.0260     0.3345    108.710      8.480    -57.540
   30.0000     17.240  -1010.000     45.460      5.660     1.9920     0.4076    116.620      8.900    -54.900
   31.0000     16.850   -390.000     34.080      3.820     2.0740     0.4384    117.150      9.000    -65.540
   32.0000     16.400   -450.000     32.720     10.090     2.0330     0.3407     99.170      8.550    -60.030
   33.0000     17.540   1140.000     38.190      3.720     2.0910     0.3367    105.420      8.380    -67.100
   34.0000     17.800    260.000     51.130      7.110     2.1290     0.2514    111.610      8.910    -48.630
   35.0000     15.080  -2720.000     47.840      4.360     1.9900     0.3934    130.270      8.480    -55.020
   36.0000     17.990   2910.000     42.660      4.060     2.0470     0.2953    117.260      8.530    -60.430
   37.0000     17.410   -580.000     49.150      2.830     2.0220     0.2707     98.930      8.930    -60.260
   38.0000     16.160  -1250.000     55.260      4.570     2.0810     0.3230    110.560      8.440    -58.730
   39.0000     18.890   2730.000     53.640      3.720     1.9270     0.3299    102.990      8.220    -71.580
   40.0000     18.120   -770.000     21.500      6.410     2.0140     0.2879     95.500      8.490    -61.540
   41.0000     19.030    910.000     30.470      3.260     2.0270     0.4633     92.980      8.620    -44.490
   42.0000     19.120     90.000     36.900      3.700     2.0120     0.2196     94.770      8.580    -67.600
   43.0000     16.160  -2960.000     57.050      5.600     1.9330     0.3527    119.390      8.500    -64.080
   44.0000     17.590   1430.000     45.570      3.540     2.1810     0.3259    102.560      8.570    -59.270
   45.0000     17.810    220.000     36.140      4.770     2.0380     0.2495    117.480      9.000    -40.830
   46.0000     17.020   -790.000     53.780     10.290     2.0250     0.3055    137.750      8.810    -44.760
   47.0000     20.160   3140.000     56.880      3.220     1.9660     0.3595    127.330      8.410    -57.970
   48.0000     17.600  -2560.000     59.410      4.220     2.0060     0.3467    112.840      8.690    -58.250
   49.0000     18.770   1170.000     42.390      7.080     2.0200     0.2323    111.800      8.460    -50.690
   50.0000     19.260    490.000     58.800      5.950     2.1130     0.2046    124.420      9.400    -64.880
   51.0000     18.100  -1160.000     52.310      3.040     2.1090     0.2406     95.150      9.070    -52.620
   52.0000     17.990   -110.000     49.300      7.100     2.2040     0.3946    115.480      8.430    -72.640
   53.0000     17.760   -230.000     58.860      2.500     2.0750     0.3731     95.750      8.800    -59.190
   54.0000     17.520   -240.000     46.200      4.670     2.0840     0.3568    130.300      8.570    -58.530
   55.0000     18.620   1100.000     30.280      2.690     1.9910     0.2719    107.500      8.720    -74.820
   56.0000     18.210   -410.000     45.300      3.580     1.9190     0.2788    110.750      8.540    -61.020
   57.0000     20.950   2740.000     65.510      3.410     2.1070     0.2632    111.580      9.220    -58.120
   58.0000     18.280  -2670.000     40.780      4.810     2.0750     0.2534    115.940      8.800    -49.310
   59.0000     20.410   2130.000     84.290      8.350     2.0310     0.4011     96.400      8.820    -40.250
   60.0000     20.600    190.000     28.030      3.990     2.0520     0.2703    143.020      8.220    -57.210
   61.0000     18.370  -2230.000     63.790      3.200     2.0120     0.3243    106.310      8.810    -60.310
   62.0000     17.920   -450.000     47.910      6.160     2.0180     0.3506    137.770      9.090    -58.860
   63.0000     18.660    740.000     50.920      5.520     2.0170     0.2126    105.370      8.730    -58.910
   64.0000     17.060  -1600.000     31.040     11.080     2.0140     0.2995     87.680      8.480    -58.140
   65.0000     19.430   2370.000     48.110      4.440     2.1020     0.2718    129.060      8.850    -56.790
   66.0000     18.910   -520.000     47.240      3.450     2.1190     0.2715    137.920      8.530    -59.940
   67.0000     17.380  -1530.000     35.380      4.910     2.1340     0.2921    132.770      8.290    -70.550
   68.0000     17.630    250.000     23.020      2.890     1.9770     0.2518    117.580      8.870    -63.990
   69.0000     19.550   1920.000     54.540      5.420     1.9850     0.3015     96.890      8.430    -61.420
   70.0000     20.900   1350.000     47.980      6.760     2.0260     0.3390    109.870      8.490    -72.650
   71.0000     18.930  -1970.000     34.460      4.590     2.1470     0.2984    109.850      8.420    -49.490
   72.0000     20.120   1190.000     33.210      3.770     1.9540     0.2461    120.510      8.970    -55.320
