~VERSION INFORMATION
VERS.                  2.0   : CWLS LOG ASCII STANDARD - VERSION 2.0
WRAP.                  NO    : ONE LINE PER DEPTH STEP
~WELL INFORMATION
STRT.M        0.0000      : START DEPTH
STOP.M        3100.0000      : STOP DEPTH
STEP.M        1.0000           : STEP VALUE
NULL.         -9999.25           : NULL VALUE
COMP.         Drake AI             : COMPANY
WELL.         GBG-02H          : WELL NAME
FLD.          Brady Hot Springs         : FIELD NAME
LOC.          Churchill County, NV        : LOCATION
CNTY.         Churchill County : COUNTY
STAT.         Nevada               : STATE
CTRY.         USA                  : COUNTRY
UWI.          49-023--02H02     : UNIQUE WELL ID
LATI.DEG      39.8201       : LATITUDE
LONG.DEG      -118.4610       : LONGITUDE (W)
KB.M          1218.0        : KB ELEVATION
GDAT.         WGS84               : GEODETIC DATUM
APIN.         49-023-10002 : API NUMBER
SPUD.         2024-03-15  : SPUD DATE
COMP_DATE.    2025-01-25  : COMPLETION DATE
WELL_TYPE.    Hydrothermal          : WELL TYPE
FLUID_TYPE.   Brine         : FLUID TYPE
TD_DRILLER.M  3100.0            : TOTAL DEPTH (DRILLER)
~CURVE INFORMATION
DEPT.M        :  1  DEPTH
TEMP.DEGC     :  2  FORMATION TEMPERATURE (CORRECTED BHT)
GRAD.DEGC_KM  :  3  GEOTHERMAL GRADIENT
GR.API        :  4  GAMMA RAY
RT.OHMM       :  5  TRUE RESISTIVITY (DEEP)
RHOB.G_CC     :  6  BULK DENSITY
NPHI.V_V      :  7  NEUTRON POROSITY
DT.US_FT      :  8  SONIC DELTA-T
CALI.IN       :  9  CALIPER
SP.MV         : 10  SPONTANEOUS POTENTIAL
~PARAMETER INFORMATION
MFLT.         Water-based mud       : MUD TYPE
MWT.G_CC      1.08                 : MUD WEIGHT
BHT.DEGC      195.0       : BOTTOM HOLE TEMPERATURE (MEASURED)
SURF_T.DEGC   15.0 : SURFACE TEMPERATURE
GRADIENT.DEGC_KM  58.1 : AVERAGE GEOTHERMAL GRADIENT
BS.IN         8.5                  : BIT SIZE
~A  DEPT     TEMP      GRAD     GR       RT       RHOB     NPHI     DT       CALI     SP
# ...
 2628.0000    166.580    880.000      5.000     21.710     2.6790     0.0965     51.840      8.680    -13.050
 2629.0000    168.390   1810.000     26.810     11.460     2.7140     0.0698     67.270      9.080    -24.700
 2630.0000    167.310  -1080.000     28.280      9.520     2.8090     0.0819     50.950      8.330     -4.980
 2631.0000    165.440  -1870.000     42.080     27.550     2.6390     0.0744     61.650      8.810    -16.040
 2632.0000    165.910    470.000     25.610     11.510     2.5750     0.0834     45.200      8.530     -1.160
 2633.0000    168.550   2640.000     35.930     17.270     2.6930     0.0659     57.110      8.730    -15.090
 2634.0000    166.010  -2540.000     29.150     22.090     2.6150     0.0348     54.840      8.890    -20.310
 2635.0000    166.190    180.000     32.810     15.770     2.7480     0.0392     52.480      8.670     -8.240
 2636.0000    168.020   1830.000     29.540     13.820     2.7540     0.0395     50.710      8.580    -18.230
 2637.0000    166.660  -1360.000     44.410     19.720     2.7700     0.0467     60.040      8.180    -21.090
 2638.0000    167.740   1080.000     21.120     19.670     2.6630     0.0327     54.170      8.610    -10.100
 2639.0000    167.890    150.000     34.620     21.510     2.6680     0.0882     52.240      8.870    -14.720
 2640.0000    168.250    360.000     27.270     12.760     2.5940     0.0196     51.300      7.720    -10.690
 2641.0000    167.060  -1190.000     33.390     12.570     2.6610     0.0253     60.050      8.710    -12.660
 2642.0000    167.050    -10.000     29.870     22.720     2.7040     0.0349     58.000      8.900     -3.720
 2643.0000    167.430    380.000     22.070     12.080     2.7650     0.0723     55.520      9.080     -4.020
 2644.0000    169.380   1950.000     25.110     22.550     2.6400     0.0625     60.620      8.660    -14.970
 2645.0000    167.430  -1950.000     21.450     19.300     2.6820     0.0564     54.610      8.720    -24.590
 2646.0000    167.240   -190.000     27.140     25.240     2.6280     0.0285     46.990      8.860     -6.620
 2647.0000    168.010    770.000     23.800     25.320     2.6220     0.0916     50.580      8.490    -12.050
 2648.0000    168.900    890.000     51.520     19.260     2.5840     0.0736     53.930      8.700      3.730
 2649.0000    170.330   1430.000     21.260     29.180     2.6930     0.0719     53.100      9.090      0.010
 2650.0000    170.710    380.000     11.220     13.320     2.5640     0.0550     68.340      8.780     -6.890
 2651.0000    166.590  -4120.000     36.030     16.610     2.6150     0.0453     53.460      8.330    -23.550
 2652.0000    169.160   2570.000     15.860     15.570     2.6590     0.0921     60.720      8.920    -24.840
 2653.0000    170.140    980.000     33.800     11.320     2.6180     0.0488     44.680      8.800    -21.920
 2654.0000    169.190   -950.000     41.020      9.850     2.5990     0.0726     55.830      8.400    -21.520
 2655.0000    170.300   1110.000     42.000     13.780     2.6560     0.0499     54.530      9.120    -16.610
 2656.0000    170.270    -30.000     31.160      8.720     2.8050     0.0337     54.220      9.080    -15.880
 2657.0000    166.250  -4020.000     39.630     22.750     2.6690     0.0372     55.290      8.990    -19.580
 2658.0000    169.030   2780.000     45.440     15.420     2.6400     0.0634     53.310      9.000    -10.070
 2659.0000    168.170   -860.000     14.180     11.440     2.6130     0.0242     45.250      9.350    -14.220
 2660.0000    170.690   2520.000     23.400     15.290     2.7660     0.0416     58.850      8.450    -24.290
 2661.0000    167.780  -2910.000     34.060     15.600     2.6730     0.0466     57.950      8.270    -10.600
 2662.0000    168.970   1190.000     30.420     12.410     2.6870     0.0738     50.040      8.730    -12.640
 2663.0000    170.970   2000.000     39.070     58.210     2.6580     0.0276     57.010      9.080     -3.970
 2664.0000    169.900  -1070.000     33.090     13.220     2.6470     0.0410     55.720      8.570     -7.290
 2665.0000    171.700   1800.000     28.920     23.190     2.6760     0.0282     55.580      8.370     -7.070
 2666.0000    167.160  -4540.000     25.330     17.700     2.6790     0.0488     50.060      8.590     -6.530
 2667.0000    172.010   4850.000     44.760     11.520     2.6020     0.0643     58.270      8.350    -16.170
 2668.0000    165.800  -6210.000     17.540     11.200     2.7170     0.0735     58.220      7.950    -15.560
 2669.0000    167.720   1920.000      8.900     18.970     2.6620     0.0620     51.350      8.680    -14.230
 2670.0000    168.070    350.000     24.080     15.450     2.6170     0.0499     45.300      8.740    -28.870
 2671.0000    169.720   1650.000     36.070      9.870     2.7670     0.0445     53.090      8.900    -22.800
 2672.0000    171.660   1940.000     37.810      6.320     2.7040     0.0892     46.680      9.050      6.130
 2673.0000    170.700   -960.000     12.530     12.780     2.6010     0.0486     52.750      8.930    -20.010
 2674.0000    170.310   -390.000     16.360     19.030     2.6710     0.0100     64.470      9.580    -12.590
 2675.0000    170.420    110.000      6.280     13.720     2.6680     0.0366     53.790      8.880     -9.750
 2676.0000    171.250    830.000     28.110     13.610     2.6100     0.0423     50.460      8.290    -11.540
 2677.0000    172.050    800.000     26.920      8.270     2.6120     0.0366     46.270      8.690     -1.640
 2678.0000    169.640  -2410.000     31.200     21.170     2.5770     0.0520     55.580      8.890     -8.110
 2679.0000    170.760   1120.000     38.810     15.470     2.7050     0.0796     57.530      8.190     -8.640
 2680.0000    170.800     40.000     31.860     14.890     2.6690     0.0353     53.710      9.100    -22.020
 2681.0000    172.710   1910.000     41.950     28.800     2.6680     0.0856     56.270      8.970     -4.580
 2682.0000    170.810  -1900.000     15.440     14.380     2.6630     0.0691     50.170      8.240     -1.190
 2683.0000    174.150   3340.000     27.560      7.450     2.6560     0.0647     57.020      8.860    -25.410
 2684.0000    172.110  -2040.000     26.510     19.610     2.6600     0.1284     60.050      8.820    -13.370
 2685.0000    169.760  -2350.000     33.110     16.290     2.6900     0.0563     55.010      8.230     -2.540
 2686.0000    169.790     30.000     17.430     22.850     2.6510     0.0440     56.930      8.800    -14.790
 2687.0000    172.270   2480.000     22.060     17.110     2.6640     0.0311     55.360      8.960     -9.190
 2688.0000    171.500   -770.000     28.910      7.770     2.5850     0.0508     58.700      8.480     10.410
 2689.0000    169.630  -1870.000     42.160     14.590     2.6160     0.0511     56.550      8.900     -8.530
 2690.0000    173.850   4220.000     26.050     12.990     2.6840     0.0746     52.190      8.580     -9.770
 2691.0000    174.220    370.000     32.230     19.020     2.6060     0.0642     52.340      8.490     -7.410
 2692.0000    170.890  -3330.000     26.240     24.260     2.6090     0.0397     56.530      8.940    -16.360
 2693.0000    173.000   2110.000     37.170     26.040     2.6630     0.0438     58.940      8.090     -6.420
 2694.0000    169.880  -3120.000     21.140      7.740     2.6600     0.0901     55.290      9.180    -11.070
 2695.0000    171.210   1330.000     19.670     23.190     2.6180     0.0762     58.360      8.270    -10.780
 2696.0000    171.290     80.000     29.070      6.900     2.7070     0.0271     57.620      8.460      6.360
 2697.0000    172.370   1080.000      7.620     20.160     2.6990     0.0542     55.450      8.280    -11.800
 2698.0000    171.910   -460.000     26.790     11.820     2.6740     0.0186     53.610      8.280    -15.960
 2699.0000    170.850  -1060.000     20.910     20.120     2.6520     0.0770     53.460      8.940     -3.330
 2700.0000    170.110   -740.000     36.230     24.600     2.6690     0.0297     58.990      8.620     -7.990
