~VERSION INFORMATION
VERS.                  2.0   : CWLS LOG ASCII STANDARD - VERSION 2.0
WRAP.                  NO    : ONE LINE PER DEPTH STEP
~WELL INFORMATION
STRT.M        0.0000      : START DEPTH
STOP.M        3100.0000      : STOP DEPTH
STEP.M        1.0000           : STEP VALUE
NULL.         -9999.25           : NULL VALUE
COMP.         Drake AI             : COMPANY
WELL.         GBG-02H          : WELL NAME
FLD.          Brady Hot Springs         : FIELD NAME
LOC.          Churchill County, NV        : LOCATION
CNTY.         Churchill County : COUNTY
STAT.         Nevada               : STATE
CTRY.         USA                  : COUNTRY
UWI.          49-023--02H02     : UNIQUE WELL ID
LATI.DEG      39.8201       : LATITUDE
LONG.DEG      -118.4610       : LONGITUDE (W)
KB.M          1218.0        : KB ELEVATION
GDAT.         WGS84               : GEODETIC DATUM
APIN.         49-023-10002 : API NUMBER
SPUD.         2024-03-15  : SPUD DATE
COMP_DATE.    2025-01-25  : COMPLETION DATE
WELL_TYPE.    Hydrothermal          : WELL TYPE
FLUID_TYPE.   Brine         : FLUID TYPE
TD_DRILLER.M  3100.0            : TOTAL DEPTH (DRILLER)
~CURVE INFORMATION
DEPT.M        :  1  DEPTH
TEMP.DEGC     :  2  FORMATION TEMPERATURE (CORRECTED BHT)
GRAD.DEGC_KM  :  3  GEOTHERMAL GRADIENT
GR.API        :  4  GAMMA RAY
RT.OHMM       :  5  TRUE RESISTIVITY (DEEP)
RHOB.G_CC     :  6  BULK DENSITY
NPHI.V_V      :  7  NEUTRON POROSITY
DT.US_FT      :  8  SONIC DELTA-T
CALI.IN       :  9  CALIPER
SP.MV         : 10  SPONTANEOUS POTENTIAL
~PARAMETER INFORMATION
MFLT.         Water-based mud       : MUD TYPE
MWT.G_CC      1.08                 : MUD WEIGHT
BHT.DEGC      195.0       : BOTTOM HOLE TEMPERATURE (MEASURED)
SURF_T.DEGC   15.0 : SURFACE TEMPERATURE
GRADIENT.DEGC_KM  58.1 : AVERAGE GEOTHERMAL GRADIENT
BS.IN         8.5                  : BIT SIZE
~A  DEPT     TEMP      GRAD     GR       RT       RHOB     NPHI     DT       CALI     SP
# ...
 2774.0000    175.930  -1950.000     36.740     21.380     2.6330     0.0100     61.880      8.640    -17.950
 2775.0000    175.070   -860.000     33.320     31.780     2.6970     0.0687     45.710      8.710    -22.540
 2776.0000    175.740    670.000      9.160     58.130     2.6160     0.1047     52.730      9.170    -12.190
 2777.0000    175.630   -110.000     21.320      8.700     2.6540     0.0695     52.470      8.730    -15.070
 2778.0000    177.920   2290.000     27.440     21.030     2.6080     0.0703     64.850      8.180     -9.830
 2779.0000    177.630   -290.000     23.010     23.250     2.7480     0.0849     62.030      8.060    -16.460
 2780.0000    176.180  -1450.000     22.860     20.820     2.7130     0.0776     46.560      8.550     -2.150
 2781.0000    178.630   2450.000     32.260     20.000     2.5830     0.0649     53.950      9.110    -15.280
 2782.0000    177.750   -880.000     23.540     30.810     2.6320     0.0538     53.590      8.760     -9.760
 2783.0000    176.230  -1520.000     39.570     32.660     2.7940     0.0938     50.230      8.850     -9.290
 2784.0000    180.490   4260.000     30.850      7.440     2.7410     0.0100     51.040      8.520    -13.040
 2785.0000    177.360  -3130.000     30.600     21.670     2.7480     0.0591     63.890      9.230    -17.450
 2786.0000    177.210   -150.000     25.420     20.060     2.6740     0.0505     52.720      8.910    -10.900
 2787.0000    177.300     90.000     39.780     15.140     2.6150     0.0688     54.420      8.550     -5.140
 2788.0000    176.040  -1260.000     16.510     25.350     2.6150     0.0560     50.370      8.360    -13.710
 2789.0000    177.300   1260.000     26.780      9.670     2.6660     0.0697     51.330      8.950     -8.920
 2790.0000    177.590    290.000     31.280     10.880     2.5980     0.0270     57.080      8.340      1.720
 2791.0000    178.420    830.000     24.790     10.650     2.5860     0.0666     65.780      8.550     -9.090
 2792.0000    177.550   -870.000     32.710     28.860     2.6060     0.0463     49.180      9.000    -10.190
 2793.0000    176.730   -820.000     37.090     27.970     2.6650     0.0493     54.810      8.610    -25.060
 2794.0000    177.690    960.000     33.840     17.600     2.6710     0.0852     55.770      8.840     -2.260
 2795.0000    176.890   -800.000     28.050     25.460     2.6260     0.0760     59.270      8.570     -7.600
 2796.0000    177.920   1030.000     32.990      5.210     2.7640     0.0572     57.600      8.230      2.200
 2797.0000    177.920      0.000     23.650      7.850     2.6800     0.0665     58.700      8.890    -21.650
 2798.0000    179.380   1460.000     31.240     20.250     2.6920     0.0562     58.490      8.740     -9.170
 2799.0000    177.540  -1840.000     51.320      9.300     2.6860     0.0448     52.050      8.700    -11.620
 2800.0000    175.300  -2240.000     31.140     19.360     2.7340     0.0913     55.460      8.610     -9.060
 2801.0000    180.390   5090.000     41.650     33.660     2.7120     0.0779     48.800      8.290     -8.140
 2802.0000    178.490  -1900.000     29.360     15.690     2.6620     0.0980     53.750      8.420     -3.480
 2803.0000    179.010    520.000     29.010     12.030     2.5850     0.0520     56.810      8.430    -13.180
 2804.0000    176.820  -2190.000     34.950     18.330     2.5240     0.0656     61.740      8.700     -0.100
 2805.0000    179.660   2840.000     21.460     14.380     2.5960     0.0913     58.030      8.850      0.000
 2806.0000    177.210  -2450.000     39.050     11.390     2.5690     0.0438     56.380      8.980    -18.960
 2807.0000    177.870    660.000     21.540     27.630     2.6890     0.0845     50.550      8.840    -10.620
 2808.0000    179.090   1220.000     41.570     17.640     2.6530     0.0399     57.920      8.930    -18.720
 2809.0000    179.160     70.000     20.050     11.620     2.6970     0.0548     52.700      8.600    -13.180
 2810.0000    178.180   -980.000     23.360     24.510     2.7570     0.0703     67.060      8.610     -3.850
 2811.0000    179.060    880.000     29.310     13.440     2.6150     0.0450     59.800      8.840     -4.740
 2812.0000    176.710  -2350.000     18.580     15.490     2.6140     0.0643     53.750      9.150    -16.510
 2813.0000    176.610   -100.000     12.110     18.280     2.7280     0.0247     56.890      8.410    -19.520
 2814.0000    177.880   1270.000     27.490     18.040     2.5990     0.0711     50.600      8.610    -10.440
 2815.0000    178.870    990.000     40.870      8.680     2.6060     0.0546     67.680      8.840    -18.110
 2816.0000    178.530   -340.000     54.150     33.060     2.6450     0.0294     55.880      8.570     -2.940
 2817.0000    178.180   -350.000     22.210     22.560     2.6140     0.0598     59.310      8.850    -20.120
 2818.0000    178.720    540.000     10.310     15.850     2.5680     0.0848     70.510      8.220    -14.410
 2819.0000    179.310    590.000     33.240     28.380     2.6290     0.0478     60.660      8.530     -5.440
 2820.0000    178.110  -1200.000     21.650     11.840     2.7000     0.0686     57.010      8.100      2.130
 2821.0000    179.000    890.000     21.880     13.550     2.6430     0.0468     63.260      8.590     -7.500
 2822.0000    177.560  -1440.000     27.970     16.590     2.6210     0.0810     54.600      7.860      7.570
 2823.0000    177.450   -110.000     36.950     19.900     2.5880     0.0413     56.370      8.530     -7.580
 2824.0000    177.260   -190.000     29.180     10.330     2.6360     0.0409     51.240      9.130    -15.150
 2825.0000    175.390  -1870.000     24.460     43.440     2.7100     0.0563     59.870      8.630     -8.810
 2826.0000    179.400   4010.000     33.360     20.420     2.6720     0.0424     56.920      8.890    -23.450
 2827.0000    179.760    360.000     19.700     11.980     2.6090     0.0418     55.830      8.610      8.510
 2828.0000    177.410  -2350.000     37.440     23.780     2.6090     0.0708     52.980      8.930    -14.030
 2829.0000    180.300   2890.000     28.830     12.190     2.7130     0.0752     62.120      8.900    -11.860
 2830.0000    177.360  -2940.000     31.940     16.710     2.6410     0.0634     59.650      8.670     -6.740
 2831.0000    181.790   4430.000     31.680     13.840     2.7060     0.0266     56.680      8.830     -9.460
 2832.0000    175.490  -6300.000     31.700     22.040     2.6750     0.0858     52.860      8.740    -25.590
 2833.0000    180.840   5350.000     49.040     15.640     2.6870     0.0330     60.730      8.930    -14.960
 2834.0000    179.620  -1220.000     22.200     20.110     2.6160     0.0666     56.520      8.880    -12.390
 2835.0000    180.590    970.000     21.610     16.340     2.6360     0.0499     45.880      8.750     -6.210
 2836.0000    177.400  -3190.000     38.040     13.920     2.6660     0.0867     62.920      9.190    -15.620
 2837.0000    178.090    690.000     32.660     18.290     2.6700     0.0882     59.210      8.920    -11.640
 2838.0000    178.990    900.000     22.780     16.690     2.6430     0.0723     43.270      8.670    -11.450
 2839.0000    180.590   1600.000     30.260     11.540     2.5680     0.0693     55.010      8.540    -14.740
 2840.0000    181.010    420.000     25.620     22.540     2.6660     0.0439     56.490      8.840    -20.360
 2841.0000    180.060   -950.000     14.530     20.540     2.7280     0.0734     46.800      8.220     -8.260
 2842.0000    178.860  -1200.000     18.730     14.880     2.5740     0.0889     49.350      8.770    -21.660
 2843.0000    178.420   -440.000     22.650      7.780     2.6320     0.0799     57.090      8.840    -15.030
 2844.0000    181.940   3520.000     25.010     13.930     2.6260     0.0929     56.180      8.640     -9.210
 2845.0000    178.900  -3040.000     20.450     14.290     2.5920     0.0643     49.960      8.840    -27.380
 2846.0000    179.800    900.000     42.280     10.130     2.6150     0.0477     58.580      8.350    -13.240
