~VERSION INFORMATION
VERS.                  2.0   : CWLS LOG ASCII STANDARD - VERSION 2.0
WRAP.                  NO    : ONE LINE PER DEPTH STEP
~WELL INFORMATION
STRT.M        0.0000      : START DEPTH
STOP.M        3100.0000      : STOP DEPTH
STEP.M        1.0000           : STEP VALUE
NULL.         -9999.25           : NULL VALUE
COMP.         Drake AI             : COMPANY
WELL.         GBG-02H          : WELL NAME
FLD.          Brady Hot Springs         : FIELD NAME
LOC.          Churchill County, NV        : LOCATION
CNTY.         Churchill County : COUNTY
STAT.         Nevada               : STATE
CTRY.         USA                  : COUNTRY
UWI.          49-023--02H02     : UNIQUE WELL ID
LATI.DEG      39.8201       : LATITUDE
LONG.DEG      -118.4610       : LONGITUDE (W)
KB.M          1218.0        : KB ELEVATION
GDAT.         WGS84               : GEODETIC DATUM
APIN.         49-023-10002 : API NUMBER
SPUD.         2024-03-15  : SPUD DATE
COMP_DATE.    2025-01-25  : COMPLETION DATE
WELL_TYPE.    Hydrothermal          : WELL TYPE
FLUID_TYPE.   Brine         : FLUID TYPE
TD_DRILLER.M  3100.0            : TOTAL DEPTH (DRILLER)
~CURVE INFORMATION
DEPT.M        :  1  DEPTH
TEMP.DEGC     :  2  FORMATION TEMPERATURE (CORRECTED BHT)
GRAD.DEGC_KM  :  3  GEOTHERMAL GRADIENT
GR.API        :  4  GAMMA RAY
RT.OHMM       :  5  TRUE RESISTIVITY (DEEP)
RHOB.G_CC     :  6  BULK DENSITY
NPHI.V_V      :  7  NEUTRON POROSITY
DT.US_FT      :  8  SONIC DELTA-T
CALI.IN       :  9  CALIPER
SP.MV         : 10  SPONTANEOUS POTENTIAL
~PARAMETER INFORMATION
MFLT.         Water-based mud       : MUD TYPE
MWT.G_CC      1.08                 : MUD WEIGHT
BHT.DEGC      195.0       : BOTTOM HOLE TEMPERATURE (MEASURED)
SURF_T.DEGC   15.0 : SURFACE TEMPERATURE
GRADIENT.DEGC_KM  58.1 : AVERAGE GEOTHERMAL GRADIENT
BS.IN         8.5                  : BIT SIZE
~A  DEPT     TEMP      GRAD     GR       RT       RHOB     NPHI     DT       CALI     SP
# ...
 1971.0000    127.490  -1920.000     82.630      9.960     2.6970     0.1565     58.590      8.590    -15.020
 1972.0000    127.420    -70.000     33.000      7.630     2.6340     0.1403     62.180      8.830    -22.770
 1973.0000    128.850   1430.000     34.390     10.490     2.6730     0.0202     61.520      8.610    -30.790
 1974.0000    130.870   2020.000     45.550      5.360     2.6560     0.0379     59.340      9.240    -31.560
 1975.0000    126.420  -4450.000     55.570      5.190     2.5850     0.0896     55.250      8.970    -25.540
 1976.0000    128.820   2400.000     44.400      6.190     2.7550     0.1388     68.660      8.720    -37.830
 1977.0000    129.080    260.000     56.700      6.010     2.7990     0.0646     66.030      8.570    -28.620
 1978.0000    132.390   3310.000     28.170      8.480     2.6750     0.0683     64.810      8.330    -38.010
 1979.0000    130.050  -2340.000     52.090      7.630     2.7580     0.1105     53.700      9.030    -31.960
 1980.0000    131.020    970.000     55.960      5.590     2.6880     0.0673     57.980      8.540    -29.170
 1981.0000    129.810  -1210.000     46.310      3.700     2.5790     0.0960     66.500      8.410    -17.960
 1982.0000    130.480    670.000     63.200     21.720     2.5720     0.0832     64.050      8.790    -24.750
 1983.0000    130.710    230.000     60.430      7.250     2.6000     0.1400     68.460      8.100    -12.410
 1984.0000    131.210    500.000     20.080      4.210     2.6220     0.1385     57.650      8.420    -28.120
 1985.0000    129.160  -2050.000     37.580      4.740     2.6810     0.0801     62.270      8.540    -32.580
 1986.0000    129.980    820.000      5.000      9.580     2.7520     0.0739     68.220      8.700    -19.450
 1987.0000    131.400   1420.000     31.170     17.060     2.5970     0.1179     52.470      8.800    -33.080
 1988.0000    128.700  -2700.000     36.170      3.550     2.6630     0.1526     59.470      8.570    -29.830
 1989.0000    128.590   -110.000     22.470     16.090     2.7600     0.0787     61.900      9.130    -36.020
 1990.0000    129.340    750.000     40.480      4.280     2.6230     0.1086     56.680      8.250    -26.440
 1991.0000    128.900   -440.000      7.170      3.390     2.7780     0.1010     59.590      8.840    -18.260
 1992.0000    129.720    820.000     33.350      6.170     2.7340     0.0685     58.840      9.190    -34.040
 1993.0000    129.750     30.000     44.670      6.880     2.8600     0.0665     62.850      8.440    -33.160
 1994.0000    130.820   1070.000     58.190     11.960     2.6140     0.1349     61.950      8.120    -27.520
 1995.0000    128.530  -2290.000     40.480      4.190     2.6780     0.0966     60.410      8.870    -14.780
 1996.0000    131.530   3000.000     35.870      5.900     2.6520     0.0987     54.580      8.460    -31.750
 1997.0000    132.140    610.000     46.020      7.690     2.6220     0.1125     65.380      8.740    -11.220
 1998.0000    132.190     50.000     41.400      4.820     2.7460     0.0938     56.400      8.810    -23.400
 1999.0000    130.290  -1900.000     25.160      7.730     2.7810     0.1001     54.650      8.820    -12.820
 2000.0000    130.200    -90.000     48.700      4.270     2.6770     0.1211     52.880      9.650    -16.260
 2001.0000    130.650    450.000     29.520      5.290     2.7680     0.0623     52.670      8.980    -17.350
 2002.0000    130.830    180.000     46.250      5.640     2.6600     0.1612     59.890      9.080    -24.190
 2003.0000    132.740   1910.000     38.920      6.010     2.7040     0.0791     64.750      8.510    -21.350
 2004.0000    130.820  -1920.000     31.570      6.020     2.7300     0.1273     51.150      9.490    -20.420
 2005.0000    133.580   2760.000     53.240      6.360     2.5990     0.1049     62.180      8.390    -31.560
 2006.0000    131.820  -1760.000     32.230      6.060     2.6080     0.1474     57.670      8.690    -29.330
 2007.0000    131.800    -20.000     59.040      5.180     2.6490     0.1233     60.750      8.760    -18.010
 2008.0000    131.550   -250.000     48.220     22.660     2.6620     0.1500     58.820      8.460    -19.580
 2009.0000    133.370   1820.000     54.960      5.330     2.6510     0.0695     62.410      8.770    -20.640
 2010.0000    131.190  -2180.000     60.070      8.830     2.7590     0.1055     51.400      8.840    -20.480
 2011.0000    132.210   1020.000     15.510      9.210     2.6750     0.1344     62.750      9.080    -16.590
 2012.0000    129.730  -2480.000     32.980      8.360     2.5970     0.1069     57.260      8.620    -22.620
 2013.0000    129.500   -230.000     46.730      2.980     2.6310     0.1445     65.100      8.900    -27.710
 2014.0000    132.370   2870.000     53.280     14.410     2.7970     0.0831     63.960      8.730    -14.870
 2015.0000    131.700   -670.000     67.700      7.200     2.7080     0.1016     65.770      9.010    -27.990
 2016.0000    131.470   -230.000     40.760     10.980     2.6000     0.0960     56.680      8.860    -31.590
 2017.0000    130.850   -620.000     29.710     18.960     2.6620     0.0834     61.300      9.130    -48.500
 2018.0000    133.000   2150.000     70.840      5.250     2.5430     0.0776     65.070      9.000    -25.790
 2019.0000    134.280   1280.000     44.520      5.100     2.7430     0.1327     64.240      8.670    -28.300
 2020.0000    133.510   -770.000     63.290      6.720     2.6420     0.1070     58.800      8.720    -15.430
 2021.0000    132.790   -720.000     62.740      4.540     2.8050     0.1074     56.930      8.790    -28.410
 2022.0000    132.950    160.000     43.310      4.550     2.7600     0.0553     68.470      8.860     -4.490
 2023.0000    133.080    130.000     22.840      9.020     2.7100     0.1309     52.490      8.740    -26.330
 2024.0000    132.010  -1070.000     21.190      2.500     2.5990     0.1021     62.540      8.490    -30.140
 2025.0000    133.730   1720.000     47.650      8.660     2.7130     0.1131     53.320      8.780    -25.410
 2026.0000    133.640    -90.000     55.460      9.590     2.5790     0.0831     65.260      8.530    -15.490
 2027.0000    131.940  -1700.000     25.230     12.950     2.6970     0.0630     53.710      8.510    -24.490
 2028.0000    129.290  -2650.000     13.870      3.630     2.8190     0.0991     54.000      8.540    -32.280
 2029.0000    129.790    500.000     31.490      3.810     2.7690     0.1228     60.840      8.580    -22.800
 2030.0000    134.240   4450.000     30.640      5.840     2.6830     0.1132     59.970      8.800    -20.290
 2031.0000    133.720   -520.000     51.620     10.370     2.6220     0.0259     60.950      8.930    -27.900
 2032.0000    134.690    970.000     27.300      6.080     2.7740     0.1390     58.900      8.950    -30.890
 2033.0000    134.380   -310.000     53.340      9.990     2.8110     0.1661     63.000      8.670    -37.910
 2034.0000    132.530  -1850.000     52.560      7.730     2.5690     0.1280     51.930      8.720    -39.190
 2035.0000    132.550     20.000     41.010      6.890     2.6470     0.0695     55.830      8.650    -30.930
 2036.0000    132.860    310.000     59.830     12.000     2.6350     0.0575     57.910      8.490    -37.780
 2037.0000    134.370   1510.000     24.350      2.340     2.5900     0.0770     52.600      8.440    -28.630
 2038.0000    133.590   -780.000     53.800      5.720     2.7450     0.0771     51.910      8.640    -23.500
 2039.0000    131.400  -2190.000     35.510     13.310     2.6180     0.0529     68.620      8.970    -23.440
 2040.0000    134.380   2980.000     26.550      3.170     2.6570     0.1236     66.600      9.220    -15.330
 2041.0000    133.500   -880.000     22.490      6.980     2.7510     0.0732     60.220      8.650    -24.050
 2042.0000    132.980   -520.000     21.650      8.880     2.7610     0.0564     58.950      8.380    -35.280
 2043.0000    133.750    770.000     44.930      7.910     2.8050     0.1021     60.090      9.170    -16.300
