~VERSION INFORMATION
VERS.                  2.0   : CWLS LOG ASCII STANDARD - VERSION 2.0
WRAP.                  NO    : ONE LINE PER DEPTH STEP
~WELL INFORMATION
STRT.M        0.0000      : START DEPTH
STOP.M        3100.0000      : STOP DEPTH
STEP.M        1.0000           : STEP VALUE
NULL.         -9999.25           : NULL VALUE
COMP.         Drake AI             : COMPANY
WELL.         GBG-02H          : WELL NAME
FLD.          Brady Hot Springs         : FIELD NAME
LOC.          Churchill County, NV        : LOCATION
CNTY.         Churchill County : COUNTY
STAT.         Nevada               : STATE
CTRY.         USA                  : COUNTRY
UWI.          49-023--02H02     : UNIQUE WELL ID
LATI.DEG      39.8201       : LATITUDE
LONG.DEG      -118.4610       : LONGITUDE (W)
KB.M          1218.0        : KB ELEVATION
GDAT.         WGS84               : GEODETIC DATUM
APIN.         49-023-10002 : API NUMBER
SPUD.         2024-03-15  : SPUD DATE
COMP_DATE.    2025-01-25  : COMPLETION DATE
WELL_TYPE.    Hydrothermal          : WELL TYPE
FLUID_TYPE.   Brine         : FLUID TYPE
TD_DRILLER.M  3100.0            : TOTAL DEPTH (DRILLER)
~CURVE INFORMATION
DEPT.M        :  1  DEPTH
TEMP.DEGC     :  2  FORMATION TEMPERATURE (CORRECTED BHT)
GRAD.DEGC_KM  :  3  GEOTHERMAL GRADIENT
GR.API        :  4  GAMMA RAY
RT.OHMM       :  5  TRUE RESISTIVITY (DEEP)
RHOB.G_CC     :  6  BULK DENSITY
NPHI.V_V      :  7  NEUTRON POROSITY
DT.US_FT      :  8  SONIC DELTA-T
CALI.IN       :  9  CALIPER
SP.MV         : 10  SPONTANEOUS POTENTIAL
~PARAMETER INFORMATION
MFLT.         Water-based mud       : MUD TYPE
MWT.G_CC      1.08                 : MUD WEIGHT
BHT.DEGC      195.0       : BOTTOM HOLE TEMPERATURE (MEASURED)
SURF_T.DEGC   15.0 : SURFACE TEMPERATURE
GRADIENT.DEGC_KM  58.1 : AVERAGE GEOTHERMAL GRADIENT
BS.IN         8.5                  : BIT SIZE
~A  DEPT     TEMP      GRAD     GR       RT       RHOB     NPHI     DT       CALI     SP
# ...
  365.0000     36.320   2120.000     55.810      9.430     2.0700     0.2247     97.080      8.840    -55.670
  366.0000     34.480  -1840.000     83.620      5.800     2.2980     0.1365     91.170      9.110    -57.750
  367.0000     36.910   2430.000     93.180      8.930     2.3930     0.1836     92.740      8.580    -49.440
  368.0000     35.300  -1610.000     66.310      4.530     2.3300     0.3238     99.010      8.630    -49.480
  369.0000     36.510   1210.000    120.790      4.290     2.2880     0.2181     76.060      8.910    -54.280
  370.0000     37.030    520.000     77.440      1.580     2.5030     0.3429     93.480      8.880    -66.350
  371.0000     35.240  -1790.000     84.570      8.210     2.3870     0.1347     94.870      8.820    -54.960
  372.0000     36.060    820.000     68.640      4.470     2.3460     0.1727     89.590      8.220    -46.410
  373.0000     35.500   -560.000     67.610      5.460     2.1770     0.1372     91.460      9.040    -53.150
  374.0000     36.670   1170.000     64.080      6.810     2.2970     0.2726    106.420      8.680    -57.950
  375.0000     35.410  -1260.000     58.460      9.590     2.3380     0.3101     94.580      8.470    -52.170
  376.0000     35.260   -150.000     52.450      5.680     2.5120     0.4375     98.200      9.270    -57.290
  377.0000     39.420   4160.000     85.270      1.540     2.3640     0.2425     85.490      8.580    -57.900
  378.0000     36.980  -2440.000     84.330      6.050     2.4210     0.1865    109.340      8.480    -55.720
  379.0000     34.870  -2110.000     93.820      5.650     2.3840     0.2091     91.770      8.390    -68.180
  380.0000     36.060   1190.000     63.190      2.880     2.3010     0.1742     72.350      8.790    -50.490
  381.0000     39.780   3720.000     91.600      3.190     2.4440     0.1744    102.300      8.930    -60.780
  382.0000     37.260  -2520.000     25.460      4.110     2.4050     0.1825    105.760      8.890    -54.420
  383.0000     36.750   -510.000     48.430      6.900     2.3130     0.2499     90.140      9.320    -52.130
  384.0000     36.590   -160.000     82.460      3.660     2.4040     0.1785     91.620      8.950    -57.130
  385.0000     34.760  -1830.000     70.670      6.570     2.2290     0.1214     86.480      8.350    -50.440
  386.0000     37.160   2400.000     52.950      6.090     2.4150     0.1574     72.350      8.870    -54.260
  387.0000     37.180     20.000     76.460      5.890     2.4160     0.2250     89.750      9.070    -46.520
  388.0000     36.300   -880.000     48.710      5.180     2.4900     0.1116     94.920      9.150    -67.750
  389.0000     35.730   -570.000     68.900      7.300     2.4850     0.1896    104.150      8.540    -57.430
  390.0000     38.320   2590.000     59.290      5.360     2.3350     0.0674    108.790      8.530    -65.200
  391.0000     38.530    210.000     76.830      8.500     2.1700     0.2969     89.310      9.150    -58.530
  392.0000     38.740    210.000     67.770     16.790     2.4600     0.3128     86.610      8.430    -74.110
  393.0000     36.640  -2100.000     73.260      5.420     2.2890     0.2139     91.540      8.760    -49.670
  394.0000     38.440   1800.000     40.990      2.880     2.4720     0.2052     99.090      8.610    -51.490
  395.0000     35.910  -2530.000     56.090      9.870     2.4300     0.1172     93.790      8.710    -63.320
  396.0000     36.720    810.000    107.580      6.970     2.3980     0.1923     88.960      8.680    -48.520
  397.0000     39.590   2870.000     37.520      7.960     2.2800     0.2236     95.910      8.780    -51.050
  398.0000     39.390   -200.000     73.960      3.990     2.4460     0.0367     80.900      8.150    -54.090
  399.0000     38.540   -850.000     59.680      2.610     2.2710     0.2490     96.250      8.660    -46.540
  400.0000     38.370   -170.000     93.750      5.070     2.3550     0.1753     79.560      8.670    -50.050
  401.0000     38.100   -270.000     91.620      5.460     2.4480     0.2204     92.130      8.630    -48.550
  402.0000     38.080    -20.000     54.690      8.190     2.1770     0.2890     81.550      8.770    -40.700
  403.0000     34.750  -3330.000     69.610      4.730     2.3040     0.1754     86.940      8.750    -72.000
  404.0000     39.500   4750.000     50.670      4.960     2.4260     0.2001     87.920      8.540    -50.400
  405.0000     38.720   -780.000     53.250      3.800     2.3520     0.2965     93.370      8.560    -52.080
  406.0000     39.910   1190.000     86.550     15.750     2.3000     0.2339     77.710      8.770    -61.470
  407.0000     37.840  -2070.000     83.950      2.960     2.3610     0.1657     79.090      8.890    -46.960
  408.0000     41.290   3450.000     62.090      5.170     2.4920     0.2522     94.250      8.260    -54.930
  409.0000     36.260  -5030.000     81.870      2.020     2.5020     0.1137    103.950      8.860    -58.680
  410.0000     39.600   3340.000     56.570      4.770     2.3570     0.1918     84.000      9.090    -40.030
  411.0000     39.800    200.000     99.610      6.430     2.1310     0.1510     84.480      8.590    -55.270
  412.0000     36.680  -3120.000     76.630      6.690     2.3510     0.1736     99.440      9.030    -61.690
  413.0000     38.650   1970.000     83.850      3.820     2.4000     0.1891     98.850      8.770    -50.050
  414.0000     37.690   -960.000     74.520     10.740     2.3000     0.2944    103.950      8.460    -53.920
  415.0000     39.320   1630.000     56.210      6.230     2.2760     0.2538     91.900      8.740    -48.450
  416.0000     38.590   -730.000     77.340     18.550     2.4650     0.3057     96.700      8.370    -51.440
  417.0000     39.590   1000.000     64.910      6.290     2.3230     0.1820     78.750      9.040    -54.540
  418.0000     40.420    830.000     46.400     11.420     2.2560     0.3061     90.900      9.050    -62.200
  419.0000     37.060  -3360.000     78.360     13.800     2.4090     0.1921     96.280      8.790    -58.210
  420.0000     37.700    640.000     93.530      4.110     2.4440     0.2834     78.450      8.870    -53.280
  421.0000     37.920    220.000     52.200      2.470     2.3730     0.3372    102.700      8.100    -57.030
  422.0000     36.220  -1700.000     75.750     13.920     2.4090     0.2200     99.460      8.300    -66.650
  423.0000     38.200   1980.000     79.840      3.630     2.2530     0.2710     84.460      8.500    -53.250
  424.0000     39.970   1770.000     63.410      5.220     2.3380     0.2751     91.610      8.700    -46.260
  425.0000     39.100   -870.000     82.110      9.590     2.3710     0.0100    105.440      8.440    -54.970
  426.0000     38.830   -270.000     77.690      8.220     2.3270     0.3157     97.560      8.550    -39.970
  427.0000     39.630    800.000     58.090      8.530     2.2880     0.2569    100.790      8.440    -68.950
  428.0000     40.690   1060.000     75.760      3.070     2.3250     0.1635    100.140      8.540    -65.800
  429.0000     39.390  -1300.000     56.170      7.620     2.4730     0.2680    107.410      8.990    -60.340
  430.0000     38.190  -1200.000     52.470      2.610     2.4380     0.3001     88.300      8.830    -40.580
  431.0000     39.030    840.000     46.060      5.910     2.4770     0.2465     83.660      8.630    -44.210
  432.0000     38.360   -670.000    111.830      7.600     2.1950     0.1814     93.710      8.280    -56.410
  433.0000     41.390   3030.000     83.280      4.700     2.4890     0.2173     82.830      8.570    -51.570
  434.0000     39.700  -1690.000     79.400     15.920     2.5230     0.2588     85.070      8.220    -51.100
  435.0000     40.080    380.000     43.970      3.870     2.3210     0.2210    103.000      8.940    -45.530
  436.0000     40.540    460.000     78.920     23.000     2.3390     0.1840     91.800      8.800    -63.230
  437.0000     41.680   1140.000     71.790      7.590     2.3210     0.1912     93.570      8.980    -53.720
