~VERSION INFORMATION
VERS.                  2.0   : CWLS LOG ASCII STANDARD - VERSION 2.0
WRAP.                  NO    : ONE LINE PER DEPTH STEP
~WELL INFORMATION
STRT.M        0.0000      : START DEPTH
STOP.M        3100.0000      : STOP DEPTH
STEP.M        1.0000           : STEP VALUE
NULL.         -9999.25           : NULL VALUE
COMP.         Drake AI             : COMPANY
WELL.         GBG-02H          : WELL NAME
FLD.          Brady Hot Springs         : FIELD NAME
LOC.          Churchill County, NV        : LOCATION
CNTY.         Churchill County : COUNTY
STAT.         Nevada               : STATE
CTRY.         USA                  : COUNTRY
UWI.          49-023--02H02     : UNIQUE WELL ID
LATI.DEG      39.8201       : LATITUDE
LONG.DEG      -118.4610       : LONGITUDE (W)
KB.M          1218.0        : KB ELEVATION
GDAT.         WGS84               : GEODETIC DATUM
APIN.         49-023-10002 : API NUMBER
SPUD.         2024-03-15  : SPUD DATE
COMP_DATE.    2025-01-25  : COMPLETION DATE
WELL_TYPE.    Hydrothermal          : WELL TYPE
FLUID_TYPE.   Brine         : FLUID TYPE
TD_DRILLER.M  3100.0            : TOTAL DEPTH (DRILLER)
~CURVE INFORMATION
DEPT.M        :  1  DEPTH
TEMP.DEGC     :  2  FORMATION TEMPERATURE (CORRECTED BHT)
GRAD.DEGC_KM  :  3  GEOTHERMAL GRADIENT
GR.API        :  4  GAMMA RAY
RT.OHMM       :  5  TRUE RESISTIVITY (DEEP)
RHOB.G_CC     :  6  BULK DENSITY
NPHI.V_V      :  7  NEUTRON POROSITY
DT.US_FT      :  8  SONIC DELTA-T
CALI.IN       :  9  CALIPER
SP.MV         : 10  SPONTANEOUS POTENTIAL
~PARAMETER INFORMATION
MFLT.         Water-based mud       : MUD TYPE
MWT.G_CC      1.08                 : MUD WEIGHT
BHT.DEGC      195.0       : BOTTOM HOLE TEMPERATURE (MEASURED)
SURF_T.DEGC   15.0 : SURFACE TEMPERATURE
GRADIENT.DEGC_KM  58.1 : AVERAGE GEOTHERMAL GRADIENT
BS.IN         8.5                  : BIT SIZE
~A  DEPT     TEMP      GRAD     GR       RT       RHOB     NPHI     DT       CALI     SP
# ...
 2190.0000    141.910  -2480.000     15.780     10.180     2.7600     0.0897     51.640      8.970    -39.860
 2191.0000    142.740    830.000     50.740      9.970     2.6600     0.1019     57.380      8.710    -23.750
 2192.0000    144.670   1930.000     53.510      7.150     2.7100     0.1335     51.220      7.950    -22.910
 2193.0000    140.150  -4520.000     49.060      4.080     2.6120     0.0875     56.770      8.610    -30.410
 2194.0000    141.120    970.000     27.540      5.310     2.6570     0.1075     60.050      8.840    -29.390
 2195.0000    144.470   3350.000     23.450      9.750     2.6820     0.1523     60.260      8.990    -19.840
 2196.0000    140.480  -3990.000     49.600      4.200     2.7620     0.1119     53.780      8.280    -29.800
 2197.0000    144.900   4420.000     60.710      4.090     2.6740     0.0702     67.460      8.950    -15.600
 2198.0000    144.180   -720.000     24.050     14.340     2.6100     0.1372     60.240      8.940    -11.090
 2199.0000    143.500   -680.000     60.510      6.160     2.5970     0.0621     57.490      8.240    -19.740
 2200.0000    142.920   -580.000     34.270      7.500     2.8760     0.0936     57.930      8.960    -26.760
 2201.0000    141.260  -1660.000     56.960      6.580     2.7300     0.1138     52.980      8.860    -23.420
 2202.0000    140.100  -1160.000     46.290     13.140     2.6940     0.1252     55.180      9.170    -12.280
 2203.0000    141.850   1750.000     50.150      7.140     2.7830     0.1103     57.810      8.990    -29.750
 2204.0000    144.820   2970.000     39.400      4.560     2.7060     0.1260     62.440      8.530    -22.940
 2205.0000    144.130   -690.000     28.690     10.940     2.7630     0.0659     64.790      8.650    -26.970
 2206.0000    145.020    890.000     63.150     12.430     2.8300     0.1075     74.580      8.610     -7.350
 2207.0000    146.050   1030.000     36.940      3.090     2.5390     0.0930     63.770      8.690    -26.990
 2208.0000    143.090  -2960.000     61.180     12.270     2.6450     0.0634     71.670      8.570    -10.120
 2209.0000    143.760    670.000     51.550      8.340     2.7290     0.0329     64.080      8.720    -13.310
 2210.0000    142.460  -1300.000     44.980      4.960     2.6730     0.1502     59.070      8.280    -28.430
 2211.0000    142.670    210.000     48.560     10.420     2.7200     0.1012     66.480      8.520    -24.480
 2212.0000    142.870    200.000     56.890      7.680     2.6790     0.0902     58.730      7.980     -5.840
 2213.0000    143.340    470.000     33.170      9.460     2.6660     0.1387     55.930      8.340    -25.020
 2214.0000    143.430     90.000     39.120     10.330     2.7840     0.1263     57.320      9.040    -21.930
 2215.0000    144.490   1060.000     40.330      4.190     2.6910     0.0854     56.960      8.130    -33.320
 2216.0000    143.260  -1230.000     36.710      4.850     2.7590     0.1233     65.960      8.470    -29.380
 2217.0000    143.300     40.000     37.220      5.090     2.6770     0.0671     56.600      8.950    -18.090
 2218.0000    144.380   1080.000     42.820      4.840     2.8510     0.1186     62.840      8.950    -33.580
 2219.0000    145.140    760.000     64.050     19.450     2.7210     0.1137     71.180      8.260    -24.980
 2220.0000    143.780  -1360.000     41.750      8.710     2.7000     0.1025     71.260      8.920    -24.570
 2221.0000    144.770    990.000     37.580      6.820     2.4930     0.1609     57.110      8.560    -17.330
 2222.0000    143.670  -1100.000     43.190     15.760     2.8130     0.0954     58.800      8.480    -14.390
 2223.0000    143.840    170.000     57.170      4.210     2.6750     0.0362     58.360      8.710    -32.600
 2224.0000    142.660  -1180.000     60.380      4.900     2.7210     0.1321     54.970      8.490    -23.030
 2225.0000    144.610   1950.000     44.190      6.700     2.7210     0.0748     42.070      9.180    -22.450
 2226.0000    145.230    620.000     33.910      8.570     2.6950     0.1387     52.440      8.770    -31.180
 2227.0000    142.970  -2260.000     40.790     11.480     2.7400     0.0971     58.530      8.800    -31.770
 2228.0000    142.170   -800.000     63.440      5.820     2.6020     0.1562     50.010      8.330    -21.110
 2229.0000    143.680   1510.000     42.130      6.320     2.5400     0.0915     56.230      8.940    -17.790
 2230.0000    144.300    620.000     17.700      8.260     2.6500     0.1369     58.170      8.450    -22.700
 2231.0000    141.830  -2470.000     56.870      8.290     2.6460     0.0952     59.370      8.960    -19.990
 2232.0000    145.590   3760.000     35.420      6.670     2.8550     0.1443     62.520      8.320    -15.410
 2233.0000    145.330   -260.000     45.960     11.770     2.6970     0.1131     57.880      8.320    -25.340
 2234.0000    146.930   1600.000     36.940      7.860     2.8020     0.1078     59.280      9.190    -21.580
 2235.0000    145.940   -990.000     47.440     18.160     2.7930     0.0973     63.870      8.730     -9.920
 2236.0000    145.900    -40.000     61.340      8.370     2.5890     0.1355     60.200      9.000     -0.140
 2237.0000    143.020  -2880.000     51.160      9.850     2.7280     0.1078     54.880      9.430    -21.900
 2238.0000    143.660    640.000     41.050      4.540     2.7750     0.1941     62.830      8.460    -28.120
 2239.0000    146.110   2450.000     21.110      5.730     2.6350     0.1013     52.680      9.190    -23.860
 2240.0000    144.880  -1230.000     45.640     11.500     2.6780     0.1466     56.160      8.470    -22.280
 2241.0000    148.050   3170.000     41.240     14.360     2.7550     0.0375     64.620      8.500    -18.860
 2242.0000    146.280  -1770.000     66.640      7.300     2.6080     0.0871     63.630      8.860     -9.960
 2243.0000    145.730   -550.000     53.900     11.700     2.7210     0.0841     63.710      9.020    -40.090
 2244.0000    146.750   1020.000     33.760      7.330     2.7540     0.1391     50.610      8.610    -29.510
 2245.0000    145.720  -1030.000     40.250      7.970     2.6920     0.0767     55.350      8.600     -8.290
 2246.0000    147.740   2020.000     31.210     10.470     2.7040     0.0946     60.680      8.760    -26.720
 2247.0000    144.610  -3130.000     21.280      6.260     2.7150     0.0937     51.270      9.470    -19.660
 2248.0000    143.260  -1350.000     36.060      7.020     2.6660     0.0415     57.340      8.460    -34.710
 2249.0000    145.320   2060.000     56.030      5.520     2.7150     0.0859     62.360      8.940    -22.930
 2250.0000    147.010   1690.000     37.830      8.610     2.7330     0.0799     57.840      8.590    -19.870
 2251.0000    143.810  -3200.000     25.840     14.320     2.6520     0.1177     58.050      8.660    -39.400
 2252.0000    146.440   2630.000     44.760     15.450     2.7100     0.0971     64.790      7.810     -9.200
 2253.0000    145.170  -1270.000     44.630      8.010     2.7400     0.0549     55.850      8.430    -16.920
 2254.0000    145.610    440.000     47.350      5.980     2.7200     0.1158     53.310      9.110    -35.980
 2255.0000    146.640   1030.000     35.280      8.120     2.6560     0.0254     65.050      8.870    -24.340
 2256.0000    146.760    120.000     40.210      8.850     2.5650     0.1443     59.430      8.470    -28.760
 2257.0000    146.260   -500.000     44.130      4.090     2.8050     0.1136     65.070      8.950    -32.260
 2258.0000    146.250    -10.000     48.810     10.320     2.7020     0.0456     67.130      8.600    -34.400
 2259.0000    147.620   1370.000     40.610      5.510     2.6990     0.0991     65.950      8.300    -16.340
 2260.0000    146.920   -700.000     36.980      6.140     2.7180     0.0752     56.550      8.770    -23.090
 2261.0000    145.150  -1770.000     19.920     14.450     2.7460     0.1034     65.750      8.610     -6.610
 2262.0000    145.580    430.000     38.600     12.560     2.6130     0.1196     53.810      8.310    -11.390
