~VERSION INFORMATION
VERS.                  2.0   : CWLS LOG ASCII STANDARD - VERSION 2.0
WRAP.                  NO    : ONE LINE PER DEPTH STEP
~WELL INFORMATION
STRT.M        0.0000      : START DEPTH
STOP.M        3100.0000      : STOP DEPTH
STEP.M        1.0000           : STEP VALUE
NULL.         -9999.25           : NULL VALUE
COMP.         Drake AI             : COMPANY
WELL.         GBG-02H          : WELL NAME
FLD.          Brady Hot Springs         : FIELD NAME
LOC.          Churchill County, NV        : LOCATION
CNTY.         Churchill County : COUNTY
STAT.         Nevada               : STATE
CTRY.         USA                  : COUNTRY
UWI.          49-023--02H02     : UNIQUE WELL ID
LATI.DEG      39.8201       : LATITUDE
LONG.DEG      -118.4610       : LONGITUDE (W)
KB.M          1218.0        : KB ELEVATION
GDAT.         WGS84               : GEODETIC DATUM
APIN.         49-023-10002 : API NUMBER
SPUD.         2024-03-15  : SPUD DATE
COMP_DATE.    2025-01-25  : COMPLETION DATE
WELL_TYPE.    Hydrothermal          : WELL TYPE
FLUID_TYPE.   Brine         : FLUID TYPE
TD_DRILLER.M  3100.0            : TOTAL DEPTH (DRILLER)
~CURVE INFORMATION
DEPT.M        :  1  DEPTH
TEMP.DEGC     :  2  FORMATION TEMPERATURE (CORRECTED BHT)
GRAD.DEGC_KM  :  3  GEOTHERMAL GRADIENT
GR.API        :  4  GAMMA RAY
RT.OHMM       :  5  TRUE RESISTIVITY (DEEP)
RHOB.G_CC     :  6  BULK DENSITY
NPHI.V_V      :  7  NEUTRON POROSITY
DT.US_FT      :  8  SONIC DELTA-T
CALI.IN       :  9  CALIPER
SP.MV         : 10  SPONTANEOUS POTENTIAL
~PARAMETER INFORMATION
MFLT.         Water-based mud       : MUD TYPE
MWT.G_CC      1.08                 : MUD WEIGHT
BHT.DEGC      195.0       : BOTTOM HOLE TEMPERATURE (MEASURED)
SURF_T.DEGC   15.0 : SURFACE TEMPERATURE
GRADIENT.DEGC_KM  58.1 : AVERAGE GEOTHERMAL GRADIENT
BS.IN         8.5                  : BIT SIZE
~A  DEPT     TEMP      GRAD     GR       RT       RHOB     NPHI     DT       CALI     SP
# ...
 1606.0000    108.660   2180.000     91.400      4.620     2.6300     0.1676     61.600      8.600    -32.070
 1607.0000    107.160  -1500.000     33.590      9.440     2.6960     0.0575     63.690      8.690    -41.340
 1608.0000    106.800   -360.000     28.900      7.000     2.6750     0.0808     60.390      8.040    -39.550
 1609.0000    106.890     90.000     48.950     11.090     2.8140     0.0571     55.450      8.600    -29.080
 1610.0000    110.900   4010.000     51.220      8.730     2.7130     0.1081     71.900      8.720    -20.850
 1611.0000    108.760  -2140.000     49.460     10.760     2.5590     0.1106     71.520      8.410    -30.610
 1612.0000    107.520  -1240.000     64.390      9.340     2.8490     0.1033     60.530      9.310    -30.430
 1613.0000    109.250   1730.000     47.690      3.960     2.7770     0.0728     59.540      8.680    -27.020
 1614.0000    107.990  -1260.000     47.650      8.250     2.7080     0.1873     61.100      8.440    -24.380
 1615.0000    107.880   -110.000     25.770      5.950     2.6130     0.1068     68.490      8.950    -25.100
 1616.0000    110.760   2880.000     37.040      5.590     2.6790     0.0863     55.890      8.250    -34.050
 1617.0000    106.680  -4080.000     38.450      6.460     2.7260     0.1413     56.200      9.240    -39.220
 1618.0000    109.110   2430.000     41.070     20.550     2.6520     0.1037     61.080      8.680    -24.420
 1619.0000    107.370  -1740.000     69.430      4.640     2.6610     0.1199     61.800      9.010    -41.710
 1620.0000    107.990    620.000     52.620     31.590     2.6330     0.1005     56.940      8.450    -36.090
 1621.0000    110.850   2860.000     66.820     10.370     2.6160     0.1106     68.910      8.620    -34.060
 1622.0000    108.120  -2730.000     23.760      8.170     2.7860     0.1116     62.060      8.750    -29.610
 1623.0000    107.780   -340.000     35.740      8.830     2.6110     0.0958     67.730      8.890    -37.960
 1624.0000    108.700    920.000     19.680      4.280     2.6940     0.0559     70.770      8.610    -28.870
 1625.0000    108.300   -400.000     57.900      4.130     2.7150     0.0775     68.340      8.690    -28.780
 1626.0000    110.230   1930.000     30.240      3.900     2.7800     0.0646     59.840      8.450    -40.500
 1627.0000    107.860  -2370.000     58.670      4.280     2.6800     0.0831     50.030      8.920    -36.380
 1628.0000    109.050   1190.000     39.750     14.130     2.7400     0.1250     62.060      8.990    -29.450
 1629.0000    110.100   1050.000     47.080      7.610     2.6750     0.1110     59.690      8.350    -34.980
 1630.0000    111.660   1560.000     69.140      7.670     2.6610     0.0977     61.630      8.890    -13.320
 1631.0000    109.370  -2290.000     25.490      6.060     2.6830     0.1262     56.840      8.700    -30.580
 1632.0000    109.370      0.000     47.810     22.150     2.6970     0.0784     51.300      8.970    -15.100
 1633.0000    111.880   2510.000     45.170      8.520     2.6440     0.1533     57.270      8.470    -31.600
 1634.0000    111.930     50.000     43.240      6.180     2.6430     0.0814     62.600      9.310    -36.520
 1635.0000    108.450  -3480.000     52.640      8.690     2.6340     0.1720     56.780      8.290    -33.360
 1636.0000    110.710   2260.000     22.480      8.430     2.6930     0.1280     53.360      8.680    -37.710
 1637.0000    111.270    560.000     49.740      6.320     2.7310     0.0990     56.000      8.940    -28.540
 1638.0000    110.470   -800.000     51.570      3.230     2.7530     0.0604     51.490      9.070     -7.770
 1639.0000    110.010   -460.000     45.330     14.800     2.6820     0.1342     62.540      9.060    -31.530
 1640.0000    108.810  -1200.000     42.070      8.500     2.7430     0.1153     64.490      8.760    -27.650
 1641.0000    107.450  -1360.000     35.300     11.260     2.7600     0.0766     57.190      8.000    -30.290
 1642.0000    112.610   5160.000     32.530      6.090     2.6890     0.0721     58.560      8.540    -39.130
 1643.0000    111.210  -1400.000     54.420     10.970     2.6450     0.0720     59.040      8.530    -27.840
 1644.0000    108.550  -2660.000     48.220      5.110     2.7140     0.1254     63.710      8.800    -33.440
 1645.0000    109.610   1060.000     33.670      6.600     2.6770     0.0836     53.080      8.610    -30.050
 1646.0000    111.840   2230.000     55.140      2.920     2.6590     0.1162     59.970      8.020    -33.840
 1647.0000    110.580  -1260.000     45.750      6.720     2.7230     0.1316     59.850      8.960    -24.280
 1648.0000    114.110   3530.000     49.140     14.010     2.5790     0.1101     58.300      9.170    -24.100
 1649.0000    111.030  -3080.000     26.170      5.830     2.6160     0.1207     54.540      9.100    -25.560
 1650.0000    114.490   3460.000     24.620     10.320     2.6710     0.1067     69.840      8.480    -24.070
 1651.0000    113.280  -1210.000     43.100      6.630     2.6480     0.0649     60.610      8.700    -36.180
 1652.0000    111.610  -1670.000     22.840      9.160     2.7320     0.1225     67.080      8.840    -28.450
 1653.0000    112.060    450.000     41.430     10.010     2.6660     0.0824     70.680      8.350    -27.930
 1654.0000    109.370  -2690.000     19.530      3.240     2.6530     0.0857     59.570      8.310    -31.460
 1655.0000    112.360   2990.000     21.260      4.040     2.7260     0.0607     55.700      8.560    -42.290
 1656.0000    108.640  -3720.000     41.550      7.250     2.5130     0.1058     69.500      8.910    -30.390
 1657.0000    111.970   3330.000     50.220     14.250     2.6140     0.0919     64.410      8.720    -25.240
 1658.0000    110.890  -1080.000     45.260      7.890     2.6560     0.1093     66.220      8.770    -10.620
 1659.0000    110.870    -20.000     56.910      8.370     2.6760     0.2017     66.650      9.080    -44.490
 1660.0000    110.130   -740.000     44.910     10.820     2.8230     0.1094     67.860      9.260    -51.780
 1661.0000    113.070   2940.000     38.870      4.090     2.8060     0.1031     57.840      8.470    -22.220
 1662.0000    111.850  -1220.000     36.500      7.020     2.5790     0.1277     74.140      8.390    -31.550
 1663.0000    115.030   3180.000     53.060      2.530     2.7550     0.0790     60.360      9.160    -29.300
 1664.0000    112.590  -2440.000     39.680      6.680     2.5340     0.1235     63.900      8.680    -29.470
 1665.0000    110.010  -2580.000     44.790      7.830     2.6590     0.1062     51.070      8.910    -22.720
 1666.0000    113.160   3150.000     68.470      4.210     2.7100     0.1321     64.620      8.870    -20.900
 1667.0000    112.300   -860.000     57.570      6.120     2.6420     0.0849     59.280      8.510    -10.700
 1668.0000    113.780   1480.000     58.460      9.350     2.7140     0.1152     52.530      8.540    -30.020
 1669.0000    111.670  -2110.000     66.030     15.560     2.5710     0.1160     55.220      9.370    -26.610
 1670.0000    113.520   1850.000     32.790      6.880     2.6130     0.0672     56.370      8.030    -30.450
 1671.0000    112.210  -1310.000     50.060      5.580     2.5670     0.1176     66.590      8.800    -39.880
 1672.0000    113.150    940.000     30.850      6.920     2.6340     0.1250     57.470      8.910    -49.620
 1673.0000    113.300    150.000     53.020      6.720     2.6890     0.1123     56.620      9.170    -38.740
 1674.0000    108.480  -4820.000     51.880      9.150     2.8000     0.0786     56.590      8.700    -23.110
 1675.0000    111.240   2760.000     40.410      6.030     2.6500     0.1911     52.760      9.000    -32.630
 1676.0000    111.680    440.000     19.020     11.770     2.6940     0.1661     55.720      9.110    -40.340
 1677.0000    112.100    420.000     79.150     27.990     2.6510     0.0866     53.760      8.910    -32.280
 1678.0000    114.280   2180.000     52.910      8.920     2.7380     0.0728     70.800      8.570    -35.760
