~VERSION INFORMATION
VERS.                  2.0   : CWLS LOG ASCII STANDARD - VERSION 2.0
WRAP.                  NO    : ONE LINE PER DEPTH STEP
~WELL INFORMATION
STRT.M        0.0000      : START DEPTH
STOP.M        3100.0000      : STOP DEPTH
STEP.M        1.0000           : STEP VALUE
NULL.         -9999.25           : NULL VALUE
COMP.         Drake AI             : COMPANY
WELL.         GBG-02H          : WELL NAME
FLD.          Brady Hot Springs         : FIELD NAME
LOC.          Churchill County, NV        : LOCATION
CNTY.         Churchill County : COUNTY
STAT.         Nevada               : STATE
CTRY.         USA                  : COUNTRY
UWI.          49-023--02H02     : UNIQUE WELL ID
LATI.DEG      39.8201       : LATITUDE
LONG.DEG      -118.4610       : LONGITUDE (W)
KB.M          1218.0        : KB ELEVATION
GDAT.         WGS84               : GEODETIC DATUM
APIN.         49-023-10002 : API NUMBER
SPUD.         2024-03-15  : SPUD DATE
COMP_DATE.    2025-01-25  : COMPLETION DATE
WELL_TYPE.    Hydrothermal          : WELL TYPE
FLUID_TYPE.   Brine         : FLUID TYPE
TD_DRILLER.M  3100.0            : TOTAL DEPTH (DRILLER)
~CURVE INFORMATION
DEPT.M        :  1  DEPTH
TEMP.DEGC     :  2  FORMATION TEMPERATURE (CORRECTED BHT)
GRAD.DEGC_KM  :  3  GEOTHERMAL GRADIENT
GR.API        :  4  GAMMA RAY
RT.OHMM       :  5  TRUE RESISTIVITY (DEEP)
RHOB.G_CC     :  6  BULK DENSITY
NPHI.V_V      :  7  NEUTRON POROSITY
DT.US_FT      :  8  SONIC DELTA-T
CALI.IN       :  9  CALIPER
SP.MV         : 10  SPONTANEOUS POTENTIAL
~PARAMETER INFORMATION
MFLT.         Water-based mud       : MUD TYPE
MWT.G_CC      1.08                 : MUD WEIGHT
BHT.DEGC      195.0       : BOTTOM HOLE TEMPERATURE (MEASURED)
SURF_T.DEGC   15.0 : SURFACE TEMPERATURE
GRADIENT.DEGC_KM  58.1 : AVERAGE GEOTHERMAL GRADIENT
BS.IN         8.5                  : BIT SIZE
~A  DEPT     TEMP      GRAD     GR       RT       RHOB     NPHI     DT       CALI     SP
# ...
  803.0000     63.150   2010.000     60.990      4.270     2.4080     0.1534     87.420      8.300    -51.410
  804.0000     61.210  -1940.000     63.800      7.490     2.4760     0.1878     74.400      8.710    -48.950
  805.0000     61.250     40.000     57.040     10.440     2.5770     0.2169     92.310      8.390    -43.700
  806.0000     64.120   2870.000     73.200      7.960     2.4440     0.1701     76.320      8.990    -32.580
  807.0000     63.120  -1000.000     76.190      6.430     2.4830     0.1093     70.800      8.510    -59.990
  808.0000     62.440   -680.000     52.490     11.900     2.5330     0.2486     66.790      8.350    -55.950
  809.0000     62.030   -410.000     63.860      8.140     2.4710     0.2211     96.520      8.430    -43.270
  810.0000     63.790   1760.000     56.410     14.500     2.5350     0.1707     79.800      8.660    -37.590
  811.0000     59.890  -3900.000     75.070      7.830     2.4680     0.1525     79.790      9.260    -54.950
  812.0000     62.460   2570.000     51.690     10.770     2.4510     0.1837     85.380      8.650    -46.260
  813.0000     63.180    720.000     76.310     53.700     2.4080     0.2266     95.270      8.860    -49.080
  814.0000     62.910   -270.000     41.510      6.420     2.5610     0.1899     65.900      8.200    -44.990
  815.0000     64.030   1120.000     49.650      5.740     2.4070     0.1854     78.050      8.290    -52.260
  816.0000     61.710  -2320.000     36.670      9.620     2.6890     0.2139     81.260      8.550    -53.760
  817.0000     64.620   2910.000     80.700      4.730     2.4670     0.1319     78.880      8.480    -52.230
  818.0000     62.100  -2520.000     43.730      5.030     2.5160     0.1280     76.340      8.470    -55.590
  819.0000     64.340   2240.000     45.720     10.100     2.4190     0.1543     64.460      8.900    -49.680
  820.0000     59.970  -4370.000     61.920      8.810     2.4370     0.1880     72.190      8.650    -31.660
  821.0000     64.290   4320.000     75.440      8.020     2.6230     0.1342     77.510      9.590    -51.470
  822.0000     59.360  -4930.000     48.900      6.930     2.5440     0.0411    103.280      9.370    -51.800
  823.0000     62.880   3520.000     96.130      7.550     2.3240     0.2470     83.950      8.180    -56.700
  824.0000     64.280   1400.000     45.770      6.790     2.4230     0.1729     84.210      8.640    -49.120
  825.0000     63.220  -1060.000     33.480     22.650     2.4500     0.1892     78.910      9.030    -33.700
  826.0000     62.880   -340.000     63.720     13.180     2.5560     0.2243     92.620      8.300    -38.250
  827.0000     61.010  -1870.000     51.310      2.740     2.2630     0.1735     77.630      9.040    -55.750
  828.0000     63.500   2490.000     33.910      4.000     2.5620     0.1938     78.620      9.120    -32.020
  829.0000     62.370  -1130.000     69.010      9.670     2.6620     0.1787     63.390      8.780    -63.040
  830.0000     61.320  -1050.000     41.320     10.570     2.6250     0.2493     77.230      8.840    -31.070
  831.0000     63.380   2060.000     34.930     17.730     2.6960     0.1789     83.260      8.320    -47.780
  832.0000     62.990   -390.000     82.540      7.830     2.5540     0.2049     89.330      9.030    -50.990
  833.0000     60.270  -2720.000     57.300     10.960     2.5100     0.1804     80.400      8.550    -47.210
  834.0000     64.440   4170.000     47.620      7.180     2.4520     0.1308     71.660      8.720    -47.140
  835.0000     62.770  -1670.000     27.880      9.070     2.5640     0.1242     84.290      9.290    -58.380
  836.0000     65.580   2810.000     79.310     17.960     2.3800     0.1830     82.800      8.790    -51.730
  837.0000     62.350  -3230.000     58.510      9.460     2.6420     0.2993     72.700      8.820    -47.700
  838.0000     63.440   1090.000     76.420     17.250     2.4370     0.1885     74.240      9.180    -42.880
  839.0000     65.060   1620.000     47.710      6.210     2.4680     0.1405     81.670      8.610    -40.220
  840.0000     61.830  -3230.000     48.050     12.430     2.5010     0.2399    101.170      8.890    -41.160
  841.0000     62.700    870.000     49.330      9.310     2.6070     0.1802     88.190      9.130    -46.230
  842.0000     64.340   1640.000     55.100      4.860     2.4430     0.1843     80.290      8.440    -44.970
  843.0000     61.400  -2940.000     64.650      7.550     2.5580     0.2040     83.070      9.030    -53.570
  844.0000     64.010   2610.000     62.770      9.250     2.4270     0.2112     76.040      8.510    -43.010
  845.0000     61.820  -2190.000    101.690     24.010     2.6370     0.2376     79.650      8.460    -53.730
  846.0000     61.980    160.000     69.080     10.070     2.4860     0.1847     88.070      8.970    -51.980
  847.0000     65.350   3370.000     70.470      2.960     2.4590     0.1780     89.310      9.040    -37.910
  848.0000     64.350  -1000.000     56.010      3.330     2.4430     0.1647     89.330      8.910    -31.550
  849.0000     63.280  -1070.000     58.140      7.650     2.4850     0.2143     86.710      8.590    -56.190
  850.0000     64.780   1500.000     45.880     17.020     2.6440     0.1396     83.020      8.710    -41.140
  851.0000     62.230  -2550.000     86.450      6.430     2.5250     0.1708     89.550      9.190    -49.240
  852.0000     65.480   3250.000     74.640     13.840     2.4050     0.2240     73.880      8.530    -43.890
  853.0000     62.200  -3280.000     68.690     18.870     2.5570     0.1857     83.650      8.800    -43.420
  854.0000     65.240   3040.000     45.820      4.540     2.4130     0.0938     71.740      8.620    -46.160
  855.0000     65.050   -190.000     33.950     15.310     2.6780     0.2209     85.120      8.420    -39.520
  856.0000     65.500    450.000     58.690      6.720     2.3300     0.1149     79.080      8.640    -45.470
  857.0000     64.740   -760.000     38.110      8.870     2.4320     0.1920     73.850      9.210    -63.520
  858.0000     66.260   1520.000     93.910     15.510     2.4550     0.1080     90.290      8.470    -52.380
  859.0000     66.760    500.000     85.330     14.010     2.5910     0.2059     84.670      8.690    -31.390
  860.0000     65.040  -1720.000     57.870      8.800     2.5110     0.2453     81.420      8.840    -48.630
  861.0000     63.830  -1210.000     65.590      6.800     2.4350     0.1346     70.020      8.260    -35.690
  862.0000     65.290   1460.000     28.890      9.450     2.6530     0.2236     69.900      8.460    -65.880
  863.0000     62.970  -2320.000     70.480     19.050     2.4070     0.1741     79.900      8.140    -38.600
  864.0000     62.860   -110.000     76.760     12.980     2.5080     0.1895     77.330      8.120    -26.710
  865.0000     63.760    900.000     56.910     18.780     2.2770     0.1372     82.280      8.390    -51.050
  866.0000     65.230   1470.000     37.240      4.380     2.5550     0.0513     72.900      8.870    -36.840
  867.0000     64.850   -380.000     60.180     14.060     2.5410     0.1667     73.650      8.090    -47.240
  868.0000     66.200   1350.000     48.880      6.950     2.5070     0.1870     79.770      8.660    -46.570
  869.0000     64.730  -1470.000     55.290      5.270     2.4030     0.2265     78.560      9.310    -34.210
  870.0000     64.530   -200.000     39.380      8.120     2.3780     0.2405     89.410      8.790    -36.350
  871.0000     61.920  -2610.000     70.820     18.730     2.7110     0.1701     89.640      8.240    -63.030
  872.0000     66.090   4170.000     72.200      6.880     2.4890     0.1316     78.670      9.230    -49.130
  873.0000     68.400   2310.000     32.900     13.880     2.5430     0.1963     74.100      8.820    -35.060
  874.0000     65.160  -3240.000     45.350      5.620     2.4150     0.2415     76.130      8.820    -52.350
  875.0000     68.430   3270.000     96.510     37.450     2.5870     0.1153     72.900      9.140    -47.570
