~VERSION INFORMATION
VERS.                  2.0   : CWLS LOG ASCII STANDARD - VERSION 2.0
WRAP.                  NO    : ONE LINE PER DEPTH STEP
~WELL INFORMATION
STRT.M        0.0000      : START DEPTH
STOP.M        3100.0000      : STOP DEPTH
STEP.M        1.0000           : STEP VALUE
NULL.         -9999.25           : NULL VALUE
COMP.         Drake AI             : COMPANY
WELL.         GBG-02H          : WELL NAME
FLD.          Brady Hot Springs         : FIELD NAME
LOC.          Churchill County, NV        : LOCATION
CNTY.         Churchill County : COUNTY
STAT.         Nevada               : STATE
CTRY.         USA                  : COUNTRY
UWI.          49-023--02H02     : UNIQUE WELL ID
LATI.DEG      39.8201       : LATITUDE
LONG.DEG      -118.4610       : LONGITUDE (W)
KB.M          1218.0        : KB ELEVATION
GDAT.         WGS84               : GEODETIC DATUM
APIN.         49-023-10002 : API NUMBER
SPUD.         2024-03-15  : SPUD DATE
COMP_DATE.    2025-01-25  : COMPLETION DATE
WELL_TYPE.    Hydrothermal          : WELL TYPE
FLUID_TYPE.   Brine         : FLUID TYPE
TD_DRILLER.M  3100.0            : TOTAL DEPTH (DRILLER)
~CURVE INFORMATION
DEPT.M        :  1  DEPTH
TEMP.DEGC     :  2  FORMATION TEMPERATURE (CORRECTED BHT)
GRAD.DEGC_KM  :  3  GEOTHERMAL GRADIENT
GR.API        :  4  GAMMA RAY
RT.OHMM       :  5  TRUE RESISTIVITY (DEEP)
RHOB.G_CC     :  6  BULK DENSITY
NPHI.V_V      :  7  NEUTRON POROSITY
DT.US_FT      :  8  SONIC DELTA-T
CALI.IN       :  9  CALIPER
SP.MV         : 10  SPONTANEOUS POTENTIAL
~PARAMETER INFORMATION
MFLT.         Water-based mud       : MUD TYPE
MWT.G_CC      1.08                 : MUD WEIGHT
BHT.DEGC      195.0       : BOTTOM HOLE TEMPERATURE (MEASURED)
SURF_T.DEGC   15.0 : SURFACE TEMPERATURE
GRADIENT.DEGC_KM  58.1 : AVERAGE GEOTHERMAL GRADIENT
BS.IN         8.5                  : BIT SIZE
~A  DEPT     TEMP      GRAD     GR       RT       RHOB     NPHI     DT       CALI     SP
# ...
  584.0000     49.920    970.000     64.830     10.920     2.4540     0.2074     92.090      8.530    -37.900
  585.0000     51.450   1530.000     45.360      5.530     2.6010     0.2184     68.410      8.930    -36.360
  586.0000     49.420  -2030.000     21.590      6.470     2.4880     0.1226     76.340      8.660    -57.350
  587.0000     52.840   3420.000     78.480     32.420     2.4010     0.1148     79.440      8.810    -47.790
  588.0000     47.520  -5320.000     51.040      4.290     2.4530     0.1561     78.370      9.120    -33.450
  589.0000     49.590   2070.000     98.360      2.320     2.4660     0.2132     78.020      8.430    -44.710
  590.0000     50.280    690.000     54.650     10.780     2.4580     0.1436     54.820      8.690    -41.190
  591.0000     47.920  -2360.000     28.960      8.620     2.4710     0.1409     58.540      8.560    -58.460
  592.0000     49.120   1200.000     73.770      7.880     2.4660     0.1658     77.260      8.490    -66.080
  593.0000     49.020   -100.000     55.020     18.830     2.5420     0.2691     73.290      8.250    -53.170
  594.0000     52.950   3930.000     61.110     10.460     2.5440     0.2013     84.850      8.960    -53.030
  595.0000     47.500  -5450.000     71.990      9.400     2.3490     0.1264     77.250      8.480    -53.230
  596.0000     49.010   1510.000     28.110      8.200     2.2760     0.1937     90.340      9.220    -45.260
  597.0000     50.000    990.000     70.250     12.990     2.4330     0.2069     72.630      8.250    -39.260
  598.0000     49.480   -520.000     66.640     17.690     2.3800     0.1760     89.900      8.760    -46.560
  599.0000     52.420   2940.000     34.860     13.850     2.2980     0.2165     89.230      8.230    -43.360
  600.0000     49.450  -2970.000     83.570     30.390     2.6120     0.2642     85.180      8.370    -57.360
  601.0000     50.930   1480.000     53.120     10.350     2.4850     0.2332     78.240      8.170    -54.750
  602.0000     50.440   -490.000     48.660     11.790     2.5170     0.2483     74.870      9.220    -49.660
  603.0000     48.640  -1800.000     42.970      4.670     2.3060     0.2605     82.230      9.210    -51.120
  604.0000     48.530   -110.000     46.540      8.010     2.6130     0.2081     74.300      8.470    -46.820
  605.0000     49.510    980.000     42.030     15.930     2.5310     0.2200     67.800      8.720    -48.560
  606.0000     50.410    900.000     74.620     26.860     2.5050     0.2322     76.760      8.360    -49.270
  607.0000     52.820   2410.000     43.460     12.320     2.6640     0.0993     94.110      9.150    -46.770
  608.0000     51.870   -950.000     62.390      5.590     2.5810     0.2457     87.070      9.360    -48.090
  609.0000     48.610  -3260.000     33.230     37.710     2.5450     0.1300     79.420      9.090    -46.120
  610.0000     51.790   3180.000     49.110      8.760     2.4560     0.1109     79.950      8.440    -47.170
  611.0000     50.360  -1430.000     54.260      8.230     2.6730     0.2305     72.710      8.620    -60.080
  612.0000     49.680   -680.000     66.320      5.670     2.4870     0.2301     86.340      8.400    -72.150
  613.0000     49.650    -30.000     46.280     25.140     2.5270     0.2403     74.170      8.320    -63.370
  614.0000     51.470   1820.000     52.240     12.320     2.3850     0.2468     73.250      8.670    -38.830
  615.0000     49.590  -1880.000     31.950      8.400     2.5660     0.2055     57.750      8.710    -46.570
  616.0000     52.460   2870.000     44.620     12.710     2.2400     0.1857     69.340      8.580    -45.640
  617.0000     50.370  -2090.000     28.330     14.050     2.5610     0.2087     73.070      9.210    -53.820
  618.0000     50.870    500.000     59.210      7.830     2.5530     0.1466     85.050      8.600    -61.030
  619.0000     52.090   1220.000     49.560      8.590     2.5680     0.1078     76.450      8.680    -52.610
  620.0000     53.330   1240.000     66.550      7.950     2.4890     0.2017     77.490      8.850    -50.270
  621.0000     49.900  -3430.000     82.080     17.970     2.5520     0.1696     77.580      8.280    -37.550
  622.0000     52.210   2310.000     27.640     12.430     2.3020     0.2097     76.080      8.880    -49.520
  623.0000     50.780  -1430.000     88.050     12.890     2.5990     0.2376     69.900      8.320    -53.070
  624.0000     50.260   -520.000     51.640     10.440     2.2810     0.0541     86.610      8.480    -63.970
  625.0000     50.990    730.000     41.680      7.150     2.4670     0.2629     80.040      8.340    -49.230
  626.0000     53.560   2570.000     76.790     11.180     2.3150     0.2148     82.640      8.560    -53.700
  627.0000     50.660  -2900.000     51.380     20.660     2.5150     0.2045     65.820      8.400    -50.410
  628.0000     52.010   1350.000     80.640     14.370     2.4160     0.2453     80.050      8.510    -60.110
  629.0000     51.200   -810.000     31.720     16.310     2.4970     0.1816     90.810      8.580    -46.670
  630.0000     54.330   3130.000     59.380      3.760     2.4370     0.0399     95.420      8.870    -49.410
  631.0000     49.930  -4400.000    104.750      2.840     2.4500     0.1731     86.630      8.890    -57.070
  632.0000     51.880   1950.000     59.480     13.750     2.5060     0.2430     92.060      8.980    -41.430
  633.0000     49.260  -2620.000     69.780      3.460     2.5890     0.1425     93.310      8.330    -61.940
  634.0000     48.660   -600.000     53.530      4.280     2.5300     0.2814     78.320      9.080    -57.150
  635.0000     51.730   3070.000     46.310      6.600     2.5640     0.2372     75.650      8.440    -44.200
  636.0000     50.910   -820.000     96.020     12.440     2.4370     0.1639     78.470      8.440    -48.770
  637.0000     51.730    820.000     33.660      9.050     2.4540     0.1480     92.270      8.390    -48.190
  638.0000     52.640    910.000     34.140      8.250     2.3830     0.0580     88.980      8.880    -56.680
  639.0000     52.080   -560.000     54.960      3.240     2.3320     0.2740     86.590      8.970    -42.080
  640.0000     52.730    650.000     58.490      6.040     2.6290     0.2316     66.420      8.920    -35.920
  641.0000     51.960   -770.000     41.160      2.910     2.4860     0.1421     77.670      9.040    -35.150
  642.0000     55.000   3040.000     37.050      3.860     2.5280     0.2349     81.270      8.200    -67.690
  643.0000     51.230  -3770.000     59.860     11.070     2.3720     0.1299     87.820      8.670    -59.280
  644.0000     50.330   -900.000     50.670      7.050     2.3600     0.1961     95.370      8.930    -54.350
  645.0000     54.720   4390.000     47.840     19.730     2.5660     0.1314     81.870      8.480    -60.530
  646.0000     53.000  -1720.000     41.390      3.370     2.5100     0.1717     82.520      8.520    -47.930
  647.0000     51.900  -1100.000     52.550      5.260     2.3270     0.1772     97.370      8.350    -51.960
  648.0000     56.780   4880.000     67.810      6.110     2.4690     0.1040     64.130      8.220    -50.970
  649.0000     52.750  -4030.000     68.550     17.190     2.4760     0.0810     74.980      8.730    -57.610
  650.0000     52.730    -20.000      6.700      6.880     2.4970     0.1579     70.310      8.880    -58.530
  651.0000     52.500   -230.000     44.620     11.900     2.6230     0.1282     81.480      8.600    -50.410
  652.0000     51.530   -970.000     77.500     10.330     2.3360     0.2121     75.360      9.060    -36.420
  653.0000     54.100   2570.000     50.990      6.930     2.5860     0.2231     68.290      8.640    -32.930
  654.0000     52.250  -1850.000     47.670      9.190     2.4890     0.1375     89.050      8.760    -54.190
  655.0000     51.830   -420.000     68.230     12.430     2.5340     0.1323     70.520      8.540    -43.470
  656.0000     53.840   2010.000     47.940     18.300     2.6770     0.1583     82.440      8.590    -45.240
