~VERSION INFORMATION
VERS.                  2.0   : CWLS LOG ASCII STANDARD - VERSION 2.0
WRAP.                  NO    : ONE LINE PER DEPTH STEP
~WELL INFORMATION
STRT.M        0.0000      : START DEPTH
STOP.M        3100.0000      : STOP DEPTH
STEP.M        1.0000           : STEP VALUE
NULL.         -9999.25           : NULL VALUE
COMP.         Drake AI             : COMPANY
WELL.         GBG-02H          : WELL NAME
FLD.          Brady Hot Springs         : FIELD NAME
LOC.          Churchill County, NV        : LOCATION
CNTY.         Churchill County : COUNTY
STAT.         Nevada               : STATE
CTRY.         USA                  : COUNTRY
UWI.          49-023--02H02     : UNIQUE WELL ID
LATI.DEG      39.8201       : LATITUDE
LONG.DEG      -118.4610       : LONGITUDE (W)
KB.M          1218.0        : KB ELEVATION
GDAT.         WGS84               : GEODETIC DATUM
APIN.         49-023-10002 : API NUMBER
SPUD.         2024-03-15  : SPUD DATE
COMP_DATE.    2025-01-25  : COMPLETION DATE
WELL_TYPE.    Hydrothermal          : WELL TYPE
FLUID_TYPE.   Brine         : FLUID TYPE
TD_DRILLER.M  3100.0            : TOTAL DEPTH (DRILLER)
~CURVE INFORMATION
DEPT.M        :  1  DEPTH
TEMP.DEGC     :  2  FORMATION TEMPERATURE (CORRECTED BHT)
GRAD.DEGC_KM  :  3  GEOTHERMAL GRADIENT
GR.API        :  4  GAMMA RAY
RT.OHMM       :  5  TRUE RESISTIVITY (DEEP)
RHOB.G_CC     :  6  BULK DENSITY
NPHI.V_V      :  7  NEUTRON POROSITY
DT.US_FT      :  8  SONIC DELTA-T
CALI.IN       :  9  CALIPER
SP.MV         : 10  SPONTANEOUS POTENTIAL
~PARAMETER INFORMATION
MFLT.         Water-based mud       : MUD TYPE
MWT.G_CC      1.08                 : MUD WEIGHT
BHT.DEGC      195.0       : BOTTOM HOLE TEMPERATURE (MEASURED)
SURF_T.DEGC   15.0 : SURFACE TEMPERATURE
GRADIENT.DEGC_KM  58.1 : AVERAGE GEOTHERMAL GRADIENT
BS.IN         8.5                  : BIT SIZE
~A  DEPT     TEMP      GRAD     GR       RT       RHOB     NPHI     DT       CALI     SP
# ...
 1168.0000     85.390  -1770.000     22.610     22.110     2.7180     0.0993     62.360      9.710    -46.790
 1169.0000     87.230   1840.000     35.510     27.880     2.6360     0.0786     51.030      9.760    -48.980
 1170.0000     83.720  -3510.000     32.410     23.660     2.6720     0.1746     64.450      8.690    -37.920
 1171.0000     82.770   -950.000     12.330     36.460     2.6850     0.1378     55.720     10.290    -40.940
 1172.0000     86.450   3680.000     44.800     19.790     2.7270     0.1855     71.630     10.330    -41.840
 1173.0000     85.350  -1100.000     29.050     20.840     2.8360     0.1046     57.360     10.440    -42.320
 1174.0000     86.220    870.000     33.740     87.310     2.6470     0.0920     54.640     10.190    -38.530
 1175.0000     85.060  -1160.000     34.610     45.290     2.6120     0.1717     61.200      9.970    -36.260
 1176.0000     87.480   2420.000     38.780     31.110     2.6070     0.1475     52.370      9.990    -37.020
 1177.0000     87.700    220.000     31.880     20.210     2.7900     0.1082     61.930      9.760    -39.490
 1178.0000     84.970  -2730.000     55.030     42.700     2.7180     0.1716     66.620      9.850    -39.910
 1179.0000     88.590   3620.000     30.680     17.280     2.7070     0.1236     62.940      9.450    -48.010
 1180.0000     88.630     40.000     25.570     44.150     2.6200     0.1023     60.610     10.770    -39.380
 1181.0000     88.830    200.000     20.080     32.700     2.5950     0.1127     53.920     10.120    -38.080
 1182.0000     86.720  -2110.000     22.470     10.670     2.7960     0.0977     70.260     10.150    -37.010
 1183.0000     88.160   1440.000     18.760     41.810     2.7380     0.1258     58.870     10.390    -28.010
 1184.0000     86.870  -1290.000     34.050     23.180     2.7990     0.1169     51.330     10.320    -38.330
 1185.0000     87.650    780.000     47.430     41.750     2.7170     0.1075     71.090     12.320    -37.140
 1186.0000     87.720     70.000     20.250     42.790     2.6970     0.1304     60.520     11.740    -50.710
 1187.0000     91.240   3520.000     18.160     58.790     2.7730     0.1652     66.050     10.810    -51.360
 1188.0000     86.950  -4290.000     44.360     27.530     2.7990     0.0863     58.020      9.470    -26.520
 1189.0000     88.560   1610.000     39.160     36.400     2.7900     0.1314     73.040     10.160    -55.900
 1190.0000     84.730  -3830.000     28.370     41.290     2.7090     0.1225     70.570     10.620    -44.700
 1191.0000     89.940   5210.000     52.800     27.820     2.6360     0.0552     72.780     11.740    -49.770
 1192.0000     86.900  -3040.000     48.430     37.820     2.7240     0.1392     60.120      9.390    -37.970
 1193.0000     89.360   2460.000     42.060     19.720     2.8700     0.0737     52.510     10.590    -34.460
 1194.0000     90.070    710.000     47.100     24.560     2.7110     0.1295     62.730     10.700    -31.510
 1195.0000     87.520  -2550.000     15.980     21.510     2.7620     0.0982     55.750      8.340    -45.000
 1196.0000     90.130   2610.000     22.620      8.540     2.8080     0.0806     65.110      9.830    -27.820
 1197.0000     86.850  -3280.000     33.110     58.070     2.7400     0.1360     60.960      9.820    -38.770
 1198.0000     90.490   3640.000     38.730     36.880     2.6730     0.0720     56.380      9.880    -35.080
 1199.0000     89.570   -920.000     32.750     33.920     2.6350     0.1364     58.850      9.360    -26.400
 1200.0000     90.010    440.000     30.280     22.280     2.6820     0.1211     58.820     10.410    -45.200
 1201.0000     90.440    430.000     37.820     30.590     2.8190     0.1641     68.800      9.940    -31.230
 1202.0000     89.020  -1420.000     34.680     38.630     2.6670     0.1597     64.850     10.220    -47.990
 1203.0000     90.660   1640.000     22.110     19.440     2.7790     0.0931     64.330     10.610    -51.040
 1204.0000     89.200  -1460.000     21.890     11.750     2.7180     0.0825     65.540      9.660    -43.960
 1205.0000     89.820    620.000     34.620     24.900     2.6950     0.1118     67.370     10.930    -39.410
 1206.0000     90.470    650.000     35.100     15.370     2.6280     0.0567     61.120      8.550    -43.280
 1207.0000     90.770    300.000     32.490     21.800     2.7160     0.1276     60.330     10.230    -48.950
 1208.0000     89.830   -940.000     38.970     34.540     2.8040     0.0979     54.580     10.990    -30.960
 1209.0000     91.920   2090.000     65.680     23.290     2.6180     0.0775     65.530     10.220    -36.270
 1210.0000     91.860    -60.000     59.080     21.660     2.7580     0.1111     63.970     11.050    -30.750
 1211.0000     90.580  -1280.000     40.650     24.840     2.8080     0.1331     70.990     10.270    -31.120
 1212.0000     89.260  -1320.000     58.100     37.580     2.6750     0.1321     61.080      9.960    -37.070
 1213.0000     90.820   1560.000     41.540     27.730     2.6670     0.1064     58.620      7.920    -36.150
 1214.0000     90.720   -100.000     59.690     15.480     2.7810     0.1816     65.120      7.640    -30.750
 1215.0000     93.620   2900.000     37.980     36.930     2.7710     0.1041     69.580     10.280    -27.980
 1216.0000     90.020  -3600.000     37.920     39.170     2.6410     0.1104     53.440      9.490    -44.020
 1217.0000     91.270   1250.000     17.280     17.920     2.7230     0.1930     51.180     10.960    -37.710
 1218.0000     91.520    250.000     37.940     33.120     2.7770     0.0849     62.580      9.430    -35.390
 1219.0000     91.200   -320.000     38.160     15.830     2.7550     0.1878     54.550     10.820    -43.130
 1220.0000     89.760  -1440.000     25.180     23.100     2.7280     0.1830     52.430      9.960    -39.320
 1221.0000     89.880    120.000     21.310     29.720     2.7850     0.1802     62.320      9.940    -31.920
 1222.0000     91.170   1290.000     17.350     16.130     2.7740     0.1037     64.560      9.490    -21.310
 1223.0000     91.510    340.000     13.180     18.080     2.7300     0.1752     67.200     10.090    -46.290
 1224.0000     91.110   -400.000     38.040     24.570     2.8670     0.0962     60.600     10.870    -43.720
 1225.0000     94.470   3360.000     32.240     13.420     2.5050     0.1251     60.530      9.530    -25.060
 1226.0000     89.440  -5030.000     38.020     25.420     2.5260     0.1693     58.240      9.610    -28.320
 1227.0000     94.630   5190.000     32.010     14.890     2.7450     0.1021     67.180     10.610    -35.860
 1228.0000     89.410  -5220.000     27.160     24.990     2.5450     0.1237     65.440     10.130    -47.910
 1229.0000     90.710   1300.000     50.910     47.280     2.7600     0.0759     59.520      9.400    -38.860
 1230.0000     92.820   2110.000     41.740     24.250     2.7760     0.1145     58.740      9.280    -32.870
 1231.0000     92.900     80.000     25.130     20.670     2.7050     0.0574     66.070      9.660    -32.750
 1232.0000     92.280   -620.000     47.960     39.810     2.8000     0.0584     60.720      9.870    -35.350
 1233.0000     90.480  -1800.000     35.620     54.510     2.7700     0.0837     58.840      9.700    -40.780
 1234.0000     93.520   3040.000     39.580     44.580     2.8140     0.1610     62.730      9.990    -35.350
 1235.0000     92.800   -720.000     25.440     31.380     2.6430     0.1515     61.310     10.110    -31.620
 1236.0000     92.150   -650.000     38.950     41.460     2.8890     0.1696     63.550     10.920    -52.900
 1237.0000     93.910   1760.000     46.660     44.050     2.8830     0.1673     59.790      9.670    -41.960
 1238.0000     91.150  -2760.000     31.740     44.040     2.7850     0.0942     54.790     10.290    -30.500
 1239.0000     93.600   2450.000     45.440     33.070     2.7290     0.1313     72.830      9.160    -22.880
 1240.0000     96.860   3260.000     39.990     10.310     2.7210     0.1468     65.470      9.000    -29.410
