~VERSION INFORMATION
VERS.                  2.0   : CWLS LOG ASCII STANDARD - VERSION 2.0
WRAP.                  NO    : ONE LINE PER DEPTH STEP
~WELL INFORMATION
STRT.M        0.0000      : START DEPTH
STOP.M        3100.0000      : STOP DEPTH
STEP.M        1.0000           : STEP VALUE
NULL.         -9999.25           : NULL VALUE
COMP.         Drake AI             : COMPANY
WELL.         GBG-02H          : WELL NAME
FLD.          Brady Hot Springs         : FIELD NAME
LOC.          Churchill County, NV        : LOCATION
CNTY.         Churchill County : COUNTY
STAT.         Nevada               : STATE
CTRY.         USA                  : COUNTRY
UWI.          49-023--02H02     : UNIQUE WELL ID
LATI.DEG      39.8201       : LATITUDE
LONG.DEG      -118.4610       : LONGITUDE (W)
KB.M          1218.0        : KB ELEVATION
GDAT.         WGS84               : GEODETIC DATUM
APIN.         49-023-10002 : API NUMBER
SPUD.         2024-03-15  : SPUD DATE
COMP_DATE.    2025-01-25  : COMPLETION DATE
WELL_TYPE.    Hydrothermal          : WELL TYPE
FLUID_TYPE.   Brine         : FLUID TYPE
TD_DRILLER.M  3100.0            : TOTAL DEPTH (DRILLER)
~CURVE INFORMATION
DEPT.M        :  1  DEPTH
TEMP.DEGC     :  2  FORMATION TEMPERATURE (CORRECTED BHT)
GRAD.DEGC_KM  :  3  GEOTHERMAL GRADIENT
GR.API        :  4  GAMMA RAY
RT.OHMM       :  5  TRUE RESISTIVITY (DEEP)
RHOB.G_CC     :  6  BULK DENSITY
NPHI.V_V      :  7  NEUTRON POROSITY
DT.US_FT      :  8  SONIC DELTA-T
CALI.IN       :  9  CALIPER
SP.MV         : 10  SPONTANEOUS POTENTIAL
~PARAMETER INFORMATION
MFLT.         Water-based mud       : MUD TYPE
MWT.G_CC      1.08                 : MUD WEIGHT
BHT.DEGC      195.0       : BOTTOM HOLE TEMPERATURE (MEASURED)
SURF_T.DEGC   15.0 : SURFACE TEMPERATURE
GRADIENT.DEGC_KM  58.1 : AVERAGE GEOTHERMAL GRADIENT
BS.IN         8.5                  : BIT SIZE
~A  DEPT     TEMP      GRAD     GR       RT       RHOB     NPHI     DT       CALI     SP
# ...
 2993.0000    188.600   1740.000     21.360     16.870     2.6070     0.0792     60.910      8.930     -7.520
 2994.0000    189.660   1060.000     34.760     14.940     2.6960     0.0653     56.220      8.560      3.130
 2995.0000    187.430  -2230.000     27.340     27.220     2.6650     0.0513     56.080      8.400    -10.340
 2996.0000    187.300   -130.000     11.560     16.630     2.6600     0.0198     59.790      9.050    -20.620
 2997.0000    187.370     70.000     26.970     15.220     2.7900     0.0514     50.770      9.090     10.740
 2998.0000    188.770   1400.000     10.050     22.130     2.5690     0.0529     46.670      8.920    -21.710
 2999.0000    188.750    -20.000     29.410     17.050     2.6880     0.0545     63.030      8.840     -8.850
 3000.0000    190.320   1570.000     37.610     18.150     2.5650     0.0646     49.810      8.750      4.020
 3001.0000    187.850  -2470.000     26.160      6.790     2.6500     0.0482     66.360      8.530     -9.620
 3002.0000    190.690   2840.000     27.510     23.370     2.6200     0.0709     43.040      8.310     -1.960
 3003.0000    188.530  -2160.000     38.200     18.160     2.6240     0.0360     56.100      8.320      1.790
 3004.0000    190.250   1720.000      5.000     22.260     2.6060     0.0459     49.130      8.380     -6.130
 3005.0000    188.160  -2090.000     37.590     15.970     2.5910     0.0100     47.330      8.930      0.430
 3006.0000    191.480   3320.000     31.140     13.550     2.6010     0.0678     59.380      8.420     10.370
 3007.0000    188.020  -3460.000     32.290     10.720     2.6430     0.0266     56.830      8.440    -14.210
 3008.0000    187.340   -680.000     15.420     37.000     2.7560     0.0576     54.300      8.360    -10.900
 3009.0000    188.090    750.000     24.420     11.460     2.6230     0.0717     58.210      9.050     -9.770
 3010.0000    192.470   4380.000     37.970     10.160     2.7190     0.0698     48.250      8.980     -9.190
 3011.0000    188.890  -3580.000      8.980     36.590     2.5540     0.0132     53.730      8.380     -5.710
 3012.0000    189.970   1080.000     45.540     31.280     2.6840     0.0644     61.050      8.570    -12.790
 3013.0000    191.790   1820.000      5.000     10.140     2.6720     0.0384     49.950      8.450    -12.870
 3014.0000    189.830  -1960.000     36.740     14.240     2.6400     0.0586     62.930      9.090    -23.790
 3015.0000    191.340   1510.000     28.700     15.480     2.6470     0.0782     50.420      8.200     -0.450
 3016.0000    190.760   -580.000     38.590     31.290     2.6480     0.0587     63.270      8.540    -15.820
 3017.0000    190.560   -200.000     19.600     17.220     2.6370     0.0303     59.670      8.640    -19.420
 3018.0000    189.980   -580.000     22.770     30.000     2.5150     0.0277     49.930      8.750     -9.950
 3019.0000    190.280    300.000     26.110     24.160     2.7160     0.0697     57.870      8.190    -13.970
 3020.0000    190.670    390.000     25.060     20.460     2.6830     0.0812     51.400      8.860    -15.350
 3021.0000    191.050    380.000     35.010     20.370     2.6180     0.0518     61.410      8.100     -3.350
 3022.0000    189.560  -1490.000     30.940     19.270     2.6390     0.0660     62.110      8.660    -26.230
 3023.0000    190.650   1090.000     26.310     45.170     2.6100     0.1019     49.660      9.060     -2.800
 3024.0000    187.660  -2990.000     26.450     13.600     2.5900     0.0518     52.470      8.860     -6.430
 3025.0000    191.420   3760.000     15.920     13.330     2.6870     0.0268     53.980      8.570    -23.560
 3026.0000    193.660   2240.000     28.300     20.730     2.7160     0.0867     58.780      8.830    -17.790
 3027.0000    192.870   -790.000     40.130     16.780     2.6760     0.0696     53.250      9.350     -5.130
 3028.0000    192.490   -380.000     22.760      8.950     2.6050     0.0495     59.830      8.570    -11.520
 3029.0000    191.470  -1020.000     13.950     20.370     2.6770     0.0287     52.050      8.510     -8.280
 3030.0000    191.060   -410.000     25.480     11.810     2.6580     0.0597     59.520      8.870     -8.740
 3031.0000    189.180  -1880.000     20.910     28.130     2.5830     0.0226     48.240      8.660    -13.800
 3032.0000    191.830   2650.000     36.620     18.120     2.7420     0.0606     57.800      9.450     -9.300
 3033.0000    190.730  -1100.000     23.260     10.930     2.7040     0.0627     46.810      8.530      3.320
 3034.0000    191.850   1120.000     34.280     22.240     2.6270     0.0588     56.380      9.160      5.150
 3035.0000    190.690  -1160.000     20.660     11.350     2.5500     0.0175     49.640      9.380      2.350
 3036.0000    193.670   2980.000     22.420     15.780     2.6550     0.0731     48.570      9.240     -2.620
 3037.0000    190.940  -2730.000     25.990     18.020     2.6710     0.0923     58.210      8.620    -23.220
 3038.0000    192.610   1670.000     38.660     14.830     2.6650     0.0921     60.280      8.660     -8.870
 3039.0000    192.100   -510.000     24.240     15.450     2.7440     0.0467     71.420      8.550     -7.790
 3040.0000    193.690   1590.000     11.560     26.230     2.7120     0.0849     64.440      8.490    -32.400
 3041.0000    191.420  -2270.000     23.460     17.970     2.6750     0.0505     54.620      8.550    -16.370
 3042.0000    191.920    500.000     32.130     20.620     2.5760     0.0432     60.160      8.620      0.070
 3043.0000    189.630  -2290.000     36.270     12.840     2.6640     0.0493     60.620      8.430     -7.120
 3044.0000    192.300   2670.000     19.600     22.550     2.7340     0.0413     54.780      8.720    -19.360
 3045.0000    193.370   1070.000     31.470     10.240     2.6470     0.0711     59.220      8.910    -14.040
 3046.0000    190.730  -2640.000     41.700     14.620     2.5790     0.0503     64.910      8.810     -7.220
 3047.0000    192.810   2080.000     18.770     11.540     2.5890     0.0788     56.790      8.970     -5.660
 3048.0000    191.540  -1270.000     19.240     11.400     2.6300     0.0632     56.540      8.700     -4.190
 3049.0000    191.060   -480.000     27.840     12.480     2.6710     0.0555     45.120      8.690    -10.570
 3050.0000    190.500   -560.000     36.580     17.410     2.6750     0.0784     61.020      8.840     -8.200
 3051.0000    192.460   1960.000     34.980     13.830     2.6080     0.0271     61.880      8.770     -6.550
 3052.0000    191.970   -490.000     43.830     12.760     2.6400     0.0749     46.180      8.470     -2.550
 3053.0000    192.890    920.000     46.270     18.240     2.6820     0.0469     65.560      8.880     -7.120
 3054.0000    192.300   -590.000     28.180     26.730     2.5850     0.0512     51.650      9.360    -11.000
 3055.0000    194.160   1860.000     21.510     22.710     2.7450     0.0520     52.480      9.030    -10.020
 3056.0000    192.330  -1830.000     37.530     15.050     2.7680     0.0469     49.300      8.940      1.050
 3057.0000    190.330  -2000.000     10.100     33.850     2.6880     0.0546     61.250      8.730    -15.540
 3058.0000    192.030   1700.000     40.700     18.420     2.6060     0.0532     52.100      8.130    -14.770
 3059.0000    192.660    630.000     33.630     13.560     2.6470     0.0434     64.900      8.650      1.080
 3060.0000    194.370   1710.000     49.750     12.010     2.6830     0.0450     55.740      8.490     -5.050
 3061.0000    192.600  -1770.000     41.910     12.720     2.5960     0.0900     51.740      8.740     13.010
 3062.0000    191.000  -1600.000      9.850     13.650     2.7350     0.0443     64.430      8.920     -3.960
 3063.0000    192.220   1220.000     31.390     14.880     2.5740     0.0100     59.570      8.300     -5.320
 3064.0000    190.790  -1430.000     23.180     12.120     2.7430     0.0700     51.690      8.910      4.900
 3065.0000    193.980   3190.000     25.950     43.810     2.7130     0.0476     55.340      8.900     -1.870
