~VERSION INFORMATION
VERS.                  2.0   : CWLS LOG ASCII STANDARD - VERSION 2.0
WRAP.                  NO    : ONE LINE PER DEPTH STEP
~WELL INFORMATION
STRT.M        0.0000      : START DEPTH
STOP.M        3100.0000      : STOP DEPTH
STEP.M        1.0000           : STEP VALUE
NULL.         -9999.25           : NULL VALUE
COMP.         Drake AI             : COMPANY
WELL.         GBG-02H          : WELL NAME
FLD.          Brady Hot Springs         : FIELD NAME
LOC.          Churchill County, NV        : LOCATION
CNTY.         Churchill County : COUNTY
STAT.         Nevada               : STATE
CTRY.         USA                  : COUNTRY
UWI.          49-023--02H02     : UNIQUE WELL ID
LATI.DEG      39.8201       : LATITUDE
LONG.DEG      -118.4610       : LONGITUDE (W)
KB.M          1218.0        : KB ELEVATION
GDAT.         WGS84               : GEODETIC DATUM
APIN.         49-023-10002 : API NUMBER
SPUD.         2024-03-15  : SPUD DATE
COMP_DATE.    2025-01-25  : COMPLETION DATE
WELL_TYPE.    Hydrothermal          : WELL TYPE
FLUID_TYPE.   Brine         : FLUID TYPE
TD_DRILLER.M  3100.0            : TOTAL DEPTH (DRILLER)
~CURVE INFORMATION
DEPT.M        :  1  DEPTH
TEMP.DEGC     :  2  FORMATION TEMPERATURE (CORRECTED BHT)
GRAD.DEGC_KM  :  3  GEOTHERMAL GRADIENT
GR.API        :  4  GAMMA RAY
RT.OHMM       :  5  TRUE RESISTIVITY (DEEP)
RHOB.G_CC     :  6  BULK DENSITY
NPHI.V_V      :  7  NEUTRON POROSITY
DT.US_FT      :  8  SONIC DELTA-T
CALI.IN       :  9  CALIPER
SP.MV         : 10  SPONTANEOUS POTENTIAL
~PARAMETER INFORMATION
MFLT.         Water-based mud       : MUD TYPE
MWT.G_CC      1.08                 : MUD WEIGHT
BHT.DEGC      195.0       : BOTTOM HOLE TEMPERATURE (MEASURED)
SURF_T.DEGC   15.0 : SURFACE TEMPERATURE
GRADIENT.DEGC_KM  58.1 : AVERAGE GEOTHERMAL GRADIENT
BS.IN         8.5                  : BIT SIZE
~A  DEPT     TEMP      GRAD     GR       RT       RHOB     NPHI     DT       CALI     SP
# ...
 1825.0000    124.580   3360.000     38.090     13.260     2.5500     0.1433     68.430      8.390    -25.670
 1826.0000    120.940  -3640.000     38.540      9.220     2.6320     0.1406     51.890      8.920    -20.220
 1827.0000    119.830  -1110.000     47.890      8.520     2.7810     0.0546     61.010      8.880    -20.600
 1828.0000    123.180   3350.000     57.460     15.420     2.7130     0.1009     59.760      8.620    -29.260
 1829.0000    122.810   -370.000     56.070     11.080     2.6910     0.0753     56.970      9.250    -28.380
 1830.0000    124.030   1220.000     38.460     17.120     2.8380     0.0569     65.220      8.500    -32.490
 1831.0000    122.450  -1580.000     39.290     17.290     2.7680     0.1250     63.050      9.050    -20.730
 1832.0000    123.460   1010.000     45.730      8.960     2.6980     0.0456     55.730      8.560    -32.440
 1833.0000    122.980   -480.000     54.050      8.740     2.5880     0.0570     56.070      9.120    -19.020
 1834.0000    119.050  -3930.000     57.180     17.010     2.7310     0.0542     56.510      8.350    -18.630
 1835.0000    122.020   2970.000     39.290     15.050     2.6130     0.1247     66.930      8.950    -23.110
 1836.0000    119.370  -2650.000     17.330     15.580     2.7650     0.0605     64.920      9.180    -16.890
 1837.0000    122.590   3220.000     27.070     22.110     2.7470     0.1281     52.980      8.770    -22.570
 1838.0000    121.110  -1480.000     40.210      6.980     2.8570     0.1016     61.160      8.380    -23.210
 1839.0000    121.370    260.000     34.400      9.500     2.5860     0.1041     68.520      9.330    -29.300
 1840.0000    123.420   2050.000      5.000      4.100     2.7360     0.0974     61.870      8.480    -20.340
 1841.0000    120.890  -2530.000     33.470     10.940     2.6390     0.0640     54.150      8.700    -37.350
 1842.0000    123.350   2460.000     54.900     12.010     2.7250     0.0987     49.960      8.880    -22.550
 1843.0000    120.380  -2970.000     32.410      9.320     2.7870     0.0966     62.760      8.540    -28.430
 1844.0000    123.780   3400.000     47.710     11.600     2.6860     0.1258     59.750      9.140    -32.950
 1845.0000    121.830  -1950.000     48.680     12.430     2.6440     0.1055     58.150      8.780    -38.920
 1846.0000    123.560   1730.000     59.400     18.750     2.7240     0.1282     47.190      9.200    -26.960
 1847.0000    119.500  -4060.000     38.770     21.290     2.8020     0.0576     61.400      8.730    -22.930
 1848.0000    121.760   2260.000     33.840      3.930     2.7410     0.0780     65.620      8.470    -34.750
 1849.0000    124.720   2960.000     38.530      5.120     2.6990     0.1561     64.330      8.730    -21.450
 1850.0000    123.290  -1430.000     60.920     11.690     2.7470     0.0792     60.180      8.790    -26.480
 1851.0000    123.670    380.000     40.520     13.590     2.6440     0.0954     59.860      8.490    -35.790
 1852.0000    121.850  -1820.000     33.570      5.350     2.6800     0.1275     65.740      8.610    -18.130
 1853.0000    122.040    190.000     49.500     12.200     2.6810     0.1408     60.080      8.350    -32.820
 1854.0000    124.160   2120.000     55.810      5.110     2.7470     0.0994     68.330      8.690    -20.680
 1855.0000    124.990    830.000     20.150      8.400     2.7510     0.1179     64.280      8.630    -53.290
 1856.0000    122.050  -2940.000     41.680      7.810     2.7910     0.1444     62.230      8.600    -26.630
 1857.0000    122.980    930.000     59.110      5.020     2.7520     0.1376     57.350      8.510    -36.730
 1858.0000    123.230    250.000     45.540     10.500     2.5530     0.0720     61.860      9.070    -35.320
 1859.0000    124.430   1200.000     52.410      7.300     2.7020     0.1047     58.060      8.290    -32.400
 1860.0000    124.640    210.000     63.880      7.880     2.6940     0.0900     62.860      8.640    -18.860
 1861.0000    122.750  -1890.000     36.490      9.660     2.6750     0.0811     58.770      8.590    -21.700
 1862.0000    122.610   -140.000     68.910      8.400     2.6850     0.0988     57.690      8.410    -37.380
 1863.0000    122.670     60.000     30.620     10.430     2.6120     0.0537     56.630      8.570    -38.620
 1864.0000    120.880  -1790.000     56.150      3.580     2.6860     0.0997     52.460      9.270    -15.360
 1865.0000    124.400   3520.000     41.640      9.850     2.6510     0.1141     66.380      8.790    -30.080
 1866.0000    121.940  -2460.000     58.540      6.460     2.6760     0.1351     75.790      8.810    -27.560
 1867.0000    126.120   4180.000     31.580      6.640     2.7970     0.0919     56.290      8.440    -22.770
 1868.0000    120.200  -5920.000     26.850      6.420     2.6600     0.1205     57.240      8.830    -25.160
 1869.0000    120.880    680.000     39.550      4.050     2.6380     0.0929     64.940      8.180    -32.930
 1870.0000    122.100   1220.000     46.590      3.520     2.5540     0.1231     49.010      8.460    -20.060
 1871.0000    123.370   1270.000     33.370      4.900     2.7080     0.1538     52.320      8.790    -30.790
 1872.0000    125.200   1830.000     26.100      5.130     2.7150     0.1157     63.290      8.820    -17.700
 1873.0000    122.430  -2770.000     34.880      4.970     2.7430     0.1353     56.350      8.510    -34.000
 1874.0000    123.790   1360.000     13.120      9.670     2.5870     0.0962     54.380      8.970    -40.210
 1875.0000    124.610    820.000     40.820     11.520     2.6050     0.1150     61.760      9.050    -25.010
 1876.0000    126.120   1510.000     54.900      3.970     2.5570     0.0790     67.200      8.550    -22.340
 1877.0000    124.730  -1390.000     20.450      7.850     2.7140     0.0612     56.040      8.390    -32.460
 1878.0000    122.230  -2500.000     53.220     11.080     2.7210     0.1083     63.350      8.460    -38.430
 1879.0000    122.880    650.000     56.190      2.980     2.6160     0.1011     54.950      8.640    -18.270
 1880.0000    125.110   2230.000     35.610      7.430     2.6310     0.1176     62.850      7.910    -21.350
 1881.0000    123.280  -1830.000     75.330      4.350     2.7200     0.1206     68.340      8.860    -27.950
 1882.0000    124.540   1260.000     43.820      2.600     2.7270     0.0920     66.240      8.860    -29.150
 1883.0000    120.500  -4040.000     29.420     29.780     2.7310     0.1523     64.370      8.730    -36.620
 1884.0000    124.740   4240.000     46.620      3.560     2.8330     0.1341     65.560      8.650    -16.260
 1885.0000    125.440    700.000     50.690      6.820     2.6640     0.1664     60.460      9.090    -28.300
 1886.0000    122.850  -2590.000     45.950      9.160     2.6920     0.1376     56.900      8.940    -24.650
 1887.0000    124.420   1570.000     46.310      4.460     2.5080     0.0525     57.520      8.450    -18.910
 1888.0000    123.290  -1130.000     41.000     11.230     2.6600     0.0942     65.290      8.900    -34.020
 1889.0000    125.000   1710.000     39.570      8.310     2.5420     0.0830     68.580      9.170    -26.090
 1890.0000    124.150   -850.000     39.480     15.660     2.7300     0.0900     58.460      8.740    -27.170
 1891.0000    126.630   2480.000     46.330     12.620     2.7800     0.1242     65.470      8.730    -18.340
 1892.0000    125.520  -1110.000     47.740      4.460     2.7000     0.0900     68.250      8.410    -20.980
 1893.0000    126.940   1420.000     43.240     11.500     2.7290     0.0669     59.990      8.870    -33.110
 1894.0000    127.120    180.000     45.560      4.850     2.4740     0.0776     76.620      8.790    -38.250
 1895.0000    124.940  -2180.000     76.490     19.720     2.8010     0.1518     51.680      8.710    -24.390
 1896.0000    123.770  -1170.000     11.960     12.380     2.6910     0.0870     54.020      8.800    -30.890
 1897.0000    125.220   1450.000     50.300     11.560     2.7370     0.1494     52.520      8.570    -15.760
