~VERSION INFORMATION
VERS.                  2.0   : CWLS LOG ASCII STANDARD - VERSION 2.0
WRAP.                  NO    : ONE LINE PER DEPTH STEP
~WELL INFORMATION
STRT.M        0.0000      : START DEPTH
STOP.M        3100.0000      : STOP DEPTH
STEP.M        1.0000           : STEP VALUE
NULL.         -9999.25           : NULL VALUE
COMP.         Drake AI             : COMPANY
WELL.         GBG-02H          : WELL NAME
FLD.          Brady Hot Springs         : FIELD NAME
LOC.          Churchill County, NV        : LOCATION
CNTY.         Churchill County : COUNTY
STAT.         Nevada               : STATE
CTRY.         USA                  : COUNTRY
UWI.          49-023--02H02     : UNIQUE WELL ID
LATI.DEG      39.8201       : LATITUDE
LONG.DEG      -118.4610       : LONGITUDE (W)
KB.M          1218.0        : KB ELEVATION
GDAT.         WGS84               : GEODETIC DATUM
APIN.         49-023-10002 : API NUMBER
SPUD.         2024-03-15  : SPUD DATE
COMP_DATE.    2025-01-25  : COMPLETION DATE
WELL_TYPE.    Hydrothermal          : WELL TYPE
FLUID_TYPE.   Brine         : FLUID TYPE
TD_DRILLER.M  3100.0            : TOTAL DEPTH (DRILLER)
~CURVE INFORMATION
DEPT.M        :  1  DEPTH
TEMP.DEGC     :  2  FORMATION TEMPERATURE (CORRECTED BHT)
GRAD.DEGC_KM  :  3  GEOTHERMAL GRADIENT
GR.API        :  4  GAMMA RAY
RT.OHMM       :  5  TRUE RESISTIVITY (DEEP)
RHOB.G_CC     :  6  BULK DENSITY
NPHI.V_V      :  7  NEUTRON POROSITY
DT.US_FT      :  8  SONIC DELTA-T
CALI.IN       :  9  CALIPER
SP.MV         : 10  SPONTANEOUS POTENTIAL
~PARAMETER INFORMATION
MFLT.         Water-based mud       : MUD TYPE
MWT.G_CC      1.08                 : MUD WEIGHT
BHT.DEGC      195.0       : BOTTOM HOLE TEMPERATURE (MEASURED)
SURF_T.DEGC   15.0 : SURFACE TEMPERATURE
GRADIENT.DEGC_KM  58.1 : AVERAGE GEOTHERMAL GRADIENT
BS.IN         8.5                  : BIT SIZE
~A  DEPT     TEMP      GRAD     GR       RT       RHOB     NPHI     DT       CALI     SP
# ...
 1022.0000     76.480   1270.000     39.880     37.160     2.8550     0.1492     60.930      9.320    -26.690
 1023.0000     73.380  -3100.000     45.290     42.860     2.8100     0.1484     60.630     10.190    -46.840
 1024.0000     79.790   6410.000     27.950     18.360     2.8190     0.0321     50.980      9.340    -49.460
 1025.0000     76.910  -2880.000     41.210     45.280     2.7910     0.0496     56.870     10.680    -34.370
 1026.0000     74.330  -2580.000     26.950     17.620     2.7380     0.1299     52.590      9.690    -39.720
 1027.0000     73.870   -460.000     39.170     12.610     2.7750     0.0562     59.320      9.340    -56.240
 1028.0000     74.240    370.000     32.490     60.830     2.7670     0.0881     66.650     10.400    -39.580
 1029.0000     74.960    720.000     37.840     11.200     2.7120     0.1228     54.890      9.660    -44.820
 1030.0000     74.350   -610.000     36.440     32.030     2.5200     0.1643     64.840      9.960    -40.650
 1031.0000     74.270    -80.000     35.690     24.230     2.5960     0.1055     67.910     11.240    -32.670
 1032.0000     74.990    720.000     47.110     76.760     2.7510     0.0700     54.400     10.040    -38.290
 1033.0000     74.530   -460.000     29.740     22.240     2.6640     0.1825     51.220      9.760    -36.770
 1034.0000     74.000   -530.000     31.500     19.640     2.7800     0.1052     62.790      8.890    -45.210
 1035.0000     77.140   3140.000     28.490     24.350     2.7980     0.1011     61.230      8.840    -50.360
 1036.0000     74.210  -2930.000     20.830     67.780     2.6150     0.1410     58.380     10.370    -44.990
 1037.0000     73.940   -270.000     40.380     30.060     2.8960     0.0947     57.620     10.330    -26.240
 1038.0000     75.880   1940.000     41.960     57.550     2.7040     0.1622     64.620      9.940    -28.150
 1039.0000     76.490    610.000     26.900     50.500     2.7650     0.1013     50.620      9.790    -44.060
 1040.0000     75.800   -690.000      7.760     34.570     2.6680     0.0898     60.620     10.350    -35.850
 1041.0000     78.590   2790.000     33.520     70.130     2.7110     0.1127     48.130     11.850    -40.920
 1042.0000     75.840  -2750.000     22.200     74.600     2.6030     0.1784     50.130      9.960    -42.060
 1043.0000     73.640  -2200.000     48.670     75.930     2.6560     0.1217     62.830      9.050    -49.420
 1044.0000     73.160   -480.000     37.440     26.520     2.6790     0.1007     70.460     10.530    -61.190
 1045.0000     77.440   4280.000     43.620     25.980     2.8580     0.0424     64.250      9.780    -41.420
 1046.0000     78.030    590.000     48.130     17.080     2.7870     0.1404     62.110     10.400    -32.900
 1047.0000     75.700  -2330.000     46.720     29.660     2.6330     0.1105     61.100      9.240    -54.670
 1048.0000     78.390   2690.000     33.700     47.110     2.7860     0.1314     56.500     11.060    -43.430
 1049.0000     77.460   -930.000     41.220     27.210     2.7820     0.0704     68.390      9.880    -51.800
 1050.0000     75.790  -1670.000     31.180     61.860     2.6990     0.1152     61.370     12.100    -41.120
 1051.0000     75.080   -710.000     42.330     25.660     2.7480     0.0588     58.800      9.700    -40.550
 1052.0000     76.350   1270.000     34.230     15.630     2.6320     0.1714     55.170     10.850    -38.200
 1053.0000     75.790   -560.000     25.650      9.940     2.8850     0.1232     67.570      8.900    -32.090
 1054.0000     79.350   3560.000     47.570     19.830     2.6030     0.1465     71.680     10.310    -29.450
 1055.0000     76.330  -3020.000     38.720     14.770     2.7270     0.0689     62.210     11.690    -45.260
 1056.0000     78.520   2190.000     44.460     63.540     2.7300     0.0438     65.210      9.690    -35.770
 1057.0000     75.520  -3000.000     23.530     23.260     2.7550     0.1579     62.190      9.130    -42.810
 1058.0000     77.320   1800.000     41.260     27.080     2.9450     0.1006     69.800      9.200    -43.450
 1059.0000     77.030   -290.000     22.360     32.020     2.6260     0.1643     61.700     10.580    -29.960
 1060.0000     76.720   -310.000     39.300     54.710     2.5920     0.1529     56.730      9.270    -64.000
 1061.0000     77.590    870.000      6.010     21.480     2.7080     0.1018     59.870     10.410    -44.390
 1062.0000     77.540    -50.000     44.580     33.340     2.6720     0.0917     68.670      9.560    -40.690
 1063.0000     76.070  -1470.000     41.410     17.430     2.7120     0.0817     63.770     11.970    -49.480
 1064.0000     75.430   -640.000     43.330     56.690     2.6230     0.0497     68.480     10.390    -36.360
 1065.0000     75.440     10.000     41.240     54.090     2.7030     0.1498     64.580     10.770    -55.200
 1066.0000     77.890   2450.000     47.940     36.950     2.6820     0.0232     63.490      9.440    -40.120
 1067.0000     76.150  -1740.000     10.610     23.750     2.6620     0.1011     49.760     11.590    -31.820
 1068.0000     78.210   2060.000     30.830     16.560     2.6950     0.2315     67.740      9.590    -43.900
 1069.0000     74.280  -3930.000     19.550     43.880     2.6280     0.0503     59.070      9.970    -41.190
 1070.0000     75.880   1600.000     31.610     58.030     2.6850     0.1882     53.830     10.990    -57.320
 1071.0000     77.040   1160.000     35.380     43.550     2.7990     0.1157     67.510     10.100    -40.010
 1072.0000     75.000  -2040.000     39.660     12.710     2.5480     0.0835     63.530      9.690    -45.240
 1073.0000     80.280   5280.000     30.420     30.690     2.6860     0.1418     60.240      9.680    -48.750
 1074.0000     77.270  -3010.000     32.420     15.850     2.7570     0.1417     49.980      9.560    -36.350
 1075.0000     80.380   3110.000     14.990     73.800     2.7000     0.1705     61.210      9.710    -35.830
 1076.0000     76.210  -4170.000     43.100     29.900     2.7450     0.0687     60.200      7.500    -47.160
 1077.0000     77.200    990.000     29.960     22.870     2.7910     0.1839     56.920      9.040    -43.720
 1078.0000     78.300   1100.000     18.730     34.860     2.7330     0.1029     72.420     10.570    -42.110
 1079.0000     77.750   -550.000     22.670     17.380     2.5760     0.1236     58.050     11.440    -51.060
 1080.0000     80.060   2310.000     35.570     51.620     2.6980     0.1546     67.670      9.010    -53.350
 1081.0000     79.590   -470.000     34.490     25.200     2.7320     0.1968     63.950     10.220    -55.610
 1082.0000     79.720    130.000     13.950     31.340     2.7580     0.0366     67.590      9.510    -34.430
 1083.0000     78.810   -910.000     23.740     30.670     2.8150     0.0876     61.130      9.420    -49.150
 1084.0000     76.720  -2090.000     18.610     43.980     2.6420     0.0511     56.610     10.060    -42.850
 1085.0000     78.170   1450.000     43.890     28.010     2.6740     0.0689     59.520     10.180    -36.710
 1086.0000     79.180   1010.000     23.400     21.730     2.6220     0.1550     60.260     10.650    -29.120
 1087.0000     76.940  -2240.000     27.370     12.690     2.8460     0.1512     65.600      9.590    -57.070
 1088.0000     76.710   -230.000     31.530     30.690     2.7410     0.2395     60.410      9.840    -31.530
 1089.0000     78.420   1710.000     44.040     19.260     2.7610     0.1079     66.660      8.660    -35.380
 1090.0000     78.120   -300.000     23.140     25.230     2.7340     0.1648     75.870     10.290    -42.430
 1091.0000     76.460  -1660.000     44.260     41.080     2.5930     0.0200     64.820     10.440    -41.200
 1092.0000     78.700   2240.000     31.360     15.290     2.7790     0.0853     59.670     11.520    -44.150
 1093.0000     79.000    300.000     37.280     19.340     2.7320     0.1620     58.130     10.360    -42.060
 1094.0000     79.050     50.000     36.520     59.920     2.7420     0.1190     66.750      9.280    -46.510
