~VERSION INFORMATION
VERS.                  2.0   : CWLS LOG ASCII STANDARD - VERSION 2.0
WRAP.                  NO    : ONE LINE PER DEPTH STEP
~WELL INFORMATION
STRT.M        0.0000      : START DEPTH
STOP.M        3100.0000      : STOP DEPTH
STEP.M        1.0000           : STEP VALUE
NULL.         -9999.25           : NULL VALUE
COMP.         Drake AI             : COMPANY
WELL.         GBG-02H          : WELL NAME
FLD.          Brady Hot Springs         : FIELD NAME
LOC.          Churchill County, NV        : LOCATION
CNTY.         Churchill County : COUNTY
STAT.         Nevada               : STATE
CTRY.         USA                  : COUNTRY
UWI.          49-023--02H02     : UNIQUE WELL ID
LATI.DEG      39.8201       : LATITUDE
LONG.DEG      -118.4610       : LONGITUDE (W)
KB.M          1218.0        : KB ELEVATION
GDAT.         WGS84               : GEODETIC DATUM
APIN.         49-023-10002 : API NUMBER
SPUD.         2024-03-15  : SPUD DATE
COMP_DATE.    2025-01-25  : COMPLETION DATE
WELL_TYPE.    Hydrothermal          : WELL TYPE
FLUID_TYPE.   Brine         : FLUID TYPE
TD_DRILLER.M  3100.0            : TOTAL DEPTH (DRILLER)
~CURVE INFORMATION
DEPT.M        :  1  DEPTH
TEMP.DEGC     :  2  FORMATION TEMPERATURE (CORRECTED BHT)
GRAD.DEGC_KM  :  3  GEOTHERMAL GRADIENT
GR.API        :  4  GAMMA RAY
RT.OHMM       :  5  TRUE RESISTIVITY (DEEP)
RHOB.G_CC     :  6  BULK DENSITY
NPHI.V_V      :  7  NEUTRON POROSITY
DT.US_FT      :  8  SONIC DELTA-T
CALI.IN       :  9  CALIPER
SP.MV         : 10  SPONTANEOUS POTENTIAL
~PARAMETER INFORMATION
MFLT.         Water-based mud       : MUD TYPE
MWT.G_CC      1.08                 : MUD WEIGHT
BHT.DEGC      195.0       : BOTTOM HOLE TEMPERATURE (MEASURED)
SURF_T.DEGC   15.0 : SURFACE TEMPERATURE
GRADIENT.DEGC_KM  58.1 : AVERAGE GEOTHERMAL GRADIENT
BS.IN         8.5                  : BIT SIZE
~A  DEPT     TEMP      GRAD     GR       RT       RHOB     NPHI     DT       CALI     SP
# ...
 2409.0000    155.810   3710.000     52.610     12.750     2.6830     0.0445     48.070      8.240    -25.320
 2410.0000    154.690  -1120.000     31.570     30.740     2.6380     0.0594     57.020      8.680    -26.270
 2411.0000    154.630    -60.000     20.680     26.780     2.6520     0.0548     48.320      8.540    -26.640
 2412.0000    152.350  -2280.000     41.490     29.120     2.6280     0.1159     54.950      8.930      4.640
 2413.0000    155.880   3530.000     18.620     20.790     2.6510     0.0294     58.430      8.720    -15.370
 2414.0000    155.630   -250.000     28.260     27.040     2.6200     0.0384     58.280      9.230    -13.750
 2415.0000    154.880   -750.000     25.770     16.690     2.6320     0.0797     61.270      8.760    -10.280
 2416.0000    155.660    780.000     30.330     15.240     2.6010     0.0473     50.490      8.200    -21.560
 2417.0000    155.300   -360.000     29.820     13.410     2.7180     0.0406     57.260      8.250    -23.280
 2418.0000    157.230   1930.000     23.330     13.750     2.6800     0.0674     56.210      8.870    -25.780
 2419.0000    155.170  -2060.000     38.560     11.310     2.5700     0.0649     58.620      8.530    -27.080
 2420.0000    158.160   2990.000     25.270     13.040     2.4810     0.0447     50.920      8.590    -19.180
 2421.0000    156.520  -1640.000     22.870     15.320     2.6150     0.0993     49.120      8.650    -16.600
 2422.0000    156.870    350.000     32.350     14.280     2.6530     0.0512     55.790      8.210    -33.000
 2423.0000    154.590  -2280.000     25.350     19.660     2.7330     0.0386     53.080      9.240    -29.350
 2424.0000    156.620   2030.000     21.610     11.590     2.6570     0.0727     58.690      8.920    -28.920
 2425.0000    155.290  -1330.000     23.750     20.430     2.6200     0.0839     51.270      8.170    -11.970
 2426.0000    155.170   -120.000     26.810     13.180     2.6220     0.0499     58.380      8.230    -22.870
 2427.0000    155.360    190.000     18.670     16.700     2.6840     0.0455     64.650      8.690    -16.260
 2428.0000    158.290   2930.000     22.180      9.860     2.6530     0.0844     53.350      9.030     -5.640
 2429.0000    156.880  -1410.000     44.960     17.030     2.5690     0.0609     52.040      8.310    -19.280
 2430.0000    155.510  -1370.000     22.060     20.540     2.6820     0.0483     59.610      9.480    -20.280
 2431.0000    156.200    690.000     19.850     15.040     2.5910     0.0543     52.700      9.200    -16.210
 2432.0000    155.940   -260.000     20.260     19.690     2.5340     0.0292     40.000      8.620    -19.430
 2433.0000    154.370  -1570.000     29.450     21.960     2.5940     0.0602     53.160      9.130     -9.170
 2434.0000    157.970   3600.000     25.820     15.310     2.6810     0.0817     56.400      8.610    -29.550
 2435.0000    158.620    650.000      5.000      9.400     2.6590     0.0125     55.560      8.600    -10.520
 2436.0000    157.080  -1540.000     18.840     16.400     2.6640     0.0670     57.340      8.950    -14.850
 2437.0000    158.770   1690.000     25.980     13.700     2.6030     0.0407     44.600      8.540    -36.210
 2438.0000    155.350  -3420.000     35.320     22.430     2.5820     0.0676     63.260      8.450    -15.310
 2439.0000    154.300  -1050.000     11.310     11.400     2.7030     0.0573     51.290      9.050    -19.300
 2440.0000    155.230    930.000     23.530     28.080     2.5270     0.0476     49.620      8.270    -26.920
 2441.0000    157.540   2310.000     34.850     27.550     2.6740     0.1209     60.680      8.890    -27.020
 2442.0000    156.970   -570.000     19.600     27.980     2.6720     0.0623     52.230      8.540    -28.220
 2443.0000    157.060     90.000     19.880     10.420     2.7840     0.0343     61.780      8.770    -13.340
 2444.0000    158.090   1030.000     41.970     14.770     2.6750     0.0259     61.800      8.400    -30.030
 2445.0000    158.230    140.000      5.000     10.750     2.5950     0.0895     48.190      8.720    -21.890
 2446.0000    157.110  -1120.000     27.680     16.440     2.6030     0.0650     46.900      8.660     -7.920
 2447.0000    154.910  -2200.000     37.350     20.210     2.5700     0.0406     50.090      8.520    -20.650
 2448.0000    157.400   2490.000     21.080     21.790     2.6720     0.0664     64.310      8.730     -3.940
 2449.0000    156.760   -640.000     36.280     13.580     2.6260     0.0165     53.300      8.940    -24.860
 2450.0000    157.410    650.000     23.750     11.340     2.6190     0.0544     47.780      8.660     -9.440
 2451.0000    157.770    360.000     37.480     21.780     2.6770     0.0659     55.920      9.010    -18.350
 2452.0000    154.230  -3540.000     24.240     14.620     2.6440     0.0225     58.820      9.070    -11.890
 2453.0000    156.120   1890.000     43.650     18.730     2.6820     0.0469     52.260      8.420    -24.060
 2454.0000    158.690   2570.000     40.340     16.340     2.6720     0.0122     51.540      9.110    -22.320
 2455.0000    154.020  -4670.000     41.760     27.450     2.5630     0.0464     60.950      8.360    -26.400
 2456.0000    160.380   6360.000     55.980     41.060     2.5450     0.0769     47.960      8.590    -18.480
 2457.0000    157.430  -2950.000     27.030     11.670     2.6300     0.1015     58.330      8.450    -15.800
 2458.0000    157.000   -430.000     38.460      6.890     2.6650     0.0392     59.970      8.610    -18.030
 2459.0000    157.590    590.000     32.360     21.370     2.7410     0.0634     55.970      8.820    -14.130
 2460.0000    157.230   -360.000     37.120     27.080     2.7410     0.0591     62.570      8.500    -16.110
 2461.0000    158.100    870.000     35.640     54.410     2.5670     0.0814     61.220      8.610     -7.630
 2462.0000    159.780   1680.000     26.420     19.450     2.6610     0.0751     57.820      8.960     -8.040
 2463.0000    158.520  -1260.000     21.950     18.120     2.5330     0.0587     50.590      8.400     -1.970
 2464.0000    160.860   2340.000     13.930     16.700     2.6080     0.0678     54.420      9.020    -13.370
 2465.0000    160.350   -510.000     25.820     11.600     2.6400     0.1016     50.660      8.660    -12.970
 2466.0000    159.780   -570.000     36.490     14.900     2.6620     0.0398     61.230      8.410    -17.430
 2467.0000    157.590  -2190.000     27.980     16.700     2.6590     0.0671     75.140      9.150    -11.190
 2468.0000    155.100  -2490.000     40.340     17.570     2.6630     0.0858     58.920      8.780    -18.310
 2469.0000    161.040   5940.000     21.740     21.520     2.7050     0.0961     57.590      8.970    -13.630
 2470.0000    157.940  -3100.000     32.660     26.820     2.7170     0.0850     50.610      8.750    -18.310
 2471.0000    158.790    850.000     24.630     11.980     2.7240     0.0438     56.830      8.710    -27.590
 2472.0000    159.540    750.000     28.340     22.270     2.5790     0.0737     53.860      8.770    -17.340
 2473.0000    157.750  -1790.000     11.820     15.750     2.5910     0.0264     55.150      8.630     -3.720
 2474.0000    158.160    410.000     30.450     12.390     2.6520     0.0688     54.340      9.210    -11.180
 2475.0000    159.730   1570.000     31.420     13.470     2.6100     0.0872     62.950      9.200    -22.480
 2476.0000    154.210  -5520.000     22.410     17.850     2.6660     0.0737     48.060      9.110    -18.040
 2477.0000    158.960   4750.000     35.290     13.910     2.6640     0.0357     57.820      8.950    -22.010
 2478.0000    158.580   -380.000     51.350     14.840     2.6850     0.0816     58.330      8.460    -25.380
 2479.0000    160.040   1460.000     17.520     24.240     2.6620     0.0981     52.490      8.620     -9.780
 2480.0000    158.830  -1210.000     30.150     17.230     2.6610     0.0847     51.180      8.530    -11.430
 2481.0000    159.140    310.000     30.610     27.260     2.6970     0.0889     54.600      8.450    -31.460
