~VERSION INFORMATION
VERS.                  2.0   : CWLS LOG ASCII STANDARD - VERSION 2.0
WRAP.                  NO    : ONE LINE PER DEPTH STEP
~WELL INFORMATION
STRT.M        0.0000      : START DEPTH
STOP.M        3100.0000      : STOP DEPTH
STEP.M        1.0000           : STEP VALUE
NULL.         -9999.25           : NULL VALUE
COMP.         Drake AI             : COMPANY
WELL.         GBG-02H          : WELL NAME
FLD.          Brady Hot Springs         : FIELD NAME
LOC.          Churchill County, NV        : LOCATION
CNTY.         Churchill County : COUNTY
STAT.         Nevada               : STATE
CTRY.         USA                  : COUNTRY
UWI.          49-023--02H02     : UNIQUE WELL ID
LATI.DEG      39.8201       : LATITUDE
LONG.DEG      -118.4610       : LONGITUDE (W)
KB.M          1218.0        : KB ELEVATION
GDAT.         WGS84               : GEODETIC DATUM
APIN.         49-023-10002 : API NUMBER
SPUD.         2024-03-15  : SPUD DATE
COMP_DATE.    2025-01-25  : COMPLETION DATE
WELL_TYPE.    Hydrothermal          : WELL TYPE
FLUID_TYPE.   Brine         : FLUID TYPE
TD_DRILLER.M  3100.0            : TOTAL DEPTH (DRILLER)
~CURVE INFORMATION
DEPT.M        :  1  DEPTH
TEMP.DEGC     :  2  FORMATION TEMPERATURE (CORRECTED BHT)
GRAD.DEGC_KM  :  3  GEOTHERMAL GRADIENT
GR.API        :  4  GAMMA RAY
RT.OHMM       :  5  TRUE RESISTIVITY (DEEP)
RHOB.G_CC     :  6  BULK DENSITY
NPHI.V_V      :  7  NEUTRON POROSITY
DT.US_FT      :  8  SONIC DELTA-T
CALI.IN       :  9  CALIPER
SP.MV         : 10  SPONTANEOUS POTENTIAL
~PARAMETER INFORMATION
MFLT.         Water-based mud       : MUD TYPE
MWT.G_CC      1.08                 : MUD WEIGHT
BHT.DEGC      195.0       : BOTTOM HOLE TEMPERATURE (MEASURED)
SURF_T.DEGC   15.0 : SURFACE TEMPERATURE
GRADIENT.DEGC_KM  58.1 : AVERAGE GEOTHERMAL GRADIENT
BS.IN         8.5                  : BIT SIZE
~A  DEPT     TEMP      GRAD     GR       RT       RHOB     NPHI     DT       CALI     SP
# ...
  219.0000     26.360  -1900.000     58.020      5.710     2.3760     0.4080     88.410      8.770    -67.100
  220.0000     27.620   1260.000     55.310      9.810     2.2830     0.2796     80.920      8.660    -49.060
  221.0000     26.640   -980.000     82.380      3.140     2.1970     0.2177    114.700      8.700    -65.190
  222.0000     29.920   3280.000     59.250      9.570     2.4100     0.2049     81.420      8.460    -61.620
  223.0000     25.680  -4240.000     74.460      7.110     2.2820     0.2663    102.540      8.750    -65.150
  224.0000     24.090  -1590.000     77.180      5.020     2.3400     0.2746    106.470      7.890    -56.100
  225.0000     29.770   5680.000     83.260      8.530     2.2070     0.2407    103.690      9.080    -60.050
  226.0000     28.560  -1210.000     90.130      3.370     2.4750     0.2110     97.400      9.250    -62.230
  227.0000     28.280   -280.000     95.590      2.640     2.2100     0.0754     89.960      8.910    -56.460
  228.0000     28.320     40.000     68.800     11.570     2.4720     0.2234     96.450      8.380    -60.030
  229.0000     27.250  -1070.000     72.760      3.960     2.3490     0.2028     99.500      8.980    -50.190
  230.0000     28.920   1670.000     82.580     11.730     2.4430     0.3375     75.180      8.450    -46.100
  231.0000     25.360  -3560.000     98.850      8.410     2.4380     0.2078     92.530      9.060    -62.570
  232.0000     28.900   3540.000     90.920     13.930     2.5080     0.2782    111.140      8.500    -54.360
  233.0000     27.240  -1660.000     59.470      4.590     2.2520     0.1124     96.340      9.010    -52.280
  234.0000     31.940   4700.000     50.790      5.050     2.3620     0.2237     89.370      8.460    -68.860
  235.0000     27.020  -4920.000     75.010      5.870     2.4450     0.3281     89.960      8.380    -50.210
  236.0000     29.710   2690.000     76.160      1.610     2.2090     0.1135     96.060      8.810    -65.300
  237.0000     29.200   -510.000     69.950      6.730     2.3680     0.1524    106.020      8.840    -58.330
  238.0000     28.880   -320.000     81.520      7.930     2.4830     0.0924     99.040      8.560    -60.510
  239.0000     29.970   1090.000     73.640      3.890     2.3940     0.1793     81.650      8.740    -71.430
  240.0000     28.860  -1110.000     86.920     12.590     2.5330     0.1932     88.160      8.500    -56.090
  241.0000     27.740  -1120.000     58.760      4.790     2.4350     0.3001     93.620      9.000    -53.490
  242.0000     29.480   1740.000     71.050      3.820     2.5670     0.1740     84.920      7.970    -49.840
  243.0000     29.830    350.000     79.650      2.370     2.3550     0.2428     84.460      8.120    -59.460
  244.0000     30.310    480.000     44.430      4.480     2.4550     0.0222    100.340      8.370    -55.710
  245.0000     27.360  -2950.000     67.600     10.860     2.4460     0.2271     72.600      8.210    -58.900
  246.0000     29.480   2120.000    107.030      8.550     2.2850     0.2528     85.360      8.580    -56.530
  247.0000     28.560   -920.000     98.850      9.480     2.5870     0.3081     78.300      8.710    -69.080
  248.0000     29.480    920.000    102.510      5.810     2.2880     0.3040     79.380      8.720    -41.570
  249.0000     32.450   2970.000     84.010      8.570     2.5390     0.1366     83.250      8.580    -61.700
  250.0000     29.470  -2980.000     57.410      4.400     2.3140     0.1780     72.480      9.130    -59.220
  251.0000     29.330   -140.000     64.660      8.030     2.4350     0.3246     92.600      8.120    -54.540
  252.0000     29.340     10.000    114.470      8.660     2.5550     0.1544     84.480      8.630    -50.580
  253.0000     30.040    700.000     79.430      5.380     2.3190     0.2105     97.620      8.340    -57.620
  254.0000     28.010  -2030.000     89.700      8.440     2.3850     0.3327     87.010      8.490    -62.110
  255.0000     27.970    -40.000     60.920      5.670     2.3450     0.1704    101.840      9.070    -48.820
  256.0000     30.860   2890.000     44.470      5.270     2.3590     0.2586     87.400      8.980    -60.490
  257.0000     30.010   -850.000     63.590      2.770     2.3600     0.2089     96.770      8.240    -63.770
  258.0000     29.740   -270.000     53.410      4.310     2.3870     0.1689     74.450      9.280    -67.950
  259.0000     30.350    610.000     49.050      4.420     2.3010     0.1763     69.430      8.630    -42.970
  260.0000     29.590   -760.000     90.370      3.510     2.4030     0.1778     79.450      8.750    -51.970
  261.0000     31.710   2120.000     69.180     10.850     2.3930     0.1160    102.000      8.500    -58.180
  262.0000     30.120  -1590.000     67.050      7.750     2.4900     0.2156     99.730      8.970    -50.010
  263.0000     34.330   4210.000     86.480      6.010     2.2740     0.1238    106.070      8.490    -60.360
  264.0000     30.580  -3750.000     36.780      3.650     2.5960     0.2137     88.790      8.820    -55.750
  265.0000     29.280  -1300.000     65.470      4.590     2.5190     0.2839     88.900      8.440    -65.860
  266.0000     28.620   -660.000     78.120      7.800     2.3250     0.3419     85.750      8.400    -57.290
  267.0000     33.820   5200.000     73.390      5.750     2.4950     0.1437     82.060      8.830    -62.330
  268.0000     30.860  -2960.000     47.640     15.270     2.4390     0.1357     95.120      8.960    -61.860
  269.0000     30.880     20.000     77.200      7.380     2.3410     0.2489     86.030      8.640    -57.050
  270.0000     32.830   1950.000     66.120      7.190     2.4000     0.2767     96.020      8.420    -57.610
  271.0000     32.460   -370.000     80.510      4.740     2.4140     0.3066     72.260      8.620    -59.020
  272.0000     32.640    180.000     81.840     10.350     2.5130     0.1234     81.430      9.190    -57.080
  273.0000     30.980  -1660.000     88.590      6.570     2.3970     0.3060     78.500      8.980    -65.470
  274.0000     31.850    870.000    104.230      3.900     2.4360     0.2460     92.240      9.180    -59.260
  275.0000     29.650  -2200.000     37.670      5.990     2.3670     0.0577     92.640      8.680    -49.150
  276.0000     31.860   2210.000     75.720      3.680     2.2030     0.2214     82.700      8.040    -54.970
  277.0000     30.190  -1670.000     47.730      5.440     2.5160     0.3063     96.940      8.950    -56.410
  278.0000     32.070   1880.000     66.970      4.470     2.2580     0.3175    110.580      8.780    -45.460
  279.0000     33.080   1010.000     59.420      3.490     2.3840     0.1919    105.310      8.720    -52.130
  280.0000     32.400   -680.000     96.430      9.030     2.3210     0.2667     96.960      8.520    -48.210
  281.0000     32.270   -130.000     89.440      6.140     2.1370     0.1813     82.520      8.320    -60.160
  282.0000     29.750  -2520.000     80.300      7.190     2.3120     0.1915     83.960      8.770    -50.150
  283.0000     31.010   1260.000     85.430      5.670     2.3170     0.1879     94.860      8.440    -46.600
  284.0000     32.320   1310.000     92.710      4.550     2.3000     0.1924     81.470      8.310    -46.060
  285.0000     31.370   -950.000     60.100     13.300     2.2120     0.3542     87.010      8.470    -52.630
  286.0000     30.350  -1020.000     80.180     10.640     2.2060     0.1642    102.970      8.420    -64.280
  287.0000     32.340   1990.000     64.080      3.380     2.3710     0.2372     89.810      8.690    -42.650
  288.0000     33.990   1650.000     78.760      4.480     2.3940     0.2380     85.090      8.740    -56.760
  289.0000     31.710  -2280.000     62.190      8.210     2.4500     0.1493     79.240      8.610    -65.380
  290.0000     31.700    -10.000    100.480      5.810     2.4260     0.0355     84.070      8.930    -51.510
  291.0000     31.150   -550.000     57.150      6.620     2.3740     0.1679     87.870      9.290    -57.750
