~Version Information
VERS.                  2.0 : LAS version
WRAP.                  NO  : One line per depth step

~Well Information
#MNEM.UNIT          Data                    Description
WELL.               FORMATION-TOPS-WELL     : Well Name
LOC.                TRAINING-BASIN          : Location
SRVC.               DRAKE AI SYSTEM         : Service Company
DATE.               2025-05-16              : Creation Date
NULL.               -999.25                 : Null value

~Curve Information
#MNEM.UNIT          API Code                Description
DEPT.FT             00 000 00 00            : Depth
GR.API              00 001 00 00            : Gamma Ray
RHOB.G/C3           00 002 00 00            : Bulk Density
NPHI.V/V            00 003 00 00            : Neutron Porosity
RESD.OHM            00 004 00 00            : Deep Resistivity

~Parameter Information
#PARAM.UNIT         Value                   Description
STRT.FT             6534.0                  : Start Depth
STOP.FT             8569.0                  : Stop Depth
STEP.FT             0.5                     : Step Size

~ASCII Log Data
# ...
6651.5  79.8  2.470  0.243  20.44
6652.0  97.4  2.285  0.293  20.38
6652.5  82.7  2.345  0.235  21.26
6653.0  92.1  2.294  0.213  18.09
6653.5  82.6  2.289  0.265  21.72
6654.0  88.5  2.354  0.298  23.69
6654.5  88.4  2.325  0.213  17.46
6655.0  88.0  2.367  0.322  21.96
6655.5  73.3  2.385  0.237  22.71
6656.0  90.2  2.287  0.294  23.91
6656.5  81.2  2.323  0.258  24.47
6657.0  92.6  2.336  0.276  21.34
6657.5  59.2  2.242  0.261  14.84
6658.0  67.4  2.337  0.246  17.15
6658.5  89.4  2.286  0.184  24.12
6659.0  107.4  2.339  0.163  11.36
6659.5  95.0  2.348  0.255  17.89
6660.0  76.8  2.256  0.243  21.60
6660.5  64.7  2.294  0.268  18.66
6661.0  93.9  2.370  0.198  12.90
6661.5  84.0  2.394  0.229  15.76
6662.0  92.1  2.445  0.244  23.13
6662.5  86.4  2.368  0.284  23.73
6663.0  85.4  2.317  0.279  11.31
6663.5  120.5  2.304  0.207  17.02
6664.0  84.9  2.286  0.221  12.10
6664.5  83.1  2.401  0.263  18.51
6665.0  83.5  2.282  0.258  14.00
6665.5  78.0  2.311  0.258  18.42
6666.0  96.9  2.344  0.294  14.27
6666.5  80.8  2.414  0.264  21.45
6667.0  92.6  2.381  0.274  15.56
6667.5  88.4  2.343  0.277  14.92
6668.0  99.6  2.382  0.238  14.06
6668.5  90.0  2.446  0.208  12.49
6669.0  70.4  2.333  0.310  12.45
6669.5  69.1  2.407  0.257  13.72
6670.0  101.9  2.381  0.227  17.05
6670.5  77.7  2.412  0.224  12.88
6671.0  69.2  2.357  0.273  14.81
6671.5  77.0  2.316  0.201  22.16
6672.0  100.2  2.298  0.190  22.86
6672.5  68.0  2.340  0.219  11.90
6673.0  74.6  2.299  0.318  23.50
6673.5  77.0  2.278  0.277  18.71
6674.0  70.0  2.467  0.282  20.43
6674.5  70.8  2.304  0.241  25.76
6675.0  66.8  2.326  0.263  19.67
6675.5  79.5  2.357  0.259  8.08
6676.0  80.7  2.440  0.245  17.21
6676.5  76.8  2.383  0.248  19.97
6677.0  65.2  2.420  0.244  18.67
6677.5  100.0  2.359  0.236  17.61
6678.0  69.1  2.352  0.250  11.50
6678.5  88.3  2.361  0.233  23.96
6679.0  72.1  2.411  0.243  14.28
6679.5  93.0  2.305  0.234  15.50
6680.0  96.5  2.320  0.239  17.40
6680.5  74.5  2.397  0.267  17.28
6681.0  61.9  2.420  0.280  18.05
6681.5  93.3  2.277  0.242  12.43
6682.0  107.5  2.326  0.264  15.74
6682.5  90.0  2.375  0.258  16.13
6683.0  86.9  2.380  0.264  16.02
6683.5  94.8  2.409  0.251  19.36
6684.0  94.2  2.422  0.243  17.92
6684.5  75.1  2.329  0.239  21.10
6685.0  77.1  2.406  0.247  21.20
6685.5  92.3  2.307  0.250  15.51
6686.0  83.3  2.403  0.212  17.59
6686.5  100.8  2.341  0.228  13.31
6687.0  76.5  2.372  0.203  18.91
6687.5  94.0  2.389  0.223  14.95
6688.0  89.1  2.394  0.253  20.41
6688.5  83.5  2.369  0.263  11.09
6689.0  99.1  2.366  0.195  11.64
6689.5  93.2  2.287  0.274  17.64
6690.0  72.9  2.373  0.266  20.51
6690.5  92.7  2.318  0.328  23.28
6691.0  101.5  2.325  0.289  16.48
6691.5  83.4  2.370  0.205  14.60
6692.0  82.0  2.429  0.234  17.36
6692.5  77.0  2.399  0.324  16.37
6693.0  84.8  2.346  0.179  14.05
6693.5  93.2  2.341  0.267  16.80
6694.0  75.2  2.314  0.298  18.08
6694.5  68.8  2.353  0.276  11.11
6695.0  80.5  2.234  0.244  24.05
6695.5  68.4  2.344  0.275  17.47
6696.0  91.3  2.318  0.266  17.82
6696.5  79.9  2.342  0.242  15.58
6697.0  63.9  2.274  0.268  17.09
6697.5  80.8  2.329  0.242  13.12
6698.0  82.7  2.425  0.286  17.50
6698.5  90.4  2.360  0.265  20.05
6699.0  83.3  2.294  0.234  15.66
6699.5  107.4  2.327  0.275  18.00
6700.0  78.8  2.357  0.204  16.05
6700.5  84.3  2.236  0.239  12.81
6701.0  83.8  2.468  0.320  19.02
6701.5  81.6  2.363  0.255  24.41
6702.0  86.7  2.363  0.266  16.54
6702.5  91.5  2.389  0.259  20.23
6703.0  101.1  2.378  0.241  16.89
6703.5  66.2  2.422  0.237  21.33
6704.0  78.9  2.435  0.230  15.56
6704.5  79.6  2.309  0.273  18.88
6705.0  96.3  2.253  0.237  23.98
6705.5  80.7  2.265  0.271  19.47
6706.0  62.3  2.460  0.295  13.58
6706.5  86.1  2.296  0.254  18.93
6707.0  84.6  2.425  0.247  16.74
6707.5  87.2  2.297  0.246  18.22
6708.0  72.5  2.415  0.236  20.45
6708.5  105.6  2.414  0.237  19.42
6709.0  81.1  2.362  0.269  18.33
6709.5  82.7  2.318  0.220  15.88
6710.0  74.2  2.408  0.267  21.23
6710.5  73.8  2.322  0.224  18.01
6711.0  70.3  2.428  0.252  18.59
6711.5  80.3  2.321  0.185  17.35
6712.0  73.5  2.419  0.274  18.14
6712.5  109.7  2.315  0.303  16.06
6713.0  62.3  2.313  0.233  9.10
6713.5  71.5  2.385  0.241  20.00
6714.0  80.2  2.351  0.264  23.34
6714.5  93.1  2.382  0.299  21.47
6715.0  80.0  2.489  0.274  18.60
6715.5  93.1  2.304  0.208  19.76
6716.0  73.2  2.333  0.250  19.73
6716.5  85.7  2.357  0.289  23.10
6717.0  105.9  2.297  0.298  14.15
6717.5  73.4  2.267  0.258  21.74
6718.0  90.0  2.304  0.246  21.53
6718.5  87.5  2.387  0.252  15.20
6719.0  58.0  2.315  0.257  16.93
6719.5  77.9  2.315  0.258  7.10
6720.0  98.6  2.374  0.231  11.95
6720.5  86.6  2.300  0.231  15.59
6721.0  70.5  2.396  0.296  15.85
6721.5  93.3  2.447  0.214  16.58
6722.0  79.3  2.364  0.229  20.81
6722.5  89.3  2.372  0.285  19.76
6723.0  89.5  2.314  0.223  12.21
6723.5  71.6  2.364  0.234  18.67
6724.0  94.5  2.374  0.251  16.12
6724.5  72.9  2.287  0.208  18.53
6725.0  69.3  2.302  0.357  19.11
6725.5  74.4  2.310  0.200  19.99
6726.0  80.8  2.361  0.282  20.33
6726.5  86.3  2.324  0.297  19.76
6727.0  75.7  2.360  0.232  21.80
6727.5  93.9  2.326  0.242  20.53
6728.0  88.0  2.405  0.226  15.63
6728.5  76.7  2.341  0.224  22.52
6729.0  95.7  2.299  0.276  18.75
6729.5  98.9  2.432  0.229  21.76
6730.0  83.8  2.453  0.197  19.35
6730.5  82.4  2.389  0.254  19.77
6731.0  63.7  2.373  0.256  19.74
6731.5  80.1  2.349  0.260  13.43
6732.0  81.5  2.372  0.193  15.93
6732.5  87.9  2.296  0.323  16.20
6733.0  83.0  2.292  0.276  23.49
6733.5  87.9  2.379  0.221  29.43
6734.0  103.4  2.291  0.216  12.87
6734.5  78.6  2.441  0.241  19.01
6735.0  79.1  2.311  0.289  13.20
6735.5  69.3  2.377  0.274  8.35
6736.0  84.9  2.288  0.229  20.81
6736.5  96.7  2.349  0.256  11.67
6737.0  64.0  2.371  0.296  20.29
6737.5  77.0  2.329  0.252  14.46
6738.0  85.4  2.318  0.204  16.39
6738.5  95.2  2.337  0.231  16.41
6739.0  89.6  2.415  0.218  23.38
6739.5  88.9  2.401  0.228  14.90
6740.0  82.3  2.405  0.258  11.64
6740.5  90.8  2.402  0.282  16.98
6741.0  97.2  2.426  0.233  16.10
6741.5  64.5  2.391  0.263  18.06
6742.0  93.7  2.236  0.280  17.93
6742.5  83.8  2.382  0.246  31.07
6743.0  78.6  2.373  0.197  13.44
6743.5  55.7  2.339  0.216  14.39
6744.0  68.4  2.276  0.260  17.32
6744.5  105.4  2.316  0.222  24.72
6745.0  76.7  2.333  0.204  28.94
6745.5  72.0  2.394  0.189  17.65
6746.0  79.5  2.386  0.312  24.74
6746.5  76.1  2.292  0.201  11.64
6747.0  86.5  2.380  0.266  17.35
6747.5  103.2  2.254  0.299  13.54
6748.0  78.0  2.329  0.271  23.83
6748.5  86.9  2.349  0.270  19.54
6749.0  71.2  2.387  0.228  23.47
6749.5  103.2  2.337  0.215  9.66
6750.0  87.3  2.378  0.281  24.08
6750.5  72.0  2.365  0.253  22.91
6751.0  95.9  2.374  0.262  19.93
6751.5  99.4  2.383  0.240  16.06
6752.0  86.9  2.336  0.253  15.87
6752.5  65.3  2.394  0.298  22.59
6753.0  106.4  2.428  0.200  12.96
6753.5  88.7  2.342  0.287  21.29
6754.0  99.0  2.237  0.251  19.12
6754.5  78.4  2.383  0.296  16.63
6755.0  80.2  2.351  0.276  17.35
6755.5  86.3  2.374  0.234  26.29
6756.0  98.4  2.310  0.291  13.62
6756.5  86.7  2.327  0.283  20.46
6757.0  69.9  2.353  0.244  14.45
6757.5  88.1  2.341  0.214  19.13
6758.0  104.6  2.347  0.234  18.27
6758.5  85.8  2.325  0.255  14.76
6759.0  86.6  2.343  0.235  16.26
6759.5  69.8  2.384  0.287  19.03
6760.0  68.2  2.377  0.241  18.93
6760.5  77.3  2.287  0.312  15.75
6761.0  81.1  2.361  0.295  14.92
6761.5  86.2  2.314  0.295  15.20
6762.0  87.0  2.369  0.263  19.19
6762.5  104.2  2.410  0.275  15.64
6763.0  85.7  2.391  0.271  18.99
6763.5  97.8  2.317  0.229  16.59
6764.0  84.5  2.355  0.284  25.09
6764.5  102.4  2.369  0.284  19.77
6765.0  62.6  2.373  0.320  19.65
6765.5  77.8  2.307  0.265  21.83
6766.0  96.8  2.376  0.265  17.93
6766.5  82.9  2.366  0.273  18.38
6767.0  96.2  2.302  0.190  17.81
6767.5  89.6  2.368  0.264  14.41
6768.0  96.4  2.328  0.261  19.08
6768.5  92.4  2.305  0.235  17.70
