~Version Information
VERS.                  2.0 : LAS version
WRAP.                  NO  : One line per depth step

~Well Information
#MNEM.UNIT          Data                    Description
WELL.               FORMATION-TOPS-WELL     : Well Name
LOC.                TRAINING-BASIN          : Location
SRVC.               DRAKE AI SYSTEM         : Service Company
DATE.               2025-05-16              : Creation Date
NULL.               -999.25                 : Null value

~Curve Information
#MNEM.UNIT          API Code                Description
DEPT.FT             00 000 00 00            : Depth
GR.API              00 001 00 00            : Gamma Ray
RHOB.G/C3           00 002 00 00            : Bulk Density
NPHI.V/V            00 003 00 00            : Neutron Porosity
RESD.OHM            00 004 00 00            : Deep Resistivity

~Parameter Information
#PARAM.UNIT         Value                   Description
STRT.FT             6534.0                  : Start Depth
STOP.FT             8569.0                  : Stop Depth
STEP.FT             0.5                     : Step Size

~ASCII Log Data
# ...
8414.0  76.7  2.313  0.270  19.72
8414.5  84.3  2.452  0.222  25.68
8415.0  92.7  2.335  0.226  24.50
8415.5  84.0  2.416  0.208  9.11
8416.0  90.7  2.261  0.217  15.44
8416.5  71.9  2.312  0.319  16.07
8417.0  63.0  2.410  0.299  21.96
8417.5  75.6  2.322  0.297  17.05
8418.0  80.7  2.381  0.238  19.30
8418.5  72.5  2.264  0.272  19.02
8419.0  84.1  2.346  0.244  12.33
8419.5  81.8  2.324  0.257  11.29
8420.0  62.4  2.374  0.247  21.35
8420.5  93.9  2.299  0.238  13.97
8421.0  82.3  2.302  0.238  18.57
8421.5  71.2  2.375  0.306  16.92
8422.0  66.8  2.348  0.249  13.75
8422.5  112.3  2.406  0.245  18.68
8423.0  79.1  2.289  0.246  23.24
8423.5  59.4  2.375  0.276  14.67
8424.0  67.5  2.336  0.249  8.26
8424.5  86.0  2.269  0.198  22.08
8425.0  76.1  2.350  0.240  18.87
8425.5  82.0  2.306  0.293  22.13
8426.0  84.5  2.333  0.269  21.14
8426.5  84.6  2.255  0.211  16.55
8427.0  84.5  2.282  0.227  16.91
8427.5  82.9  2.398  0.307  19.17
8428.0  104.4  2.379  0.238  19.04
8428.5  80.7  2.310  0.227  18.01
8429.0  98.3  2.372  0.252  21.07
8429.5  87.5  2.290  0.287  9.95
8430.0  96.5  2.290  0.228  11.51
8430.5  91.7  2.324  0.262  14.15
8431.0  98.7  2.334  0.260  21.30
8431.5  115.5  2.283  0.227  16.14
8432.0  84.0  2.333  0.261  20.91
8432.5  90.3  2.390  0.269  14.12
8433.0  107.8  2.401  0.198  19.92
8433.5  87.9  2.305  0.244  24.69
8434.0  53.3  2.327  0.247  15.28
8434.5  79.6  2.284  0.240  21.95
8435.0  80.7  2.339  0.248  24.81
8435.5  86.6  2.242  0.218  16.61
8436.0  77.3  2.373  0.260  10.68
8436.5  112.8  2.362  0.252  18.91
8437.0  111.2  2.352  0.263  22.91
8437.5  65.5  2.377  0.213  12.72
8438.0  73.9  2.284  0.232  16.29
8438.5  97.7  2.398  0.241  15.79
8439.0  75.2  2.373  0.212  25.75
8439.5  80.1  2.327  0.260  15.73
8440.0  75.5  2.405  0.220  13.74
8440.5  101.9  2.364  0.189  18.05
8441.0  84.1  2.355  0.229  15.96
8441.5  100.1  2.345  0.220  19.67
8442.0  78.1  2.366  0.309  17.41
8442.5  94.6  2.387  0.289  7.97
8443.0  81.8  2.244  0.257  28.38
8443.5  87.3  2.282  0.249  22.91
8444.0  79.9  2.349  0.263  18.86
8444.5  81.9  2.346  0.235  21.72
8445.0  83.9  2.296  0.275  14.49
8445.5  88.0  2.371  0.239  19.87
8446.0  94.4  2.256  0.246  16.65
8446.5  73.6  2.393  0.265  17.58
8447.0  69.1  2.387  0.218  24.06
8447.5  100.1  2.317  0.239  16.24
8448.0  109.5  2.342  0.238  23.50
8448.5  96.5  2.320  0.238  24.61
8449.0  100.7  2.331  0.278  11.46
8449.5  80.5  2.384  0.255  13.46
8450.0  92.4  2.376  0.312  23.45
8450.5  90.2  2.350  0.342  9.11
8451.0  87.1  2.255  0.295  13.57
8451.5  74.8  2.436  0.254  22.95
8452.0  65.6  2.369  0.218  18.11
8452.5  99.9  2.333  0.226  21.44
8453.0  94.4  2.425  0.259  9.96
8453.5  77.1  2.300  0.233  11.59
8454.0  89.2  2.303  0.277  14.28
8454.5  79.5  2.430  0.255  20.35
8455.0  96.2  2.366  0.255  21.36
8455.5  91.4  2.353  0.273  17.07
8456.0  103.6  2.369  0.197  19.69
8456.5  86.6  2.377  0.221  17.90
8457.0  84.0  2.325  0.265  24.46
8457.5  85.5  2.279  0.238  14.57
8458.0  118.6  2.413  0.227  13.35
8458.5  93.3  2.363  0.203  24.24
8459.0  86.3  2.392  0.263  16.96
8459.5  95.9  2.304  0.264  15.53
8460.0  82.2  2.367  0.233  24.35
8460.5  89.3  2.253  0.224  20.17
8461.0  97.2  2.310  0.292  21.54
8461.5  54.0  2.342  0.178  13.24
8462.0  69.1  2.345  0.239  20.08
8462.5  70.1  2.415  0.206  18.43
8463.0  81.0  2.278  0.209  15.76
8463.5  80.8  2.344  0.232  20.36
8464.0  90.5  2.363  0.284  19.99
8464.5  93.1  2.401  0.217  18.54
8465.0  102.7  2.261  0.236  23.79
8465.5  81.2  2.376  0.242  19.29
8466.0  80.3  2.376  0.228  25.69
8466.5  79.3  2.239  0.233  17.79
8467.0  74.3  2.403  0.268  12.54
8467.5  87.4  2.433  0.241  24.43
8468.0  70.4  2.323  0.246  21.83
8468.5  98.9  2.435  0.306  23.60
8469.0  88.2  2.360  0.307  26.63
8469.5  94.8  2.246  0.221  19.39
8470.0  104.5  2.335  0.275  19.97
8470.5  57.8  2.383  0.234  25.32
8471.0  83.4  2.366  0.313  23.23
8471.5  77.8  2.409  0.297  15.46
8472.0  90.6  2.344  0.199  18.43
8472.5  95.1  2.261  0.283  20.57
8473.0  90.2  2.412  0.238  16.10
8473.5  86.6  2.333  0.300  11.66
8474.0  83.0  2.459  0.274  16.96
8474.5  96.1  2.355  0.304  19.27
8475.0  85.4  2.380  0.240  21.74
8475.5  105.4  2.292  0.250  23.00
8476.0  78.9  2.228  0.270  17.56
8476.5  106.9  2.358  0.212  14.29
8477.0  70.8  2.357  0.262  15.13
8477.5  88.3  2.340  0.267  19.31
8478.0  86.0  2.352  0.229  23.69
8478.5  76.6  2.376  0.169  12.30
8479.0  68.8  2.353  0.256  17.68
8479.5  96.2  2.420  0.283  20.88
8480.0  85.0  2.363  0.260  21.70
8480.5  96.5  2.414  0.250  17.76
8481.0  106.4  2.403  0.253  20.85
8481.5  93.1  2.429  0.269  15.71
8482.0  96.6  2.363  0.228  18.50
8482.5  80.5  2.421  0.224  17.06
8483.0  102.2  2.350  0.252  13.19
8483.5  103.4  2.332  0.295  13.65
8484.0  91.9  2.298  0.231  27.66
8484.5  82.4  2.304  0.226  24.53
8485.0  85.7  2.257  0.303  14.77
8485.5  86.9  2.449  0.264  20.62
8486.0  90.6  2.379  0.203  21.92
8486.5  84.9  2.438  0.283  16.95
8487.0  81.6  2.324  0.255  18.99
8487.5  83.0  2.286  0.276  23.00
8488.0  85.1  2.354  0.212  19.95
8488.5  99.7  2.334  0.236  17.65
8489.0  73.9  2.406  0.302  13.02
8489.5  61.8  2.339  0.258  24.14
8490.0  66.8  2.334  0.231  17.53
8490.5  87.7  2.466  0.296  22.23
8491.0  88.4  2.259  0.260  23.66
8491.5  99.1  2.336  0.176  13.37
8492.0  114.8  2.384  0.262  17.54
8492.5  83.1  2.324  0.240  8.51
8493.0  97.8  2.325  0.283  20.11
8493.5  78.1  2.414  0.284  9.53
8494.0  98.3  2.458  0.288  15.35
8494.5  88.5  2.401  0.283  13.97
8495.0  70.7  2.317  0.272  19.74
8495.5  89.0  2.438  0.272  15.70
8496.0  91.3  2.388  0.225  19.11
8496.5  89.7  2.379  0.262  10.92
8497.0  81.7  2.270  0.232  19.77
8497.5  102.7  2.330  0.325  21.47
8498.0  98.7  2.407  0.238  17.38
8498.5  93.3  2.334  0.212  16.12
8499.0  76.7  2.375  0.193  15.10
8499.5  80.4  2.357  0.216  20.96
8500.0  94.9  2.370  0.221  14.64
8500.5  105.5  2.337  0.239  17.18
8501.0  97.5  2.399  0.237  14.92
8501.5  82.9  2.437  0.237  21.49
8502.0  87.0  2.272  0.262  16.27
8502.5  99.9  2.336  0.243  12.87
8503.0  69.5  2.387  0.249  19.39
8503.5  68.2  2.414  0.284  17.38
8504.0  97.7  2.313  0.232  15.29
8504.5  86.7  2.359  0.245  16.66
8505.0  73.8  2.233  0.230  17.83
8505.5  82.8  2.327  0.290  18.02
8506.0  80.9  2.451  0.260  22.47
8506.5  91.1  2.350  0.260  16.94
8507.0  83.6  2.252  0.215  21.70
8507.5  90.3  2.395  0.260  11.21
8508.0  104.1  2.345  0.283  25.25
8508.5  87.4  2.377  0.220  21.78
8509.0  83.8  2.370  0.233  16.41
8509.5  78.9  2.361  0.218  16.46
8510.0  79.4  2.309  0.212  21.53
8510.5  83.8  2.269  0.236  11.12
8511.0  97.3  2.354  0.269  13.12
8511.5  94.6  2.395  0.237  11.82
8512.0  67.3  2.309  0.313  15.08
8512.5  107.6  2.311  0.234  16.78
8513.0  78.5  2.374  0.259  15.84
8513.5  78.5  2.445  0.240  19.39
8514.0  83.0  2.437  0.236  11.95
8514.5  109.7  2.297  0.202  20.40
8515.0  92.7  2.381  0.250  14.31
8515.5  87.8  2.359  0.273  19.93
8516.0  78.0  2.372  0.269  21.36
8516.5  87.2  2.346  0.259  18.56
8517.0  112.4  2.325  0.280  20.90
8517.5  95.5  2.408  0.244  21.13
8518.0  79.7  2.304  0.262  12.14
8518.5  80.9  2.365  0.235  15.44
8519.0  92.3  2.434  0.263  20.01
8519.5  96.6  2.350  0.271  23.44
8520.0  71.2  2.380  0.260  24.48
8520.5  89.7  2.412  0.291  22.21
8521.0  93.7  2.308  0.300  21.96
8521.5  100.1  2.298  0.218  18.09
8522.0  70.5  2.305  0.277  21.34
8522.5  112.7  2.452  0.231  15.77
8523.0  80.1  2.331  0.236  18.56
8523.5  79.7  2.354  0.209  16.12
8524.0  79.0  2.320  0.252  25.23
8524.5  92.1  2.311  0.210  20.49
8525.0  73.9  2.329  0.299  24.63
8525.5  105.8  2.408  0.269  18.48
8526.0  79.5  2.366  0.264  20.14
8526.5  86.5  2.376  0.232  12.50
8527.0  71.6  2.329  0.299  22.87
8527.5  78.7  2.387  0.220  17.11
8528.0  60.8  2.370  0.233  12.82
8528.5  84.7  2.283  0.224  16.64
8529.0  83.8  2.373  0.236  19.69
8529.5  63.9  2.298  0.223  17.42
8530.0  82.8  2.397  0.242  23.00
8530.5  91.0  2.350  0.243  23.33
8531.0  101.3  2.305  0.273  21.60
