~Version Information
VERS.                  2.0 : LAS version
WRAP.                  NO  : One line per depth step

~Well Information
#MNEM.UNIT          Data                    Description
WELL.               FORMATION-TOPS-WELL     : Well Name
LOC.                TRAINING-BASIN          : Location
SRVC.               DRAKE AI SYSTEM         : Service Company
DATE.               2025-05-16              : Creation Date
NULL.               -999.25                 : Null value

~Curve Information
#MNEM.UNIT          API Code                Description
DEPT.FT             00 000 00 00            : Depth
GR.API              00 001 00 00            : Gamma Ray
RHOB.G/C3           00 002 00 00            : Bulk Density
NPHI.V/V            00 003 00 00            : Neutron Porosity
RESD.OHM            00 004 00 00            : Deep Resistivity

~Parameter Information
#PARAM.UNIT         Value                   Description
STRT.FT             6534.0                  : Start Depth
STOP.FT             8569.0                  : Stop Depth
STEP.FT             0.5                     : Step Size

~ASCII Log Data
# ...
7826.5  74.0  2.316  0.300  25.65
7827.0  82.1  2.335  0.302  15.69
7827.5  92.2  2.384  0.293  17.57
7828.0  81.4  2.302  0.287  13.59
7828.5  90.3  2.445  0.190  19.90
7829.0  97.3  2.321  0.317  17.50
7829.5  114.0  2.459  0.261  16.97
7830.0  81.5  2.303  0.304  16.85
7830.5  77.3  2.467  0.329  14.51
7831.0  85.5  2.402  0.260  25.23
7831.5  87.4  2.432  0.201  23.80
7832.0  91.6  2.282  0.247  16.95
7832.5  94.8  2.305  0.276  26.10
7833.0  81.6  2.301  0.245  22.23
7833.5  93.7  2.347  0.225  21.13
7834.0  86.0  2.385  0.292  10.08
7834.5  99.7  2.400  0.255  19.94
7835.0  81.7  2.375  0.244  20.75
7835.5  86.7  2.381  0.252  13.64
7836.0  88.2  2.422  0.251  24.23
7836.5  98.6  2.350  0.279  21.55
7837.0  85.0  2.328  0.288  20.74
7837.5  72.6  2.382  0.280  21.51
7838.0  64.7  2.375  0.237  18.80
7838.5  97.4  2.281  0.283  18.30
7839.0  92.7  2.358  0.241  18.94
7839.5  104.9  2.477  0.265  23.96
7840.0  86.1  2.353  0.259  14.70
7840.5  86.0  2.403  0.221  17.25
7841.0  87.2  2.340  0.259  18.97
7841.5  78.6  2.433  0.259  19.38
7842.0  76.6  2.381  0.282  20.74
7842.5  90.3  2.321  0.309  15.27
7843.0  99.2  2.400  0.322  18.24
7843.5  92.2  2.444  0.244  19.71
7844.0  79.2  2.381  0.215  16.46
7844.5  90.1  2.355  0.262  19.64
7845.0  87.1  2.386  0.246  12.16
7845.5  78.2  2.365  0.246  13.91
7846.0  70.3  2.395  0.255  20.28
7846.5  75.0  2.334  0.251  14.08
7847.0  99.3  2.302  0.223  18.48
7847.5  88.0  2.405  0.233  14.02
7848.0  77.7  2.462  0.300  15.69
7848.5  85.9  2.373  0.244  14.71
7849.0  92.3  2.352  0.246  17.28
7849.5  78.5  2.496  0.315  15.38
7850.0  75.8  2.407  0.246  24.01
7850.5  63.7  2.402  0.251  15.89
7851.0  98.1  2.366  0.218  12.81
7851.5  92.1  2.325  0.299  24.19
7852.0  93.0  2.332  0.300  16.04
7852.5  91.7  2.340  0.213  24.80
7853.0  60.7  2.280  0.252  23.40
7853.5  86.3  2.339  0.260  17.47
7854.0  90.4  2.358  0.244  19.12
7854.5  85.8  2.336  0.282  19.22
7855.0  56.8  2.366  0.248  23.11
7855.5  83.5  2.346  0.262  15.98
7856.0  81.9  2.358  0.265  19.33
7856.5  97.5  2.319  0.255  19.32
7857.0  83.8  2.334  0.196  19.59
7857.5  78.8  2.350  0.230  18.66
7858.0  78.8  2.313  0.222  17.16
7858.5  93.7  2.345  0.258  16.32
7859.0  93.1  2.319  0.247  18.93
7859.5  82.4  2.404  0.243  18.18
7860.0  80.2  2.338  0.256  14.70
7860.5  57.4  2.376  0.250  19.10
7861.0  60.5  2.322  0.214  24.11
7861.5  75.0  2.339  0.215  13.30
7862.0  83.3  2.345  0.285  9.10
7862.5  75.5  2.287  0.255  16.50
7863.0  66.8  2.267  0.249  19.14
7863.5  84.6  2.282  0.275  25.69
7864.0  84.7  2.384  0.247  10.62
7864.5  100.7  2.376  0.255  19.23
7865.0  80.7  2.336  0.261  23.06
7865.5  82.2  2.264  0.282  29.06
7866.0  76.4  2.387  0.292  21.09
7866.5  116.2  2.320  0.229  19.07
7867.0  92.7  2.362  0.287  23.68
7867.5  75.1  2.366  0.240  24.84
7868.0  61.4  2.411  0.272  18.13
7868.5  69.5  2.351  0.233  17.53
7869.0  74.0  2.166  0.214  19.36
7869.5  68.7  2.381  0.282  24.00
7870.0  83.6  2.307  0.307  21.95
7870.5  72.8  2.273  0.243  22.42
7871.0  65.7  2.303  0.289  17.01
7871.5  92.7  2.236  0.237  18.78
7872.0  66.5  2.387  0.262  21.41
7872.5  54.4  2.293  0.253  20.17
7873.0  96.2  2.389  0.247  18.15
7873.5  106.5  2.344  0.247  12.29
7874.0  85.5  2.341  0.219  19.18
7874.5  93.2  2.381  0.288  21.14
7875.0  93.1  2.208  0.231  21.67
7875.5  113.3  2.383  0.290  22.81
7876.0  73.1  2.359  0.233  12.49
7876.5  79.6  2.401  0.235  18.82
7877.0  79.7  2.328  0.272  23.80
7877.5  85.7  2.368  0.284  20.20
7878.0  82.5  2.310  0.294  18.95
7878.5  84.0  2.381  0.208  17.28
7879.0  86.7  2.389  0.229  17.43
7879.5  108.7  2.217  0.300  21.67
7880.0  88.3  2.366  0.221  20.39
7880.5  95.0  2.301  0.257  18.25
7881.0  93.0  2.340  0.234  22.49
7881.5  89.3  2.338  0.232  22.12
7882.0  81.8  2.360  0.175  19.58
7882.5  94.7  2.373  0.275  18.83
7883.0  64.0  2.337  0.206  10.35
7883.5  103.5  2.320  0.252  19.64
7884.0  93.0  2.317  0.217  18.51
7884.5  86.2  2.278  0.266  18.91
7885.0  84.8  2.256  0.253  17.81
7885.5  87.6  2.413  0.193  19.64
7886.0  94.8  2.279  0.221  18.60
7886.5  90.6  2.430  0.217  18.97
7887.0  101.4  2.295  0.256  19.41
7887.5  105.6  2.384  0.209  16.24
7888.0  98.1  2.409  0.251  17.95
7888.5  67.1  2.330  0.265  18.21
7889.0  78.7  2.346  0.245  13.02
7889.5  96.7  2.360  0.274  20.30
7890.0  110.6  2.358  0.187  16.18
7890.5  78.0  2.312  0.220  21.09
7891.0  92.2  2.271  0.273  22.40
7891.5  99.7  2.363  0.294  16.22
7892.0  86.3  2.370  0.217  14.75
7892.5  70.4  2.316  0.309  25.63
7893.0  108.5  2.410  0.293  18.91
7893.5  74.6  2.322  0.279  18.29
7894.0  76.1  2.388  0.272  21.83
7894.5  88.2  2.387  0.239  14.27
7895.0  85.7  2.267  0.235  18.02
7895.5  74.0  2.391  0.302  16.13
7896.0  105.1  2.231  0.267  17.65
7896.5  91.2  2.363  0.278  20.22
7897.0  95.9  2.311  0.293  16.67
7897.5  84.5  2.356  0.239  17.00
7898.0  84.9  2.410  0.236  18.45
7898.5  100.9  2.378  0.246  23.37
7899.0  78.8  2.379  0.266  21.67
7899.5  80.7  2.399  0.239  21.53
7900.0  90.6  2.326  0.233  20.85
7900.5  95.9  2.377  0.284  19.83
7901.0  95.9  2.357  0.215  10.90
7901.5  73.7  2.326  0.230  20.30
7902.0  72.0  2.366  0.253  22.02
7902.5  74.8  2.312  0.319  20.32
7903.0  95.6  2.379  0.254  15.97
7903.5  95.6  2.282  0.222  21.94
7904.0  88.8  2.418  0.196  13.01
7904.5  88.6  2.332  0.198  19.52
7905.0  65.2  2.373  0.266  22.22
7905.5  88.8  2.328  0.235  18.92
7906.0  66.1  2.312  0.224  17.66
7906.5  94.9  2.345  0.238  15.00
7907.0  81.2  2.428  0.231  19.64
7907.5  87.9  2.352  0.200  24.67
7908.0  82.4  2.308  0.267  15.04
7908.5  84.0  2.261  0.256  22.20
7909.0  71.6  2.353  0.291  12.61
7909.5  83.0  2.356  0.270  25.45
7910.0  84.2  2.308  0.209  22.87
7910.5  87.5  2.379  0.219  18.14
7911.0  91.5  2.360  0.281  15.81
7911.5  90.8  2.353  0.260  20.91
7912.0  88.2  2.366  0.258  15.54
7912.5  77.2  2.290  0.190  9.63
7913.0  69.4  2.362  0.244  17.17
7913.5  73.0  2.348  0.280  12.92
7914.0  75.2  2.406  0.205  11.29
7914.5  95.2  2.321  0.276  12.27
7915.0  97.9  2.383  0.257  19.03
7915.5  75.4  2.349  0.195  20.27
7916.0  71.1  2.398  0.255  12.56
7916.5  65.5  2.474  0.227  16.57
7917.0  77.5  2.365  0.234  22.12
7917.5  90.0  2.322  0.262  20.74
7918.0  71.9  2.359  0.218  16.09
7918.5  99.2  2.375  0.256  10.96
7919.0  89.4  2.324  0.239  23.29
7919.5  97.8  2.338  0.217  12.64
7920.0  75.4  2.332  0.212  16.53
7920.5  93.5  2.424  0.269  9.38
7921.0  71.7  2.353  0.248  13.45
7921.5  93.3  2.373  0.264  17.25
7922.0  102.3  2.297  0.294  19.16
7922.5  102.1  2.286  0.266  26.13
7923.0  78.6  2.287  0.280  22.31
7923.5  74.4  2.361  0.263  19.70
7924.0  83.0  2.310  0.211  13.10
7924.5  103.9  2.306  0.244  10.72
7925.0  68.7  2.379  0.199  23.52
7925.5  66.8  2.399  0.226  28.41
7926.0  60.5  2.317  0.280  10.68
7926.5  86.1  2.171  0.266  21.90
7927.0  64.6  2.282  0.251  15.23
7927.5  99.3  2.264  0.283  21.63
7928.0  104.7  2.429  0.278  24.74
7928.5  83.4  2.335  0.230  13.53
7929.0  113.7  2.294  0.271  18.61
7929.5  87.8  2.435  0.197  18.22
7930.0  78.9  2.283  0.236  15.97
7930.5  78.7  2.358  0.259  16.36
7931.0  102.2  2.308  0.239  17.73
7931.5  94.5  2.276  0.272  21.26
7932.0  60.6  2.300  0.262  18.28
7932.5  62.4  2.408  0.258  18.00
7933.0  67.4  2.340  0.279  22.36
7933.5  77.9  2.392  0.246  28.36
7934.0  69.4  2.319  0.296  13.99
7934.5  75.8  2.313  0.277  17.28
7935.0  75.1  2.329  0.290  15.98
7935.5  71.6  2.402  0.273  16.23
7936.0  110.4  2.320  0.195  21.02
7936.5  102.0  2.303  0.264  6.95
7937.0  106.4  2.281  0.258  17.95
7937.5  105.1  2.322  0.256  16.91
7938.0  84.1  2.278  0.237  14.47
7938.5  86.3  2.456  0.318  20.20
7939.0  73.9  2.363  0.295  13.37
7939.5  86.8  2.275  0.235  15.84
7940.0  73.0  2.377  0.205  13.38
7940.5  65.8  2.317  0.208  14.42
7941.0  75.8  2.351  0.284  20.03
7941.5  95.5  2.291  0.224  20.73
7942.0  86.2  2.339  0.270  25.46
7942.5  92.2  2.365  0.245  19.76
7943.0  85.2  2.335  0.269  9.68
7943.5  74.0  2.395  0.251  10.41
