~Version Information
VERS.                  2.0 : LAS version
WRAP.                  NO  : One line per depth step

~Well Information
#MNEM.UNIT          Data                    Description
WELL.               FORMATION-TOPS-WELL     : Well Name
LOC.                TRAINING-BASIN          : Location
SRVC.               DRAKE AI SYSTEM         : Service Company
DATE.               2025-05-16              : Creation Date
NULL.               -999.25                 : Null value

~Curve Information
#MNEM.UNIT          API Code                Description
DEPT.FT             00 000 00 00            : Depth
GR.API              00 001 00 00            : Gamma Ray
RHOB.G/C3           00 002 00 00            : Bulk Density
NPHI.V/V            00 003 00 00            : Neutron Porosity
RESD.OHM            00 004 00 00            : Deep Resistivity

~Parameter Information
#PARAM.UNIT         Value                   Description
STRT.FT             6534.0                  : Start Depth
STOP.FT             8569.0                  : Stop Depth
STEP.FT             0.5                     : Step Size

~ASCII Log Data
# ...
6886.5  94.3  2.348  0.262  22.01
6887.0  104.5  2.363  0.261  13.61
6887.5  79.0  2.359  0.299  12.59
6888.0  93.3  2.325  0.283  17.39
6888.5  108.3  2.394  0.262  22.63
6889.0  71.6  2.423  0.296  21.40
6889.5  78.4  2.267  0.271  19.68
6890.0  77.8  2.376  0.237  18.97
6890.5  83.1  2.371  0.265  21.23
6891.0  82.5  2.342  0.251  24.02
6891.5  88.6  2.301  0.267  17.25
6892.0  75.2  2.437  0.315  20.71
6892.5  77.5  2.341  0.235  18.52
6893.0  88.6  2.437  0.274  14.79
6893.5  86.9  2.394  0.297  17.16
6894.0  95.5  2.353  0.318  21.94
6894.5  89.9  2.341  0.283  17.21
6895.0  94.3  2.359  0.240  17.81
6895.5  71.3  2.377  0.223  19.55
6896.0  80.4  2.359  0.224  21.35
6896.5  107.2  2.330  0.178  18.65
6897.0  89.7  2.405  0.263  14.43
6897.5  94.0  2.433  0.243  10.16
6898.0  88.3  2.349  0.248  20.96
6898.5  90.1  2.358  0.238  17.95
6899.0  82.2  2.388  0.252  15.57
6899.5  127.9  2.333  0.237  16.34
6900.0  80.2  2.245  0.248  22.03
6900.5  84.5  2.358  0.245  16.89
6901.0  55.9  2.404  0.260  18.28
6901.5  98.3  2.285  0.298  17.30
6902.0  78.4  2.242  0.268  19.42
6902.5  84.3  2.380  0.256  5.68
6903.0  78.7  2.300  0.215  23.82
6903.5  83.3  2.280  0.245  15.46
6904.0  81.6  2.291  0.293  19.58
6904.5  84.5  2.366  0.246  18.79
6905.0  84.4  2.415  0.309  12.44
6905.5  83.1  2.282  0.282  16.17
6906.0  83.0  2.361  0.217  23.50
6906.5  100.7  2.365  0.243  19.61
6907.0  95.6  2.360  0.266  22.50
6907.5  95.6  2.382  0.280  30.72
6908.0  76.2  2.349  0.244  19.47
6908.5  100.1  2.278  0.236  16.55
6909.0  98.6  2.362  0.286  15.37
6909.5  78.4  2.402  0.274  18.33
6910.0  103.3  2.337  0.301  19.84
6910.5  76.8  2.309  0.234  15.57
6911.0  62.9  2.390  0.210  25.65
6911.5  98.2  2.323  0.284  15.73
6912.0  83.6  2.337  0.269  15.20
6912.5  96.7  2.392  0.243  18.66
6913.0  75.9  2.379  0.220  18.83
6913.5  69.9  2.469  0.224  12.70
6914.0  99.8  2.330  0.233  17.92
6914.5  68.1  2.407  0.194  15.31
6915.0  66.3  2.307  0.283  18.80
6915.5  61.9  2.456  0.272  16.40
6916.0  51.5  2.423  0.234  24.61
6916.5  72.5  2.389  0.225  20.77
6917.0  59.0  2.283  0.249  19.52
6917.5  84.6  2.377  0.331  16.10
6918.0  58.2  2.316  0.261  12.45
6918.5  71.9  2.387  0.257  21.05
6919.0  113.0  2.359  0.222  14.03
6919.5  89.1  2.342  0.224  14.05
6920.0  85.6  2.448  0.298  18.17
6920.5  65.6  2.309  0.236  21.34
6921.0  82.1  2.324  0.261  13.09
6921.5  85.6  2.387  0.246  12.06
6922.0  65.7  2.321  0.242  23.09
6922.5  86.5  2.323  0.236  14.82
6923.0  99.3  2.397  0.272  16.36
6923.5  80.8  2.396  0.214  22.00
6924.0  82.6  2.448  0.280  22.58
6924.5  60.5  2.382  0.250  8.99
6925.0  68.2  2.405  0.206  14.41
6925.5  97.7  2.353  0.222  18.92
6926.0  77.1  2.339  0.237  20.71
6926.5  73.8  2.360  0.221  24.30
6927.0  76.7  2.323  0.214  20.17
6927.5  84.3  2.408  0.262  17.41
6928.0  71.1  2.311  0.301  13.46
6928.5  86.5  2.390  0.256  30.14
6929.0  68.7  2.454  0.230  20.45
6929.5  94.3  2.347  0.238  21.97
6930.0  72.3  2.415  0.245  24.00
6930.5  100.8  2.369  0.259  17.92
6931.0  84.9  2.355  0.309  15.48
6931.5  74.9  2.393  0.262  13.77
6932.0  95.9  2.384  0.285  17.97
6932.5  68.5  2.376  0.260  25.34
6933.0  78.4  2.352  0.256  17.40
6933.5  85.0  2.317  0.237  14.67
6934.0  83.5  2.434  0.239  15.34
6934.5  60.9  2.365  0.286  23.54
6935.0  74.0  2.393  0.277  20.90
6935.5  87.0  2.458  0.285  14.79
6936.0  69.2  2.401  0.256  11.02
6936.5  100.2  2.299  0.237  15.67
6937.0  90.9  2.296  0.290  13.69
6937.5  78.8  2.452  0.221  19.10
6938.0  82.4  2.268  0.229  26.49
6938.5  107.3  2.315  0.257  21.62
6939.0  96.2  2.385  0.257  11.27
6939.5  89.6  2.366  0.218  15.23
6940.0  68.0  2.277  0.244  18.53
6940.5  104.6  2.356  0.226  22.89
6941.0  97.6  2.451  0.334  22.13
6941.5  83.2  2.307  0.251  27.09
6942.0  78.4  2.273  0.295  14.16
6942.5  82.7  2.318  0.256  20.92
6943.0  70.6  2.356  0.267  14.19
6943.5  79.4  2.330  0.238  22.44
6944.0  94.2  2.402  0.276  12.01
6944.5  63.3  2.409  0.306  17.23
6945.0  81.2  2.419  0.273  15.65
6945.5  86.4  2.398  0.238  20.44
6946.0  86.2  2.339  0.228  12.66
6946.5  70.9  2.323  0.285  16.04
6947.0  70.8  2.353  0.221  18.00
6947.5  98.1  2.402  0.233  15.31
6948.0  70.3  2.307  0.274  20.65
6948.5  97.1  2.366  0.265  15.52
6949.0  79.2  2.402  0.212  13.46
6949.5  98.0  2.407  0.245  21.07
6950.0  79.9  2.382  0.254  13.82
6950.5  71.0  2.296  0.281  14.23
6951.0  95.3  2.339  0.249  21.18
6951.5  84.8  2.346  0.216  10.87
6952.0  102.4  2.256  0.309  19.06
6952.5  95.7  2.306  0.287  20.64
6953.0  82.2  2.421  0.229  13.47
6953.5  79.6  2.328  0.258  24.92
6954.0  85.3  2.276  0.287  18.78
6954.5  87.3  2.375  0.208  18.18
6955.0  74.4  2.409  0.266  9.74
6955.5  95.1  2.262  0.233  14.25
6956.0  80.2  2.341  0.226  21.47
6956.5  79.9  2.306  0.244  18.55
6957.0  78.5  2.310  0.245  17.89
6957.5  87.8  2.301  0.236  9.12
6958.0  76.7  2.362  0.202  18.06
6958.5  86.6  2.346  0.232  20.24
6959.0  118.2  2.420  0.242  12.27
6959.5  84.4  2.298  0.228  14.41
6960.0  79.8  2.425  0.241  18.41
6960.5  65.0  2.351  0.265  24.46
6961.0  85.6  2.355  0.284  12.09
6961.5  71.7  2.309  0.230  16.28
6962.0  80.5  2.371  0.250  18.61
6962.5  86.8  2.419  0.247  13.68
6963.0  64.2  2.306  0.284  20.99
6963.5  86.9  2.406  0.240  14.42
6964.0  88.7  2.316  0.262  17.55
6964.5  69.4  2.327  0.234  18.48
6965.0  80.3  2.363  0.205  20.01
6965.5  63.0  2.348  0.258  18.75
6966.0  103.9  2.345  0.201  16.85
6966.5  89.0  2.349  0.274  15.91
6967.0  82.8  2.451  0.248  17.60
6967.5  83.0  2.358  0.223  11.96
6968.0  98.6  2.296  0.240  15.83
6968.5  83.9  2.289  0.207  16.80
6969.0  89.0  2.335  0.217  17.98
6969.5  103.2  2.445  0.248  12.87
6970.0  80.8  2.479  0.316  18.71
6970.5  71.9  2.398  0.231  26.51
6971.0  75.1  2.289  0.277  11.08
6971.5  102.1  2.304  0.199  16.17
6972.0  86.1  2.291  0.263  16.47
6972.5  79.0  2.304  0.219  23.46
6973.0  96.7  2.230  0.285  19.64
6973.5  97.0  2.378  0.206  21.58
6974.0  79.3  2.319  0.292  18.37
6974.5  73.3  2.443  0.268  23.05
6975.0  66.2  2.371  0.176  21.33
6975.5  63.5  2.386  0.227  16.65
6976.0  81.8  2.260  0.235  21.03
6976.5  74.3  2.325  0.215  13.90
6977.0  107.3  2.289  0.271  22.70
6977.5  85.7  2.268  0.303  15.53
6978.0  61.7  2.379  0.295  15.31
6978.5  102.0  2.353  0.328  18.67
6979.0  86.9  2.273  0.189  25.76
6979.5  93.5  2.416  0.201  21.87
6980.0  93.2  2.381  0.245  25.60
6980.5  88.6  2.318  0.282  16.49
6981.0  91.3  2.378  0.275  19.25
6981.5  87.9  2.358  0.249  13.58
6982.0  71.7  2.319  0.258  14.36
6982.5  89.4  2.314  0.260  15.86
6983.0  97.3  2.385  0.331  10.16
6983.5  82.5  2.366  0.296  24.55
6984.0  91.6  2.275  0.254  13.75
6984.5  90.0  2.388  0.224  18.34
6985.0  106.8  2.287  0.186  21.54
6985.5  82.0  2.323  0.272  20.84
6986.0  81.5  2.392  0.247  19.44
6986.5  83.6  2.342  0.289  16.70
6987.0  83.8  2.395  0.278  19.30
6987.5  57.7  2.446  0.237  16.53
6988.0  77.3  2.314  0.293  17.27
6988.5  88.6  2.381  0.332  17.37
6989.0  84.9  2.394  0.210  19.12
6989.5  75.4  2.413  0.253  19.53
6990.0  77.0  2.357  0.254  17.42
6990.5  80.7  2.305  0.274  18.59
6991.0  75.4  2.273  0.307  12.36
6991.5  78.8  2.387  0.231  8.85
6992.0  78.5  2.401  0.265  21.97
6992.5  95.7  2.400  0.176  15.85
6993.0  97.2  2.383  0.266  12.45
6993.5  96.2  2.298  0.259  16.86
6994.0  90.1  2.398  0.268  17.56
6994.5  76.5  2.254  0.236  13.64
6995.0  96.5  2.389  0.295  15.21
6995.5  81.2  2.297  0.255  16.60
6996.0  85.3  2.294  0.207  29.32
6996.5  101.1  2.279  0.231  18.19
6997.0  86.0  2.257  0.271  18.01
6997.5  88.0  2.396  0.275  18.44
6998.0  68.0  2.282  0.235  11.22
6998.5  90.8  2.366  0.248  18.15
6999.0  73.2  2.426  0.236  13.57
6999.5  97.1  2.293  0.192  12.52
7000.0  82.8  2.382  0.249  17.13
7000.5  58.2  2.294  0.220  15.91
7001.0  80.7  2.322  0.224  19.31
7001.5  82.3  2.302  0.238  11.43
7002.0  90.8  2.313  0.223  18.41
7002.5  93.0  2.381  0.218  11.72
7003.0  81.1  2.355  0.275  7.55
7003.5  97.2  2.281  0.205  12.70
