~Version Information
VERS.                  2.0 : LAS version
WRAP.                  NO  : One line per depth step

~Well Information
#MNEM.UNIT          Data                    Description
WELL.               FORMATION-TOPS-WELL     : Well Name
LOC.                TRAINING-BASIN          : Location
SRVC.               DRAKE AI SYSTEM         : Service Company
DATE.               2025-05-16              : Creation Date
NULL.               -999.25                 : Null value

~Curve Information
#MNEM.UNIT          API Code                Description
DEPT.FT             00 000 00 00            : Depth
GR.API              00 001 00 00            : Gamma Ray
RHOB.G/C3           00 002 00 00            : Bulk Density
NPHI.V/V            00 003 00 00            : Neutron Porosity
RESD.OHM            00 004 00 00            : Deep Resistivity

~Parameter Information
#PARAM.UNIT         Value                   Description
STRT.FT             6534.0                  : Start Depth
STOP.FT             8569.0                  : Stop Depth
STEP.FT             0.5                     : Step Size

~ASCII Log Data
# ...
7356.5  69.5  2.355  0.185  14.97
7357.0  92.7  2.323  0.258  13.66
7357.5  80.3  2.289  0.270  18.24
7358.0  107.0  2.366  0.233  18.06
7358.5  77.4  2.269  0.277  17.07
7359.0  78.1  2.314  0.270  18.01
7359.5  94.7  2.326  0.226  13.64
7360.0  77.1  2.302  0.304  19.68
7360.5  103.1  2.308  0.233  19.40
7361.0  90.8  2.378  0.255  26.84
7361.5  81.4  2.437  0.198  19.58
7362.0  83.1  2.271  0.237  14.63
7362.5  119.2  2.328  0.259  17.99
7363.0  90.9  2.354  0.258  18.20
7363.5  86.8  2.355  0.256  20.68
7364.0  83.4  2.267  0.352  20.28
7364.5  97.4  2.355  0.294  30.61
7365.0  66.8  2.350  0.271  14.57
7365.5  82.8  2.375  0.262  9.15
7366.0  51.0  2.291  0.227  12.73
7366.5  78.6  2.347  0.250  18.51
7367.0  95.2  2.306  0.279  12.64
7367.5  101.6  2.364  0.255  18.39
7368.0  92.3  2.434  0.264  24.66
7368.5  92.7  2.390  0.271  16.73
7369.0  64.4  2.326  0.300  23.98
7369.5  76.9  2.363  0.225  19.76
7370.0  102.7  2.359  0.260  20.29
7370.5  78.7  2.284  0.277  20.29
7371.0  83.4  2.457  0.211  13.34
7371.5  75.3  2.379  0.216  17.59
7372.0  73.8  2.399  0.233  24.68
7372.5  79.4  2.310  0.219  18.85
7373.0  77.1  2.288  0.275  21.07
7373.5  96.5  2.324  0.278  20.58
7374.0  87.6  2.355  0.238  14.20
7374.5  97.2  2.341  0.239  17.97
7375.0  68.4  2.298  0.279  13.79
7375.5  99.7  2.387  0.303  17.82
7376.0  85.3  2.320  0.306  19.66
7376.5  107.1  2.421  0.270  20.30
7377.0  84.4  2.340  0.293  22.64
7377.5  67.1  2.332  0.276  19.91
7378.0  100.4  2.341  0.267  16.13
7378.5  83.4  2.345  0.276  16.62
7379.0  59.2  2.364  0.300  13.51
7379.5  86.7  2.292  0.295  20.77
7380.0  87.8  2.443  0.295  12.72
7380.5  97.9  2.388  0.276  19.79
7381.0  42.0  2.417  0.193  21.61
7381.5  98.8  2.289  0.239  15.47
7382.0  79.3  2.370  0.224  11.87
7382.5  108.1  2.397  0.209  16.50
7383.0  64.4  2.424  0.250  17.91
7383.5  91.5  2.263  0.240  15.86
7384.0  89.9  2.305  0.217  14.08
7384.5  79.9  2.333  0.276  23.28
7385.0  75.7  2.368  0.233  21.68
7385.5  80.5  2.293  0.252  20.67
7386.0  80.8  2.411  0.311  19.63
7386.5  70.0  2.300  0.234  20.93
7387.0  96.9  2.252  0.205  13.35
7387.5  71.9  2.358  0.292  21.15
7388.0  97.3  2.328  0.219  18.67
7388.5  63.5  2.353  0.259  15.05
7389.0  82.9  2.343  0.212  13.39
7389.5  83.1  2.420  0.266  20.93
7390.0  84.8  2.383  0.204  13.66
7390.5  96.5  2.345  0.275  15.21
7391.0  82.6  2.283  0.212  20.86
7391.5  79.5  2.327  0.279  22.07
7392.0  82.6  2.327  0.216  16.92
7392.5  96.8  2.274  0.272  17.88
7393.0  70.5  2.389  0.245  14.09
7393.5  72.8  2.281  0.226  11.85
7394.0  61.5  2.280  0.269  10.75
7394.5  109.3  2.313  0.231  20.07
7395.0  71.1  2.292  0.252  20.64
7395.5  62.4  2.330  0.265  15.13
7396.0  75.3  2.278  0.192  25.14
7396.5  77.7  2.331  0.303  22.33
7397.0  102.6  2.336  0.287  22.05
7397.5  79.4  2.369  0.201  20.17
7398.0  88.5  2.363  0.256  14.32
7398.5  63.5  2.339  0.259  17.30
7399.0  87.5  2.367  0.287  17.43
7399.5  65.2  2.336  0.239  7.56
7400.0  81.2  2.418  0.285  20.38
7400.5  75.9  2.313  0.321  19.89
7401.0  85.7  2.322  0.245  28.57
7401.5  92.6  2.350  0.245  17.42
7402.0  69.0  2.312  0.246  11.83
7402.5  71.4  2.414  0.227  24.58
7403.0  87.3  2.381  0.201  21.77
7403.5  93.2  2.385  0.251  16.94
7404.0  102.0  2.376  0.282  16.37
7404.5  79.3  2.386  0.298  19.67
7405.0  67.1  2.315  0.282  15.81
7405.5  87.2  2.375  0.247  18.15
7406.0  75.5  2.296  0.225  17.25
7406.5  73.9  2.303  0.287  17.95
7407.0  101.9  2.369  0.274  24.16
7407.5  92.4  2.348  0.231  17.83
7408.0  76.3  2.363  0.261  19.08
7408.5  84.8  2.321  0.233  20.75
7409.0  84.0  2.313  0.229  9.67
7409.5  87.0  2.332  0.225  20.08
7410.0  80.1  2.353  0.262  9.26
7410.5  62.2  2.333  0.273  14.60
7411.0  73.3  2.391  0.238  25.04
7411.5  78.6  2.334  0.249  20.98
7412.0  85.3  2.270  0.237  13.57
7412.5  72.0  2.371  0.225  15.50
7413.0  87.2  2.408  0.230  20.49
7413.5  80.4  2.373  0.185  23.91
7414.0  75.9  2.393  0.224  21.53
7414.5  69.8  2.308  0.287  16.76
7415.0  90.4  2.367  0.237  10.00
7415.5  90.1  2.379  0.302  16.18
7416.0  94.6  2.347  0.253  16.07
7416.5  91.6  2.288  0.242  23.07
7417.0  92.5  2.356  0.248  15.69
7417.5  89.6  2.419  0.221  14.03
7418.0  63.9  2.325  0.263  23.33
7418.5  81.7  2.457  0.178  14.47
7419.0  67.8  2.341  0.305  22.96
7419.5  101.4  2.368  0.248  20.34
7420.0  84.8  2.299  0.218  13.59
7420.5  100.2  2.242  0.257  19.52
7421.0  72.6  2.395  0.249  13.13
7421.5  83.9  2.380  0.253  12.10
7422.0  88.2  2.206  0.238  21.18
7422.5  81.0  2.339  0.263  18.39
7423.0  87.3  2.329  0.255  17.17
7423.5  102.8  2.394  0.241  18.96
7424.0  72.6  2.385  0.291  18.66
7424.5  53.3  2.302  0.221  19.23
7425.0  104.2  2.399  0.237  17.81
7425.5  75.5  2.348  0.357  22.63
7426.0  98.5  2.355  0.293  20.89
7426.5  92.8  2.373  0.234  16.97
7427.0  82.4  2.393  0.220  17.88
7427.5  89.6  2.262  0.245  18.40
7428.0  71.3  2.305  0.249  20.49
7428.5  86.0  2.282  0.275  14.82
7429.0  92.1  2.378  0.228  16.46
7429.5  75.7  2.463  0.228  15.27
7430.0  80.4  2.295  0.220  16.92
7430.5  88.8  2.308  0.214  15.96
7431.0  100.9  2.386  0.262  14.24
7431.5  85.0  2.408  0.206  22.83
7432.0  79.8  2.376  0.247  20.55
7432.5  83.2  2.366  0.202  18.50
7433.0  98.9  2.277  0.282  14.46
7433.5  77.3  2.333  0.181  19.27
7434.0  81.4  2.346  0.246  23.97
7434.5  77.4  2.437  0.237  22.36
7435.0  82.5  2.344  0.220  17.22
7435.5  87.6  2.344  0.291  18.78
7436.0  97.4  2.339  0.211  21.27
7436.5  59.5  2.296  0.252  20.22
7437.0  91.7  2.451  0.233  17.10
7437.5  74.3  2.308  0.297  17.58
7438.0  92.1  2.303  0.236  20.97
7438.5  99.9  2.367  0.261  13.79
7439.0  96.9  2.305  0.265  17.12
7439.5  86.9  2.371  0.289  20.98
7440.0  95.0  2.421  0.229  9.40
7440.5  73.7  2.290  0.248  20.18
7441.0  84.2  2.332  0.259  16.87
7441.5  103.2  2.325  0.227  17.92
7442.0  75.5  2.364  0.293  15.00
7442.5  87.4  2.389  0.240  15.21
7443.0  80.6  2.299  0.274  15.36
7443.5  82.7  2.352  0.239  17.77
7444.0  89.9  2.322  0.211  11.40
7444.5  81.8  2.366  0.247  13.06
7445.0  85.0  2.301  0.232  16.73
7445.5  78.9  2.344  0.254  22.31
7446.0  63.1  2.386  0.247  16.06
7446.5  87.3  2.347  0.272  17.49
7447.0  90.3  2.385  0.231  17.02
7447.5  101.6  2.341  0.275  11.21
7448.0  83.4  2.392  0.232  20.23
7448.5  68.3  2.295  0.253  19.16
7449.0  76.0  2.303  0.247  15.77
7449.5  91.5  2.434  0.237  17.06
7450.0  84.0  2.353  0.265  18.56
7450.5  88.4  2.432  0.271  19.51
7451.0  80.8  2.419  0.292  15.35
7451.5  107.4  2.364  0.207  15.57
7452.0  105.7  2.296  0.335  14.16
7452.5  73.8  2.383  0.274  13.29
7453.0  95.9  2.317  0.259  16.78
7453.5  88.6  2.320  0.270  16.48
7454.0  85.2  2.304  0.267  20.23
7454.5  74.7  2.337  0.294  14.91
7455.0  104.5  2.341  0.238  16.36
7455.5  99.0  2.317  0.200  20.75
7456.0  67.5  2.276  0.209  22.78
7456.5  101.6  2.344  0.247  16.59
7457.0  84.5  2.282  0.266  23.45
7457.5  77.8  2.376  0.234  16.49
7458.0  73.3  2.313  0.218  20.24
7458.5  96.3  2.259  0.211  20.73
7459.0  89.8  2.287  0.282  13.18
7459.5  74.5  2.351  0.307  23.48
7460.0  75.3  2.369  0.269  15.23
7460.5  80.3  2.364  0.232  17.23
7461.0  78.8  2.290  0.208  13.83
7461.5  91.3  2.396  0.236  21.77
7462.0  89.5  2.403  0.267  17.83
7462.5  77.4  2.393  0.279  16.75
7463.0  65.1  2.390  0.213  22.16
7463.5  69.0  2.357  0.241  10.85
7464.0  95.4  2.382  0.225  21.78
7464.5  73.1  2.421  0.321  19.90
7465.0  86.3  2.358  0.270  18.17
7465.5  63.8  2.339  0.256  18.13
7466.0  89.8  2.315  0.235  16.75
7466.5  108.0  2.284  0.218  12.97
7467.0  69.1  2.437  0.250  17.83
7467.5  91.6  2.366  0.239  15.40
7468.0  88.3  2.436  0.250  22.02
7468.5  96.0  2.392  0.278  16.19
7469.0  83.4  2.385  0.245  21.42
7469.5  88.3  2.436  0.198  14.20
7470.0  87.2  2.353  0.242  14.15
7470.5  91.9  2.329  0.271  11.78
7471.0  74.9  2.295  0.198  15.06
7471.5  87.3  2.309  0.193  16.08
7472.0  94.7  2.291  0.289  17.61
7472.5  99.0  2.339  0.256  12.87
7473.0  90.9  2.274  0.283  21.93
7473.5  71.4  2.268  0.230  11.27
