~Version Information
VERS.                  2.0 : LAS version
WRAP.                  NO  : One line per depth step

~Well Information
#MNEM.UNIT          Data                    Description
WELL.               FORMATION-TOPS-WELL     : Well Name
LOC.                TRAINING-BASIN          : Location
SRVC.               DRAKE AI SYSTEM         : Service Company
DATE.               2025-05-16              : Creation Date
NULL.               -999.25                 : Null value

~Curve Information
#MNEM.UNIT          API Code                Description
DEPT.FT             00 000 00 00            : Depth
GR.API              00 001 00 00            : Gamma Ray
RHOB.G/C3           00 002 00 00            : Bulk Density
NPHI.V/V            00 003 00 00            : Neutron Porosity
RESD.OHM            00 004 00 00            : Deep Resistivity

~Parameter Information
#PARAM.UNIT         Value                   Description
STRT.FT             6534.0                  : Start Depth
STOP.FT             8569.0                  : Stop Depth
STEP.FT             0.5                     : Step Size

~ASCII Log Data
# ...
8061.5  76.9  2.272  0.243  18.84
8062.0  76.3  2.333  0.215  19.00
8062.5  89.7  2.366  0.220  17.16
8063.0  94.7  2.428  0.223  17.34
8063.5  101.9  2.366  0.230  18.18
8064.0  74.5  2.301  0.301  14.53
8064.5  86.2  2.350  0.252  14.74
8065.0  71.1  2.335  0.258  15.86
8065.5  89.6  2.278  0.215  18.39
8066.0  72.8  2.352  0.278  12.14
8066.5  102.5  2.420  0.242  12.69
8067.0  75.7  2.415  0.257  11.84
8067.5  92.3  2.214  0.249  13.44
8068.0  86.8  2.341  0.228  18.32
8068.5  85.6  2.328  0.247  14.04
8069.0  63.3  2.336  0.258  18.99
8069.5  83.9  2.355  0.190  31.45
8070.0  73.2  2.284  0.235  21.52
8070.5  78.0  2.336  0.229  23.75
8071.0  90.9  2.337  0.229  13.40
8071.5  117.6  2.440  0.257  26.49
8072.0  107.8  2.286  0.216  24.89
8072.5  91.2  2.354  0.243  13.03
8073.0  89.6  2.259  0.240  13.06
8073.5  80.8  2.416  0.256  20.59
8074.0  73.0  2.330  0.326  15.58
8074.5  90.3  2.360  0.254  20.37
8075.0  79.7  2.334  0.282  18.03
8075.5  106.1  2.280  0.301  21.84
8076.0  110.8  2.361  0.203  23.75
8076.5  110.7  2.365  0.256  18.28
8077.0  77.4  2.302  0.248  20.67
8077.5  78.9  2.356  0.213  15.70
8078.0  70.5  2.343  0.261  18.13
8078.5  92.8  2.429  0.248  20.35
8079.0  74.7  2.396  0.194  12.18
8079.5  77.8  2.390  0.293  15.77
8080.0  74.3  2.362  0.264  21.97
8080.5  78.3  2.354  0.262  17.55
8081.0  104.8  2.323  0.266  6.42
8081.5  55.4  2.302  0.226  19.29
8082.0  91.3  2.400  0.290  17.94
8082.5  75.3  2.294  0.242  16.92
8083.0  113.1  2.345  0.274  20.74
8083.5  94.9  2.287  0.214  27.70
8084.0  72.8  2.335  0.286  19.13
8084.5  77.7  2.326  0.228  15.16
8085.0  78.2  2.381  0.251  16.55
8085.5  98.8  2.291  0.253  19.89
8086.0  105.3  2.220  0.305  12.61
8086.5  86.8  2.369  0.226  22.22
8087.0  83.3  2.399  0.264  14.30
8087.5  97.5  2.320  0.232  13.23
8088.0  85.3  2.354  0.319  15.05
8088.5  90.6  2.337  0.256  18.79
8089.0  87.7  2.331  0.302  16.71
8089.5  75.5  2.380  0.313  15.94
8090.0  101.4  2.375  0.206  20.29
8090.5  77.9  2.385  0.281  20.36
8091.0  108.3  2.350  0.253  15.92
8091.5  99.2  2.358  0.234  15.45
8092.0  87.3  2.352  0.219  19.85
8092.5  70.1  2.367  0.193  20.54
8093.0  105.1  2.342  0.281  22.09
8093.5  88.8  2.282  0.277  23.79
8094.0  95.7  2.356  0.262  15.91
8094.5  102.7  2.364  0.230  18.76
8095.0  71.6  2.360  0.213  15.97
8095.5  89.4  2.407  0.236  17.94
8096.0  80.5  2.383  0.245  16.78
8096.5  88.8  2.392  0.247  25.35
8097.0  90.5  2.293  0.261  20.72
8097.5  65.0  2.383  0.313  22.43
8098.0  82.3  2.342  0.261  23.94
8098.5  86.1  2.303  0.246  14.43
8099.0  70.0  2.402  0.263  20.05
8099.5  76.2  2.278  0.277  19.14
8100.0  86.5  2.269  0.287  17.83
8100.5  93.2  2.336  0.243  19.69
8101.0  83.2  2.486  0.201  19.43
8101.5  76.6  2.359  0.246  6.85
8102.0  72.9  2.398  0.194  25.21
8102.5  80.7  2.357  0.206  20.33
8103.0  75.4  2.308  0.233  12.07
8103.5  92.1  2.392  0.257  21.79
8104.0  88.0  2.292  0.251  20.08
8104.5  77.2  2.376  0.229  19.23
8105.0  87.7  2.243  0.247  23.23
8105.5  113.0  2.294  0.262  17.69
8106.0  94.0  2.432  0.265  16.16
8106.5  88.1  2.432  0.238  15.41
8107.0  93.6  2.304  0.211  15.09
8107.5  100.2  2.387  0.217  19.69
8108.0  66.7  2.398  0.173  22.47
8108.5  79.9  2.378  0.329  22.89
8109.0  77.6  2.347  0.202  15.69
8109.5  77.3  2.253  0.234  18.15
8110.0  110.4  2.433  0.275  19.84
8110.5  91.1  2.316  0.220  15.55
8111.0  98.4  2.397  0.267  12.34
8111.5  88.6  2.404  0.273  21.91
8112.0  118.0  2.333  0.301  20.02
8112.5  60.9  2.365  0.278  18.75
8113.0  79.2  2.359  0.197  17.34
8113.5  79.7  2.305  0.256  23.73
8114.0  80.8  2.348  0.285  20.01
8114.5  96.0  2.370  0.243  21.00
8115.0  86.1  2.423  0.276  15.52
8115.5  92.8  2.426  0.253  17.99
8116.0  97.5  2.293  0.269  22.97
8116.5  87.7  2.402  0.307  19.83
8117.0  93.7  2.247  0.259  17.79
8117.5  79.7  2.337  0.285  13.08
8118.0  77.3  2.290  0.263  24.92
8118.5  74.4  2.397  0.256  12.92
8119.0  86.0  2.374  0.236  20.86
8119.5  73.6  2.270  0.206  19.64
8120.0  72.2  2.310  0.309  24.97
8120.5  92.8  2.358  0.288  19.01
8121.0  73.8  2.345  0.224  19.86
8121.5  91.8  2.333  0.188  22.53
8122.0  81.1  2.336  0.247  17.55
8122.5  78.1  2.271  0.244  9.34
8123.0  95.9  2.422  0.244  23.16
8123.5  96.9  2.405  0.276  20.75
8124.0  87.6  2.389  0.240  21.70
8124.5  101.9  2.350  0.248  16.32
8125.0  64.8  2.367  0.276  19.09
8125.5  98.0  2.420  0.260  9.10
8126.0  75.4  2.322  0.252  25.03
8126.5  82.2  2.343  0.247  21.53
8127.0  89.3  2.251  0.238  20.59
8127.5  76.7  2.358  0.283  20.46
8128.0  84.5  2.352  0.228  20.53
8128.5  79.9  2.326  0.200  23.33
8129.0  82.3  2.378  0.220  22.46
8129.5  110.3  2.367  0.237  18.35
8130.0  62.7  2.417  0.270  14.88
8130.5  82.4  2.298  0.239  19.72
8131.0  89.7  2.322  0.215  16.09
8131.5  71.4  2.390  0.223  21.18
8132.0  83.0  2.343  0.240  17.51
8132.5  88.6  2.348  0.256  17.47
8133.0  89.3  2.465  0.352  11.45
8133.5  94.9  2.288  0.294  19.76
8134.0  98.2  2.345  0.276  22.06
8134.5  81.0  2.312  0.243  20.66
8135.0  86.1  2.399  0.281  19.00
8135.5  68.0  2.320  0.291  19.84
8136.0  84.4  2.367  0.262  20.01
8136.5  67.6  2.387  0.248  18.73
8137.0  85.1  2.387  0.200  19.01
8137.5  94.9  2.362  0.236  21.29
8138.0  90.0  2.348  0.229  13.19
8138.5  86.1  2.311  0.241  22.73
8139.0  94.7  2.349  0.272  24.85
8139.5  97.9  2.359  0.260  23.55
8140.0  75.1  2.376  0.221  5.46
8140.5  99.2  2.343  0.144  16.77
8141.0  75.9  2.441  0.293  9.18
8141.5  79.7  2.342  0.278  23.06
8142.0  93.7  2.409  0.265  24.63
8142.5  87.1  2.478  0.292  12.20
8143.0  84.7  2.440  0.239  19.22
8143.5  87.1  2.387  0.259  22.72
8144.0  100.8  2.336  0.229  13.39
8144.5  85.8  2.416  0.269  9.61
8145.0  93.9  2.297  0.233  16.19
8145.5  93.6  2.308  0.254  12.89
8146.0  110.1  2.370  0.268  15.64
8146.5  101.6  2.365  0.241  12.10
8147.0  93.5  2.361  0.234  15.92
8147.5  93.6  2.398  0.220  11.32
8148.0  87.0  2.327  0.229  25.66
8148.5  83.1  2.421  0.296  13.93
8149.0  84.9  2.385  0.222  17.32
8149.5  85.3  2.325  0.240  18.97
8150.0  79.6  2.411  0.265  13.67
8150.5  80.0  2.403  0.257  19.74
8151.0  84.2  2.367  0.211  15.57
8151.5  81.1  2.293  0.237  22.62
8152.0  82.7  2.278  0.264  14.90
8152.5  83.0  2.352  0.220  14.38
8153.0  95.9  2.284  0.270  28.81
8153.5  94.5  2.428  0.223  22.13
8154.0  97.3  2.458  0.312  19.27
8154.5  99.9  2.312  0.258  15.06
8155.0  76.4  2.437  0.263  12.44
8155.5  85.3  2.364  0.217  22.07
8156.0  88.6  2.346  0.259  15.59
8156.5  90.3  2.417  0.298  10.75
8157.0  91.2  2.392  0.270  22.43
8157.5  102.0  2.328  0.236  17.20
8158.0  78.4  2.377  0.250  13.62
8158.5  87.8  2.392  0.245  15.84
8159.0  70.4  2.469  0.259  13.67
8159.5  90.0  2.379  0.239  16.81
8160.0  65.9  2.370  0.201  19.90
8160.5  89.3  2.395  0.290  11.04
8161.0  99.9  2.319  0.260  20.15
8161.5  92.5  2.387  0.308  22.36
8162.0  72.2  2.300  0.267  16.17
8162.5  75.7  2.469  0.298  20.36
8163.0  92.4  2.363  0.255  19.38
8163.5  83.7  2.348  0.250  22.31
8164.0  58.9  2.445  0.268  13.24
8164.5  102.0  2.312  0.274  19.63
8165.0  87.2  2.318  0.274  24.17
8165.5  67.8  2.341  0.286  13.99
8166.0  87.8  2.328  0.284  9.51
8166.5  111.6  2.433  0.201  14.78
8167.0  83.2  2.298  0.224  26.44
8167.5  83.1  2.372  0.246  17.82
8168.0  77.3  2.305  0.270  16.73
8168.5  92.8  2.278  0.271  12.46
8169.0  88.0  2.241  0.216  18.26
8169.5  94.7  2.404  0.305  19.18
8170.0  76.3  2.300  0.272  18.96
8170.5  93.7  2.320  0.234  20.56
8171.0  70.9  2.368  0.174  15.67
8171.5  91.0  2.387  0.205  19.53
8172.0  75.5  2.305  0.228  19.08
8172.5  85.5  2.378  0.229  22.84
8173.0  66.3  2.432  0.285  19.87
8173.5  86.2  2.363  0.289  21.96
8174.0  84.8  2.317  0.280  23.03
8174.5  66.7  2.287  0.239  22.93
8175.0  105.8  2.358  0.297  12.15
8175.5  92.5  2.350  0.189  24.22
8176.0  71.9  2.395  0.181  17.25
8176.5  72.9  2.375  0.209  15.98
8177.0  82.0  2.322  0.256  20.44
8177.5  78.2  2.277  0.246  14.66
8178.0  83.9  2.280  0.255  18.49
8178.5  59.0  2.356  0.228  17.24
