~Version Information
VERS.                  2.0 : LAS version
WRAP.                  NO  : One line per depth step

~Well Information
#MNEM.UNIT          Data                    Description
WELL.               FORMATION-TOPS-WELL     : Well Name
LOC.                TRAINING-BASIN          : Location
SRVC.               DRAKE AI SYSTEM         : Service Company
DATE.               2025-05-16              : Creation Date
NULL.               -999.25                 : Null value

~Curve Information
#MNEM.UNIT          API Code                Description
DEPT.FT             00 000 00 00            : Depth
GR.API              00 001 00 00            : Gamma Ray
RHOB.G/C3           00 002 00 00            : Bulk Density
NPHI.V/V            00 003 00 00            : Neutron Porosity
RESD.OHM            00 004 00 00            : Deep Resistivity

~Parameter Information
#PARAM.UNIT         Value                   Description
STRT.FT             6534.0                  : Start Depth
STOP.FT             8569.0                  : Stop Depth
STEP.FT             0.5                     : Step Size

~ASCII Log Data
# ...
8179.0  105.3  2.348  0.233  19.91
8179.5  76.4  2.351  0.257  20.90
8180.0  99.5  2.321  0.242  17.07
8180.5  83.0  2.382  0.290  21.40
8181.0  114.4  2.375  0.262  12.97
8181.5  95.3  2.427  0.209  20.68
8182.0  97.7  2.362  0.236  16.33
8182.5  99.3  2.352  0.255  19.99
8183.0  86.0  2.372  0.234  19.09
8183.5  86.8  2.331  0.281  16.74
8184.0  83.5  2.396  0.221  16.25
8184.5  89.3  2.365  0.223  30.04
8185.0  85.9  2.369  0.241  19.74
8185.5  89.3  2.400  0.268  10.09
8186.0  75.5  2.433  0.283  14.52
8186.5  80.0  2.360  0.293  25.17
8187.0  91.7  2.334  0.246  17.95
8187.5  85.3  2.374  0.218  15.54
8188.0  90.8  2.321  0.253  8.88
8188.5  93.1  2.328  0.207  18.74
8189.0  95.7  2.434  0.278  19.58
8189.5  90.9  2.343  0.266  16.90
8190.0  82.2  2.299  0.253  16.21
8190.5  74.6  2.333  0.195  14.64
8191.0  98.9  2.317  0.225  19.49
8191.5  76.7  2.332  0.269  13.73
8192.0  85.0  2.267  0.260  20.13
8192.5  104.4  2.340  0.272  12.85
8193.0  75.5  2.319  0.217  17.69
8193.5  81.7  2.412  0.283  14.75
8194.0  86.4  2.401  0.260  28.39
8194.5  63.6  2.324  0.248  20.24
8195.0  72.2  2.275  0.228  16.91
8195.5  100.0  2.316  0.233  14.16
8196.0  90.4  2.396  0.284  12.92
8196.5  94.9  2.342  0.281  18.06
8197.0  88.1  2.287  0.277  21.74
8197.5  61.6  2.351  0.206  20.42
8198.0  72.8  2.401  0.251  17.69
8198.5  58.3  2.332  0.279  17.10
8199.0  92.7  2.323  0.246  22.51
8199.5  117.5  2.317  0.246  14.61
8200.0  66.2  2.334  0.309  27.58
8200.5  97.9  2.360  0.304  13.72
8201.0  98.1  2.415  0.232  12.27
8201.5  87.2  2.362  0.259  27.53
8202.0  68.6  2.391  0.242  18.81
8202.5  74.6  2.363  0.263  17.82
8203.0  60.8  2.304  0.211  21.89
8203.5  83.5  2.417  0.329  13.43
8204.0  87.6  2.306  0.277  22.86
8204.5  94.9  2.319  0.236  14.54
8205.0  82.5  2.384  0.251  17.36
8205.5  74.8  2.371  0.267  17.07
8206.0  76.7  2.298  0.250  12.23
8206.5  83.4  2.284  0.271  20.98
8207.0  88.6  2.396  0.276  23.34
8207.5  101.7  2.401  0.301  16.17
8208.0  109.6  2.356  0.287  14.25
8208.5  84.9  2.301  0.254  19.03
8209.0  72.1  2.350  0.238  12.66
8209.5  99.7  2.415  0.265  10.58
8210.0  115.7  2.366  0.263  17.55
8210.5  76.0  2.318  0.240  22.17
8211.0  79.0  2.390  0.293  24.67
8211.5  83.6  2.448  0.223  19.34
8212.0  85.3  2.456  0.329  18.52
8212.5  76.9  2.376  0.229  19.68
8213.0  68.4  2.347  0.246  16.96
8213.5  92.3  2.275  0.287  12.70
8214.0  83.4  2.313  0.250  14.80
8214.5  98.5  2.414  0.224  15.25
8215.0  91.5  2.389  0.288  18.51
8215.5  97.2  2.359  0.253  22.59
8216.0  85.8  2.309  0.248  28.77
8216.5  93.4  2.388  0.259  10.39
8217.0  76.3  2.381  0.249  13.47
8217.5  91.0  2.376  0.245  22.06
8218.0  97.1  2.312  0.242  26.88
8218.5  100.9  2.316  0.266  22.85
8219.0  81.5  2.285  0.242  15.74
8219.5  92.2  2.240  0.249  21.66
8220.0  100.7  2.323  0.274  18.20
8220.5  66.3  2.361  0.226  11.80
8221.0  80.7  2.327  0.246  14.27
8221.5  92.0  2.406  0.259  20.89
8222.0  81.6  2.285  0.261  18.94
8222.5  77.2  2.416  0.207  15.83
8223.0  90.3  2.392  0.252  16.70
8223.5  79.4  2.288  0.229  14.86
8224.0  86.0  2.479  0.240  16.11
8224.5  66.5  2.339  0.238  13.37
8225.0  79.5  2.300  0.243  16.83
8225.5  88.5  2.302  0.228  18.23
8226.0  83.9  2.326  0.251  16.57
8226.5  84.6  2.332  0.256  15.66
8227.0  88.9  2.321  0.294  15.04
8227.5  98.3  2.365  0.211  20.89
8228.0  82.2  2.412  0.258  13.52
8228.5  84.9  2.317  0.205  11.27
8229.0  86.0  2.363  0.229  14.30
8229.5  79.4  2.404  0.204  12.96
8230.0  75.7  2.324  0.266  20.87
8230.5  95.3  2.315  0.235  19.41
8231.0  71.2  2.359  0.240  11.06
8231.5  92.3  2.190  0.241  21.65
8232.0  82.6  2.347  0.215  14.36
8232.5  81.1  2.452  0.262  12.97
8233.0  89.0  2.328  0.258  12.77
8233.5  90.8  2.433  0.227  11.50
8234.0  72.7  2.370  0.265  18.27
8234.5  84.7  2.339  0.279  27.51
8235.0  79.8  2.362  0.255  14.41
8235.5  76.2  2.372  0.254  18.26
8236.0  60.0  2.318  0.219  17.85
8236.5  95.3  2.277  0.271  17.73
8237.0  95.8  2.336  0.237  22.49
8237.5  71.1  2.315  0.217  22.01
8238.0  83.8  2.381  0.243  13.00
8238.5  70.4  2.384  0.248  19.25
8239.0  80.8  2.328  0.282  12.98
8239.5  77.4  2.376  0.264  19.34
8240.0  101.3  2.371  0.208  9.45
8240.5  68.6  2.238  0.249  18.57
8241.0  63.6  2.398  0.304  16.20
8241.5  80.8  2.282  0.269  23.36
8242.0  81.6  2.338  0.257  15.60
8242.5  108.6  2.430  0.258  17.48
8243.0  75.9  2.392  0.234  25.16
8243.5  102.7  2.284  0.303  20.71
8244.0  91.1  2.353  0.265  19.34
8244.5  104.9  2.352  0.261  16.56
8245.0  88.4  2.364  0.254  17.43
8245.5  65.7  2.282  0.266  11.84
8246.0  73.9  2.459  0.227  13.63
8246.5  91.6  2.372  0.259  16.60
8247.0  74.4  2.356  0.242  21.10
8247.5  113.7  2.397  0.187  21.80
8248.0  63.1  2.341  0.239  12.54
8248.5  77.5  2.381  0.221  13.03
8249.0  90.7  2.313  0.234  17.48
8249.5  85.3  2.317  0.266  18.52
8250.0  79.4  2.378  0.231  17.91
8250.5  102.4  2.350  0.252  17.13
8251.0  85.9  2.348  0.212  15.59
8251.5  97.9  2.368  0.280  18.86
8252.0  80.0  2.292  0.300  12.17
8252.5  97.5  2.219  0.277  26.55
8253.0  87.8  2.337  0.295  21.78
8253.5  65.6  2.282  0.244  14.54
8254.0  70.5  2.368  0.288  9.41
8254.5  98.6  2.405  0.298  15.56
8255.0  85.0  2.340  0.251  19.87
8255.5  98.7  2.279  0.236  22.63
8256.0  93.7  2.344  0.228  19.28
8256.5  71.6  2.307  0.255  19.93
8257.0  70.7  2.407  0.177  17.51
8257.5  83.8  2.350  0.303  18.57
8258.0  87.0  2.410  0.273  20.21
8258.5  76.7  2.309  0.264  18.18
8259.0  91.1  2.349  0.302  15.54
8259.5  82.4  2.312  0.278  18.45
8260.0  75.9  2.374  0.216  17.28
8260.5  88.1  2.335  0.234  15.77
8261.0  77.3  2.314  0.265  13.65
8261.5  67.6  2.279  0.280  18.89
8262.0  103.9  2.392  0.260  18.78
8262.5  61.4  2.381  0.244  17.35
8263.0  65.1  2.322  0.211  19.24
8263.5  95.0  2.312  0.210  12.69
8264.0  88.2  2.374  0.227  17.88
8264.5  78.2  2.413  0.241  18.00
8265.0  108.3  2.171  0.248  20.94
8265.5  80.3  2.407  0.193  21.25
8266.0  83.7  2.366  0.268  15.52
8266.5  85.2  2.375  0.312  14.05
8267.0  92.3  2.328  0.287  19.01
8267.5  93.3  2.300  0.282  13.12
8268.0  101.3  2.366  0.252  18.21
8268.5  79.4  2.268  0.263  19.65
8269.0  84.4  2.415  0.283  19.93
8269.5  81.4  2.375  0.192  21.71
8270.0  69.1  2.299  0.275  18.74
8270.5  81.0  2.380  0.245  19.34
8271.0  89.0  2.275  0.248  19.83
8271.5  86.4  2.381  0.210  9.52
8272.0  102.1  2.389  0.225  21.75
8272.5  87.4  2.353  0.262  15.85
8273.0  73.1  2.379  0.246  16.35
8273.5  78.8  2.301  0.225  19.46
8274.0  75.2  2.224  0.261  21.53
8274.5  77.8  2.386  0.237  17.77
8275.0  83.9  2.400  0.213  18.13
8275.5  94.1  2.413  0.318  14.65
8276.0  95.4  2.342  0.232  15.15
8276.5  74.0  2.299  0.288  11.43
8277.0  90.0  2.228  0.213  20.11
8277.5  84.2  2.516  0.260  14.76
8278.0  80.8  2.384  0.264  23.24
8278.5  77.0  2.371  0.287  25.28
8279.0  76.2  2.317  0.241  13.31
8279.5  78.6  2.360  0.254  18.70
8280.0  97.5  2.360  0.237  22.32
8280.5  96.3  2.329  0.282  28.56
8281.0  95.0  2.367  0.204  26.68
8281.5  57.7  2.350  0.244  17.50
8282.0  99.9  2.430  0.257  14.07
8282.5  88.6  2.267  0.287  8.38
8283.0  95.4  2.329  0.204  13.90
8283.5  82.9  2.354  0.221  20.90
8284.0  87.2  2.353  0.267  16.99
8284.5  101.0  2.213  0.235  23.73
8285.0  97.2  2.340  0.304  20.31
8285.5  73.9  2.377  0.246  20.79
8286.0  75.5  2.211  0.204  15.01
8286.5  90.4  2.415  0.284  16.34
8287.0  87.4  2.385  0.284  19.94
8287.5  74.3  2.462  0.213  15.53
8288.0  84.3  2.304  0.231  17.36
8288.5  76.8  2.306  0.226  23.93
8289.0  92.0  2.290  0.247  13.25
8289.5  112.3  2.333  0.254  13.21
8290.0  74.1  2.332  0.299  18.80
8290.5  90.3  2.248  0.200  25.09
8291.0  90.1  2.299  0.250  18.74
8291.5  82.6  2.389  0.214  19.23
8292.0  80.5  2.311  0.276  19.51
8292.5  80.9  2.429  0.238  17.38
8293.0  67.4  2.276  0.245  13.79
8293.5  61.3  2.381  0.276  14.16
8294.0  74.7  2.308  0.227  14.11
8294.5  77.8  2.363  0.284  18.66
8295.0  94.0  2.353  0.269  14.77
8295.5  71.8  2.377  0.262  25.50
8296.0  78.7  2.247  0.200  16.99
