~Version Information
VERS.                  2.0 : LAS version
WRAP.                  NO  : One line per depth step

~Well Information
#MNEM.UNIT          Data                    Description
WELL.               FORMATION-TOPS-WELL     : Well Name
LOC.                TRAINING-BASIN          : Location
SRVC.               DRAKE AI SYSTEM         : Service Company
DATE.               2025-05-16              : Creation Date
NULL.               -999.25                 : Null value

~Curve Information
#MNEM.UNIT          API Code                Description
DEPT.FT             00 000 00 00            : Depth
GR.API              00 001 00 00            : Gamma Ray
RHOB.G/C3           00 002 00 00            : Bulk Density
NPHI.V/V            00 003 00 00            : Neutron Porosity
RESD.OHM            00 004 00 00            : Deep Resistivity

~Parameter Information
#PARAM.UNIT         Value                   Description
STRT.FT             6534.0                  : Start Depth
STOP.FT             8569.0                  : Stop Depth
STEP.FT             0.5                     : Step Size

~ASCII Log Data
# ...
7121.5  89.2  2.385  0.200  15.37
7122.0  83.1  2.247  0.247  20.21
7122.5  77.7  2.318  0.205  17.43
7123.0  70.0  2.305  0.264  19.95
7123.5  89.2  2.378  0.246  12.71
7124.0  97.8  2.424  0.281  19.80
7124.5  73.9  2.351  0.227  18.98
7125.0  90.4  2.342  0.277  18.71
7125.5  62.4  2.276  0.231  22.39
7126.0  77.1  2.283  0.231  17.53
7126.5  93.8  2.350  0.226  16.96
7127.0  71.6  2.422  0.239  18.36
7127.5  77.7  2.325  0.247  20.89
7128.0  102.0  2.321  0.220  15.65
7128.5  76.2  2.295  0.235  16.44
7129.0  74.8  2.286  0.277  21.02
7129.5  91.9  2.398  0.252  20.50
7130.0  108.5  2.337  0.291  18.34
7130.5  82.1  2.391  0.267  10.66
7131.0  94.2  2.258  0.260  16.37
7131.5  101.1  2.332  0.251  18.09
7132.0  88.9  2.425  0.271  17.04
7132.5  81.8  2.292  0.251  12.69
7133.0  74.5  2.299  0.263  14.76
7133.5  67.9  2.344  0.270  13.52
7134.0  98.3  2.350  0.229  22.84
7134.5  87.2  2.364  0.308  21.60
7135.0  101.0  2.344  0.271  20.31
7135.5  96.9  2.353  0.210  19.72
7136.0  77.6  2.350  0.291  15.95
7136.5  70.8  2.304  0.215  9.03
7137.0  90.0  2.328  0.278  19.01
7137.5  77.4  2.283  0.214  19.61
7138.0  89.5  2.359  0.212  15.40
7138.5  76.2  2.306  0.253  8.56
7139.0  74.7  2.377  0.291  13.43
7139.5  83.3  2.376  0.252  11.99
7140.0  96.2  2.245  0.236  19.88
7140.5  88.7  2.392  0.216  28.03
7141.0  99.1  2.384  0.284  10.25
7141.5  70.2  2.355  0.265  15.14
7142.0  72.3  2.240  0.234  15.64
7142.5  83.9  2.256  0.245  18.56
7143.0  111.0  2.390  0.286  21.16
7143.5  93.1  2.324  0.293  19.31
7144.0  72.2  2.365  0.266  15.70
7144.5  84.1  2.209  0.248  17.32
7145.0  87.6  2.374  0.232  17.93
7145.5  78.2  2.313  0.231  15.70
7146.0  92.4  2.312  0.300  14.08
7146.5  83.1  2.399  0.255  15.08
7147.0  81.4  2.332  0.260  16.10
7147.5  100.1  2.368  0.302  17.29
7148.0  64.5  2.307  0.191  19.07
7148.5  73.5  2.447  0.308  25.17
7149.0  75.2  2.309  0.222  24.58
7149.5  74.8  2.389  0.208  15.89
7150.0  76.3  2.324  0.213  14.97
7150.5  90.9  2.357  0.205  16.21
7151.0  98.2  2.340  0.275  14.00
7151.5  96.0  2.337  0.268  22.28
7152.0  72.8  2.334  0.281  17.96
7152.5  83.7  2.305  0.219  14.98
7153.0  90.4  2.369  0.267  13.78
7153.5  87.9  2.361  0.261  24.45
7154.0  100.7  2.347  0.244  26.03
7154.5  76.9  2.416  0.283  20.62
7155.0  86.9  2.391  0.228  12.33
7155.5  80.3  2.315  0.182  15.52
7156.0  88.0  2.356  0.282  19.40
7156.5  72.1  2.403  0.273  17.71
7157.0  73.9  2.344  0.235  20.56
7157.5  76.2  2.351  0.250  15.62
7158.0  78.2  2.330  0.248  18.19
7158.5  103.6  2.326  0.239  19.45
7159.0  99.1  2.393  0.261  11.35
7159.5  82.4  2.361  0.253  19.69
7160.0  87.1  2.382  0.241  22.30
7160.5  65.9  2.358  0.247  20.83
7161.0  82.8  2.327  0.207  18.31
7161.5  86.9  2.297  0.229  13.88
7162.0  98.7  2.333  0.230  17.35
7162.5  88.9  2.378  0.247  11.07
7163.0  90.2  2.372  0.253  20.84
7163.5  88.6  2.270  0.272  24.94
7164.0  88.2  2.440  0.244  12.88
7164.5  68.2  2.318  0.231  15.32
7165.0  80.0  2.345  0.278  16.55
7165.5  102.2  2.361  0.270  24.08
7166.0  94.9  2.433  0.247  19.56
7166.5  90.9  2.308  0.222  23.34
7167.0  85.8  2.309  0.290  17.05
7167.5  92.9  2.301  0.232  21.79
7168.0  73.7  2.361  0.263  19.71
7168.5  66.0  2.378  0.224  18.91
7169.0  80.4  2.359  0.268  17.07
7169.5  91.5  2.442  0.240  15.62
7170.0  86.3  2.333  0.268  13.35
7170.5  97.2  2.361  0.238  22.13
7171.0  89.2  2.261  0.301  14.19
7171.5  85.5  2.231  0.249  12.73
7172.0  100.9  2.376  0.256  20.41
7172.5  98.6  2.376  0.268  17.28
7173.0  83.8  2.292  0.299  7.97
7173.5  71.8  2.347  0.243  21.26
7174.0  74.1  2.380  0.224  14.27
7174.5  83.1  2.335  0.249  16.01
7175.0  80.6  2.309  0.201  21.70
7175.5  104.9  2.346  0.208  13.08
7176.0  64.8  2.450  0.308  16.18
7176.5  84.2  2.390  0.254  13.82
7177.0  72.2  2.328  0.251  26.14
7177.5  86.4  2.395  0.228  17.35
7178.0  89.6  2.364  0.199  22.13
7178.5  80.1  2.354  0.285  22.19
7179.0  91.4  2.367  0.256  26.33
7179.5  82.6  2.367  0.218  11.85
7180.0  82.8  2.284  0.234  20.57
7180.5  80.0  2.363  0.229  18.77
7181.0  92.8  2.333  0.262  26.86
7181.5  86.7  2.348  0.292  14.58
7182.0  103.9  2.303  0.210  24.22
7182.5  100.2  2.369  0.259  15.54
7183.0  91.6  2.360  0.237  16.48
7183.5  59.1  2.349  0.216  19.52
7184.0  67.2  2.363  0.223  18.03
7184.5  96.8  2.368  0.301  17.97
7185.0  79.3  2.396  0.202  18.61
7185.5  87.8  2.278  0.244  19.78
7186.0  77.4  2.434  0.247  18.01
7186.5  91.2  2.353  0.234  17.79
7187.0  96.5  2.331  0.274  18.77
7187.5  70.5  2.395  0.269  20.84
7188.0  75.2  2.347  0.282  19.23
7188.5  65.0  2.433  0.300  20.94
7189.0  87.8  2.360  0.284  15.38
7189.5  65.0  2.399  0.264  17.00
7190.0  80.6  2.352  0.198  10.98
7190.5  91.2  2.333  0.234  18.11
7191.0  109.7  2.385  0.267  25.00
7191.5  89.4  2.425  0.266  22.69
7192.0  100.0  2.411  0.214  15.52
7192.5  88.1  2.383  0.235  17.36
7193.0  88.7  2.392  0.272  23.13
7193.5  82.5  2.401  0.241  13.85
7194.0  80.4  2.402  0.259  20.53
7194.5  99.1  2.406  0.259  14.73
7195.0  89.5  2.252  0.246  20.83
7195.5  89.0  2.316  0.272  18.08
7196.0  77.7  2.389  0.235  21.89
7196.5  80.9  2.387  0.248  22.57
7197.0  109.8  2.250  0.246  18.26
7197.5  84.2  2.337  0.212  18.04
7198.0  100.9  2.270  0.196  15.06
7198.5  78.8  2.286  0.235  14.95
7199.0  94.6  2.353  0.189  18.72
7199.5  88.5  2.318  0.296  17.71
7200.0  80.2  2.325  0.274  16.10
7200.5  92.8  2.328  0.256  16.31
7201.0  66.5  2.362  0.258  21.99
7201.5  91.9  2.391  0.207  20.32
7202.0  94.4  2.303  0.325  19.33
7202.5  88.3  2.341  0.280  16.39
7203.0  100.7  2.365  0.248  19.63
7203.5  84.2  2.335  0.266  14.58
7204.0  83.2  2.387  0.212  19.91
7204.5  89.3  2.352  0.237  20.94
7205.0  95.4  2.410  0.256  23.50
7205.5  91.8  2.297  0.212  18.39
7206.0  82.3  2.475  0.215  20.15
7206.5  73.1  2.320  0.224  8.38
7207.0  93.0  2.420  0.239  14.88
7207.5  75.5  2.407  0.290  22.10
7208.0  75.2  2.434  0.262  17.45
7208.5  77.1  2.390  0.262  14.11
7209.0  85.7  2.315  0.202  17.75
7209.5  75.4  2.202  0.235  17.07
7210.0  71.4  2.313  0.209  22.14
7210.5  77.1  2.404  0.258  12.19
7211.0  82.8  2.362  0.236  24.50
7211.5  90.5  2.299  0.287  10.64
7212.0  85.8  2.289  0.246  23.53
7212.5  72.0  2.292  0.226  18.15
7213.0  87.7  2.326  0.285  15.54
7213.5  88.9  2.342  0.249  17.00
7214.0  79.5  2.427  0.216  22.90
7214.5  75.4  2.364  0.200  19.98
7215.0  75.4  2.320  0.246  15.84
7215.5  78.6  2.369  0.263  23.53
7216.0  111.6  2.310  0.254  20.43
7216.5  74.3  2.425  0.230  17.20
7217.0  88.2  2.275  0.250  16.07
7217.5  76.4  2.379  0.221  25.43
7218.0  78.9  2.283  0.223  25.78
7218.5  76.5  2.329  0.193  19.56
7219.0  94.6  2.382  0.241  16.37
7219.5  89.5  2.372  0.269  14.64
7220.0  83.4  2.339  0.245  25.88
7220.5  91.0  2.355  0.247  12.84
7221.0  93.9  2.272  0.300  18.87
7221.5  74.8  2.275  0.304  16.93
7222.0  91.6  2.377  0.232  20.81
7222.5  76.4  2.439  0.255  21.76
7223.0  95.1  2.392  0.316  16.33
7223.5  93.9  2.363  0.213  17.40
7224.0  89.8  2.400  0.201  22.79
7224.5  82.5  2.357  0.228  16.44
7225.0  78.7  2.395  0.236  17.37
7225.5  81.8  2.370  0.294  20.26
7226.0  94.2  2.356  0.222  23.80
7226.5  76.8  2.271  0.217  14.55
7227.0  85.6  2.368  0.344  18.93
7227.5  64.0  2.368  0.235  18.23
7228.0  88.1  2.388  0.261  14.84
7228.5  72.6  2.344  0.260  18.95
7229.0  69.2  2.366  0.276  20.26
7229.5  91.2  2.325  0.254  17.71
7230.0  87.5  2.429  0.223  20.34
7230.5  79.7  2.325  0.255  17.12
7231.0  81.4  2.322  0.266  14.19
7231.5  112.3  2.352  0.247  20.43
7232.0  82.7  2.266  0.244  19.02
7232.5  82.6  2.306  0.284  13.20
7233.0  92.8  2.269  0.218  19.41
7233.5  86.0  2.433  0.273  20.98
7234.0  96.8  2.370  0.259  20.84
7234.5  88.3  2.323  0.272  24.36
7235.0  94.1  2.301  0.238  23.82
7235.5  90.3  2.454  0.273  14.47
7236.0  92.7  2.269  0.261  23.54
7236.5  84.5  2.351  0.234  16.75
7237.0  87.7  2.416  0.203  21.46
7237.5  81.7  2.319  0.185  17.81
7238.0  92.3  2.300  0.246  18.26
7238.5  68.8  2.284  0.225  22.99
