~Version Information
VERS.                  2.0 : LAS version
WRAP.                  NO  : One line per depth step

~Well Information
#MNEM.UNIT          Data                    Description
WELL.               FORMATION-TOPS-WELL     : Well Name
LOC.                TRAINING-BASIN          : Location
SRVC.               DRAKE AI SYSTEM         : Service Company
DATE.               2025-05-16              : Creation Date
NULL.               -999.25                 : Null value

~Curve Information
#MNEM.UNIT          API Code                Description
DEPT.FT             00 000 00 00            : Depth
GR.API              00 001 00 00            : Gamma Ray
RHOB.G/C3           00 002 00 00            : Bulk Density
NPHI.V/V            00 003 00 00            : Neutron Porosity
RESD.OHM            00 004 00 00            : Deep Resistivity

~Parameter Information
#PARAM.UNIT         Value                   Description
STRT.FT             6534.0                  : Start Depth
STOP.FT             8569.0                  : Stop Depth
STEP.FT             0.5                     : Step Size

~ASCII Log Data
# ...
7591.5  86.8  2.380  0.229  16.59
7592.0  88.6  2.327  0.211  17.14
7592.5  86.1  2.393  0.239  24.74
7593.0  90.8  2.345  0.213  23.55
7593.5  91.4  2.301  0.257  24.43
7594.0  86.6  2.340  0.286  16.66
7594.5  91.2  2.416  0.237  18.78
7595.0  76.8  2.373  0.228  9.47
7595.5  81.3  2.349  0.268  19.43
7596.0  87.8  2.274  0.222  21.37
7596.5  108.1  2.333  0.216  17.53
7597.0  91.3  2.389  0.237  14.68
7597.5  83.4  2.395  0.253  16.92
7598.0  82.4  2.267  0.263  24.89
7598.5  93.9  2.297  0.272  17.82
7599.0  83.8  2.337  0.269  17.28
7599.5  92.6  2.331  0.295  15.18
7600.0  91.1  2.381  0.289  10.55
7600.5  70.0  2.272  0.274  21.27
7601.0  90.7  2.315  0.294  17.57
7601.5  90.6  2.391  0.170  13.09
7602.0  94.6  2.396  0.245  18.32
7602.5  75.0  2.277  0.250  11.80
7603.0  98.1  2.380  0.243  10.18
7603.5  83.0  2.279  0.246  15.14
7604.0  108.9  2.380  0.253  16.59
7604.5  106.0  2.385  0.276  14.19
7605.0  77.7  2.358  0.275  14.79
7605.5  68.6  2.301  0.279  16.85
7606.0  93.4  2.251  0.296  15.37
7606.5  75.2  2.422  0.284  16.77
7607.0  98.8  2.277  0.228  17.57
7607.5  91.4  2.317  0.232  13.61
7608.0  67.6  2.337  0.225  14.86
7608.5  94.4  2.352  0.240  19.89
7609.0  86.6  2.377  0.284  13.07
7609.5  89.9  2.371  0.233  19.16
7610.0  103.3  2.361  0.266  13.95
7610.5  83.4  2.340  0.218  14.40
7611.0  94.1  2.305  0.243  20.37
7611.5  77.8  2.400  0.249  14.00
7612.0  78.1  2.369  0.305  20.69
7612.5  82.4  2.386  0.186  23.15
7613.0  77.6  2.339  0.268  15.99
7613.5  91.8  2.386  0.290  26.83
7614.0  69.1  2.228  0.223  17.87
7614.5  95.0  2.404  0.226  21.79
7615.0  75.9  2.340  0.215  15.92
7615.5  89.5  2.327  0.289  17.02
7616.0  70.8  2.323  0.233  22.73
7616.5  90.7  2.318  0.296  20.03
7617.0  98.0  2.351  0.285  10.50
7617.5  85.1  2.361  0.268  19.05
7618.0  103.6  2.430  0.251  26.53
7618.5  83.3  2.352  0.227  12.51
7619.0  89.9  2.292  0.269  24.41
7619.5  73.9  2.463  0.237  19.68
7620.0  90.3  2.348  0.281  14.83
7620.5  78.2  2.342  0.228  19.82
7621.0  76.4  2.323  0.220  23.29
7621.5  104.0  2.280  0.265  19.14
7622.0  69.8  2.411  0.226  26.50
7622.5  83.6  2.290  0.199  21.65
7623.0  93.6  2.400  0.245  9.06
7623.5  87.8  2.336  0.295  23.92
7624.0  62.8  2.379  0.266  22.96
7624.5  92.2  2.335  0.271  15.86
7625.0  68.5  2.366  0.249  25.24
7625.5  79.7  2.350  0.214  16.84
7626.0  82.1  2.352  0.316  20.12
7626.5  50.0  2.413  0.287  19.19
7627.0  83.7  2.351  0.233  13.56
7627.5  93.0  2.295  0.300  13.13
7628.0  83.0  2.270  0.258  14.67
7628.5  87.2  2.322  0.259  11.60
7629.0  112.1  2.382  0.251  15.11
7629.5  98.5  2.380  0.234  16.17
7630.0  85.7  2.390  0.256  13.22
7630.5  116.0  2.371  0.228  11.40
7631.0  77.4  2.369  0.191  24.20
7631.5  91.2  2.312  0.252  19.16
7632.0  66.1  2.379  0.235  22.87
7632.5  89.8  2.425  0.263  20.18
7633.0  83.7  2.344  0.237  17.71
7633.5  85.7  2.383  0.247  20.18
7634.0  89.4  2.321  0.327  19.47
7634.5  88.4  2.403  0.276  23.89
7635.0  72.1  2.383  0.296  19.73
7635.5  80.4  2.357  0.239  15.86
7636.0  85.1  2.303  0.251  13.72
7636.5  67.8  2.368  0.227  18.58
7637.0  94.6  2.433  0.269  25.41
7637.5  107.6  2.356  0.231  12.70
7638.0  88.6  2.465  0.290  12.20
7638.5  78.7  2.286  0.325  14.51
7639.0  57.4  2.313  0.235  20.16
7639.5  66.7  2.315  0.253  20.63
7640.0  89.1  2.351  0.246  18.61
7640.5  100.1  2.397  0.280  21.08
7641.0  82.4  2.324  0.253  21.19
7641.5  67.2  2.351  0.310  21.18
7642.0  74.5  2.379  0.255  17.58
7642.5  78.1  2.357  0.210  22.59
7643.0  61.8  2.354  0.258  20.83
7643.5  81.3  2.347  0.232  24.53
7644.0  95.7  2.422  0.218  5.87
7644.5  64.8  2.311  0.254  18.39
7645.0  78.3  2.428  0.267  15.36
7645.5  60.7  2.321  0.258  13.26
7646.0  75.2  2.384  0.209  15.22
7646.5  83.2  2.379  0.232  18.59
7647.0  97.3  2.350  0.262  17.64
7647.5  90.5  2.353  0.236  10.40
7648.0  70.8  2.373  0.299  15.69
7648.5  86.1  2.340  0.261  18.75
7649.0  81.0  2.319  0.195  20.91
7649.5  84.8  2.407  0.250  20.05
7650.0  82.6  2.335  0.229  19.32
7650.5  88.8  2.353  0.253  20.39
7651.0  87.2  2.340  0.275  18.15
7651.5  95.4  2.365  0.193  23.35
7652.0  86.4  2.387  0.216  19.07
7652.5  105.3  2.315  0.238  16.15
7653.0  91.2  2.236  0.265  23.63
7653.5  102.7  2.460  0.293  15.95
7654.0  93.6  2.291  0.287  20.58
7654.5  76.9  2.363  0.210  17.88
7655.0  99.9  2.303  0.264  14.65
7655.5  99.2  2.348  0.260  12.27
7656.0  50.5  2.259  0.245  20.21
7656.5  78.4  2.451  0.269  15.70
7657.0  102.3  2.340  0.229  17.92
7657.5  97.7  2.343  0.241  19.34
7658.0  67.5  2.391  0.288  18.29
7658.5  95.3  2.315  0.269  10.39
7659.0  105.7  2.265  0.173  18.97
7659.5  92.3  2.417  0.252  18.91
7660.0  67.3  2.248  0.219  17.40
7660.5  75.6  2.362  0.300  19.12
7661.0  89.8  2.276  0.279  16.19
7661.5  82.4  2.370  0.242  18.08
7662.0  100.3  2.380  0.280  22.76
7662.5  93.8  2.342  0.233  20.29
7663.0  108.6  2.322  0.278  16.19
7663.5  97.2  2.311  0.260  13.89
7664.0  91.6  2.349  0.272  17.10
7664.5  81.2  2.329  0.206  15.16
7665.0  101.9  2.303  0.260  19.46
7665.5  85.1  2.335  0.226  15.48
7666.0  72.7  2.328  0.236  17.41
7666.5  85.6  2.489  0.241  12.87
7667.0  83.9  2.333  0.241  13.54
7667.5  73.1  2.324  0.236  15.39
7668.0  94.9  2.384  0.252  17.23
7668.5  83.3  2.445  0.257  12.17
7669.0  89.7  2.309  0.227  14.68
7669.5  75.6  2.342  0.239  24.61
7670.0  83.0  2.315  0.255  22.79
7670.5  94.3  2.411  0.291  22.37
7671.0  82.0  2.387  0.235  16.33
7671.5  80.6  2.383  0.284  19.32
7672.0  111.2  2.309  0.217  21.97
7672.5  88.8  2.356  0.226  23.34
7673.0  93.8  2.405  0.260  20.52
7673.5  94.0  2.430  0.266  18.91
7674.0  86.2  2.336  0.222  8.65
7674.5  91.3  2.378  0.217  16.22
7675.0  73.3  2.402  0.308  11.72
7675.5  102.4  2.364  0.255  20.89
7676.0  100.0  2.407  0.226  23.33
7676.5  87.3  2.253  0.267  21.72
7677.0  85.1  2.381  0.291  13.60
7677.5  70.1  2.354  0.287  8.45
7678.0  97.4  2.391  0.210  17.25
7678.5  81.9  2.459  0.230  15.40
7679.0  92.3  2.389  0.227  21.90
7679.5  67.7  2.270  0.259  11.06
7680.0  92.6  2.300  0.249  18.57
7680.5  82.9  2.386  0.215  25.97
7681.0  85.1  2.389  0.230  14.50
7681.5  68.0  2.437  0.231  12.31
7682.0  93.1  2.396  0.209  16.73
7682.5  77.6  2.303  0.288  22.67
7683.0  84.4  2.464  0.244  15.90
7683.5  94.7  2.334  0.237  17.74
7684.0  84.0  2.365  0.292  14.85
7684.5  108.8  2.317  0.208  13.10
7685.0  74.2  2.387  0.266  12.38
7685.5  87.9  2.427  0.294  20.59
7686.0  90.0  2.423  0.272  13.57
7686.5  72.8  2.353  0.315  16.16
7687.0  86.0  2.350  0.235  14.52
7687.5  82.7  2.389  0.240  16.18
7688.0  87.7  2.338  0.252  19.67
7688.5  90.4  2.402  0.256  14.41
7689.0  101.8  2.418  0.226  16.15
7689.5  88.5  2.370  0.273  21.42
7690.0  91.6  2.324  0.234  19.98
7690.5  103.0  2.348  0.233  20.80
7691.0  66.0  2.420  0.207  19.72
7691.5  81.9  2.500  0.295  20.41
7692.0  85.5  2.391  0.262  17.39
7692.5  66.3  2.321  0.240  13.18
7693.0  85.9  2.316  0.207  15.76
7693.5  56.7  2.353  0.294  19.88
7694.0  93.5  2.397  0.237  18.87
7694.5  67.3  2.286  0.240  17.35
7695.0  70.0  2.358  0.251  18.65
7695.5  91.3  2.383  0.283  23.04
7696.0  65.0  2.391  0.278  18.84
7696.5  109.6  2.355  0.245  23.38
7697.0  86.4  2.279  0.277  14.25
7697.5  83.8  2.426  0.260  13.53
7698.0  99.4  2.423  0.215  23.00
7698.5  84.0  2.359  0.228  19.73
7699.0  87.9  2.330  0.247  21.57
7699.5  83.1  2.342  0.236  20.17
7700.0  79.0  2.336  0.252  11.12
7700.5  89.5  2.361  0.250  14.72
7701.0  91.3  2.371  0.340  17.56
7701.5  69.7  2.287  0.240  11.68
7702.0  74.4  2.274  0.276  16.50
7702.5  77.1  2.338  0.228  19.51
7703.0  84.6  2.358  0.259  16.74
7703.5  89.1  2.283  0.218  20.82
7704.0  110.9  2.365  0.270  13.60
7704.5  88.3  2.404  0.236  18.91
7705.0  82.9  2.326  0.236  14.41
7705.5  76.4  2.399  0.245  12.86
7706.0  96.8  2.308  0.225  20.73
7706.5  84.9  2.373  0.316  20.57
7707.0  89.1  2.296  0.293  24.49
7707.5  85.0  2.340  0.285  22.88
7708.0  91.6  2.289  0.298  10.87
7708.5  90.7  2.347  0.247  22.44
