~Version Information
VERS.                  2.0 : LAS version
WRAP.                  NO  : One line per depth step

~Well Information
#MNEM.UNIT          Data                    Description
WELL.               FORMATION-TOPS-WELL     : Well Name
LOC.                TRAINING-BASIN          : Location
SRVC.               DRAKE AI SYSTEM         : Service Company
DATE.               2025-05-16              : Creation Date
NULL.               -999.25                 : Null value

~Curve Information
#MNEM.UNIT          API Code                Description
DEPT.FT             00 000 00 00            : Depth
GR.API              00 001 00 00            : Gamma Ray
RHOB.G/C3           00 002 00 00            : Bulk Density
NPHI.V/V            00 003 00 00            : Neutron Porosity
RESD.OHM            00 004 00 00            : Deep Resistivity

~Parameter Information
#PARAM.UNIT         Value                   Description
STRT.FT             6534.0                  : Start Depth
STOP.FT             8569.0                  : Stop Depth
STEP.FT             0.5                     : Step Size

~ASCII Log Data
# ...
7239.0  93.7  2.392  0.236  19.20
7239.5  97.0  2.314  0.227  16.65
7240.0  93.9  2.302  0.245  20.94
7240.5  83.8  2.263  0.247  17.06
7241.0  91.1  2.317  0.278  16.61
7241.5  75.7  2.390  0.223  25.72
7242.0  95.0  2.381  0.264  19.56
7242.5  71.8  2.347  0.216  18.52
7243.0  92.1  2.321  0.169  13.15
7243.5  91.4  2.314  0.263  15.88
7244.0  89.9  2.276  0.219  17.01
7244.5  79.6  2.368  0.286  27.88
7245.0  94.1  2.355  0.229  20.24
7245.5  63.0  2.345  0.239  13.42
7246.0  94.3  2.365  0.205  24.01
7246.5  87.3  2.389  0.270  21.98
7247.0  97.6  2.379  0.269  19.32
7247.5  87.4  2.251  0.260  11.33
7248.0  107.1  2.333  0.269  21.33
7248.5  73.7  2.365  0.211  11.20
7249.0  92.3  2.347  0.256  14.96
7249.5  74.4  2.320  0.224  18.31
7250.0  83.5  2.339  0.288  18.38
7250.5  93.9  2.439  0.235  19.81
7251.0  92.5  2.417  0.271  13.91
7251.5  110.0  2.354  0.268  14.93
7252.0  80.8  2.330  0.210  19.65
7252.5  100.4  2.376  0.217  10.72
7253.0  81.9  2.397  0.250  18.79
7253.5  76.6  2.368  0.285  14.68
7254.0  65.5  2.297  0.251  19.19
7254.5  87.0  2.353  0.278  15.51
7255.0  78.7  2.358  0.242  23.39
7255.5  95.2  2.295  0.238  16.34
7256.0  78.7  2.358  0.277  17.27
7256.5  79.3  2.381  0.272  14.57
7257.0  89.3  2.378  0.220  16.61
7257.5  105.7  2.417  0.276  24.48
7258.0  71.9  2.283  0.277  15.86
7258.5  97.2  2.363  0.209  25.06
7259.0  95.5  2.325  0.269  23.63
7259.5  82.3  2.393  0.248  19.76
7260.0  93.1  2.401  0.288  22.66
7260.5  81.6  2.283  0.317  18.17
7261.0  113.5  2.332  0.288  17.38
7261.5  83.7  2.301  0.215  17.73
7262.0  86.0  2.345  0.180  18.19
7262.5  81.1  2.347  0.229  19.63
7263.0  64.7  2.415  0.298  19.44
7263.5  81.8  2.375  0.274  25.29
7264.0  87.8  2.403  0.221  17.20
7264.5  103.0  2.398  0.253  17.51
7265.0  90.9  2.297  0.266  20.53
7265.5  82.7  2.353  0.237  17.40
7266.0  85.7  2.398  0.257  14.34
7266.5  88.9  2.419  0.201  17.09
7267.0  80.5  2.388  0.188  17.03
7267.5  93.2  2.264  0.243  16.47
7268.0  104.5  2.372  0.265  21.42
7268.5  80.6  2.347  0.223  17.88
7269.0  99.5  2.385  0.231  20.63
7269.5  95.5  2.315  0.281  13.98
7270.0  91.4  2.354  0.221  14.00
7270.5  86.3  2.334  0.277  23.58
7271.0  89.1  2.414  0.284  22.46
7271.5  82.4  2.381  0.243  18.13
7272.0  107.0  2.338  0.242  25.35
7272.5  76.4  2.319  0.208  20.14
7273.0  98.6  2.329  0.269  15.62
7273.5  103.6  2.434  0.231  22.67
7274.0  81.1  2.340  0.232  13.80
7274.5  99.0  2.451  0.205  14.10
7275.0  86.7  2.359  0.286  19.15
7275.5  85.7  2.292  0.265  19.38
7276.0  84.1  2.407  0.245  11.45
7276.5  65.6  2.247  0.261  15.37
7277.0  91.6  2.355  0.230  13.32
7277.5  102.3  2.467  0.278  16.82
7278.0  76.5  2.434  0.244  14.44
7278.5  95.2  2.421  0.240  21.20
7279.0  84.0  2.398  0.227  22.56
7279.5  71.9  2.410  0.270  20.51
7280.0  97.0  2.309  0.275  19.91
7280.5  105.2  2.390  0.224  16.74
7281.0  75.5  2.369  0.270  23.37
7281.5  87.6  2.419  0.251  13.53
7282.0  67.7  2.433  0.202  18.72
7282.5  84.5  2.327  0.303  25.96
7283.0  90.8  2.278  0.260  16.63
7283.5  106.0  2.352  0.232  15.87
7284.0  103.7  2.425  0.198  18.90
7284.5  104.7  2.279  0.232  17.70
7285.0  78.7  2.339  0.248  20.23
7285.5  82.1  2.252  0.245  15.34
7286.0  65.0  2.317  0.266  16.36
7286.5  76.4  2.369  0.246  18.07
7287.0  67.6  2.348  0.210  13.87
7287.5  89.4  2.308  0.244  18.44
7288.0  76.6  2.424  0.253  20.25
7288.5  71.8  2.329  0.280  12.70
7289.0  80.7  2.255  0.251  17.28
7289.5  70.8  2.447  0.230  18.10
7290.0  88.7  2.403  0.249  17.74
7290.5  88.4  2.366  0.212  15.09
7291.0  81.2  2.302  0.249  21.50
7291.5  76.2  2.297  0.251  16.40
7292.0  68.9  2.356  0.278  16.79
7292.5  91.7  2.358  0.304  19.20
7293.0  87.7  2.278  0.263  21.62
7293.5  90.6  2.300  0.254  18.00
7294.0  81.3  2.374  0.254  19.80
7294.5  82.4  2.287  0.253  16.18
7295.0  102.3  2.405  0.233  14.78
7295.5  77.8  2.331  0.266  14.70
7296.0  81.2  2.407  0.246  18.87
7296.5  93.9  2.321  0.237  25.26
7297.0  88.6  2.384  0.269  15.56
7297.5  60.4  2.362  0.227  19.71
7298.0  64.7  2.435  0.267  21.25
7298.5  77.1  2.317  0.217  19.67
7299.0  95.9  2.454  0.219  22.84
7299.5  93.1  2.422  0.224  13.53
7300.0  91.2  2.317  0.220  14.38
7300.5  92.5  2.321  0.258  13.67
7301.0  73.4  2.368  0.279  19.47
7301.5  92.2  2.388  0.233  16.38
7302.0  73.9  2.301  0.269  12.95
7302.5  96.4  2.289  0.157  21.16
7303.0  78.9  2.263  0.199  25.24
7303.5  88.4  2.426  0.240  22.53
7304.0  62.5  2.349  0.244  17.80
7304.5  68.8  2.262  0.303  21.86
7305.0  98.1  2.336  0.261  18.32
7305.5  93.3  2.391  0.279  18.95
7306.0  70.4  2.370  0.266  24.50
7306.5  100.4  2.445  0.284  22.47
7307.0  71.9  2.360  0.255  23.48
7307.5  85.2  2.335  0.233  19.92
7308.0  79.2  2.365  0.251  20.27
7308.5  73.9  2.426  0.244  10.91
7309.0  99.0  2.383  0.241  11.32
7309.5  105.2  2.344  0.250  13.15
7310.0  87.1  2.297  0.282  13.76
7310.5  103.3  2.343  0.299  15.99
7311.0  81.6  2.285  0.293  18.35
7311.5  86.3  2.371  0.318  12.97
7312.0  86.6  2.371  0.255  19.86
7312.5  71.1  2.300  0.257  24.02
7313.0  91.0  2.310  0.269  16.12
7313.5  93.5  2.392  0.227  20.80
7314.0  82.9  2.348  0.208  13.73
7314.5  64.7  2.377  0.224  20.22
7315.0  89.4  2.320  0.199  17.49
7315.5  66.8  2.310  0.257  16.10
7316.0  75.3  2.335  0.236  12.37
7316.5  86.6  2.291  0.269  16.33
7317.0  75.8  2.321  0.286  15.16
7317.5  88.0  2.397  0.221  17.46
7318.0  82.3  2.318  0.261  13.58
7318.5  65.4  2.429  0.246  14.11
7319.0  87.0  2.397  0.240  18.96
7319.5  92.0  2.394  0.225  19.56
7320.0  97.1  2.367  0.268  18.31
7320.5  80.6  2.314  0.241  16.10
7321.0  84.3  2.295  0.261  15.77
7321.5  67.1  2.293  0.254  16.65
7322.0  108.6  2.360  0.241  14.24
7322.5  103.1  2.470  0.299  24.87
7323.0  84.6  2.374  0.275  17.82
7323.5  83.5  2.425  0.201  12.57
7324.0  49.8  2.343  0.272  16.12
7324.5  97.4  2.321  0.213  17.08
7325.0  91.8  2.390  0.268  12.67
7325.5  94.8  2.325  0.267  12.89
7326.0  80.1  2.335  0.239  14.61
7326.5  79.4  2.355  0.252  16.60
7327.0  70.2  2.296  0.288  13.50
7327.5  94.3  2.363  0.253  13.65
7328.0  100.0  2.343  0.265  26.51
7328.5  98.5  2.285  0.298  24.83
7329.0  87.2  2.352  0.223  25.33
7329.5  81.1  2.386  0.221  21.71
7330.0  72.4  2.310  0.276  20.00
7330.5  76.6  2.466  0.220  11.80
7331.0  90.6  2.287  0.255  12.50
7331.5  81.6  2.306  0.267  17.92
7332.0  104.7  2.379  0.273  19.33
7332.5  98.8  2.353  0.269  14.79
7333.0  77.8  2.302  0.202  13.72
7333.5  70.4  2.386  0.257  19.12
7334.0  78.4  2.292  0.215  17.23
7334.5  97.8  2.388  0.208  19.64
7335.0  78.7  2.411  0.276  23.45
7335.5  91.6  2.383  0.268  15.84
7336.0  78.2  2.360  0.302  21.59
7336.5  89.1  2.317  0.212  19.15
7337.0  91.3  2.303  0.239  15.58
7337.5  96.8  2.388  0.249  17.54
7338.0  102.2  2.389  0.199  11.55
7338.5  100.7  2.321  0.184  18.82
7339.0  78.6  2.360  0.225  17.09
7339.5  83.2  2.452  0.286  24.00
7340.0  70.9  2.330  0.235  16.69
7340.5  82.2  2.372  0.246  21.37
7341.0  85.3  2.369  0.237  17.36
7341.5  80.2  2.384  0.239  13.51
7342.0  79.0  2.437  0.230  17.34
7342.5  97.4  2.413  0.233  21.30
7343.0  95.9  2.308  0.208  23.03
7343.5  89.8  2.361  0.229  17.89
7344.0  69.7  2.240  0.318  22.46
7344.5  87.4  2.332  0.262  12.69
7345.0  80.4  2.254  0.276  18.95
7345.5  100.8  2.282  0.244  20.35
7346.0  63.4  2.366  0.235  21.01
7346.5  78.3  2.460  0.257  15.68
7347.0  78.0  2.374  0.216  14.77
7347.5  79.4  2.438  0.314  24.62
7348.0  96.5  2.240  0.228  20.39
7348.5  56.8  2.291  0.279  23.12
7349.0  82.5  2.310  0.224  14.78
7349.5  95.2  2.313  0.269  16.74
7350.0  96.8  2.399  0.259  15.41
7350.5  78.4  2.297  0.234  16.50
7351.0  76.8  2.303  0.277  19.78
7351.5  89.2  2.315  0.230  21.46
7352.0  86.8  2.238  0.192  18.29
7352.5  85.8  2.328  0.271  15.40
7353.0  39.4  2.370  0.245  22.09
7353.5  71.5  2.337  0.241  11.05
7354.0  74.6  2.351  0.254  12.87
7354.5  92.7  2.359  0.238  20.92
7355.0  67.7  2.324  0.230  18.01
7355.5  72.4  2.328  0.234  17.58
7356.0  83.1  2.338  0.249  18.90
