~Version Information
VERS.                  2.0 : LAS version
WRAP.                  NO  : One line per depth step

~Well Information
#MNEM.UNIT          Data                    Description
WELL.               FORMATION-TOPS-WELL     : Well Name
LOC.                TRAINING-BASIN          : Location
SRVC.               DRAKE AI SYSTEM         : Service Company
DATE.               2025-05-16              : Creation Date
NULL.               -999.25                 : Null value

~Curve Information
#MNEM.UNIT          API Code                Description
DEPT.FT             00 000 00 00            : Depth
GR.API              00 001 00 00            : Gamma Ray
RHOB.G/C3           00 002 00 00            : Bulk Density
NPHI.V/V            00 003 00 00            : Neutron Porosity
RESD.OHM            00 004 00 00            : Deep Resistivity

~Parameter Information
#PARAM.UNIT         Value                   Description
STRT.FT             6534.0                  : Start Depth
STOP.FT             8569.0                  : Stop Depth
STEP.FT             0.5                     : Step Size

~ASCII Log Data
# ...
7709.0  89.5  2.378  0.293  16.51
7709.5  85.0  2.417  0.243  16.67
7710.0  86.1  2.311  0.212  13.52
7710.5  89.6  2.329  0.168  10.98
7711.0  61.9  2.261  0.331  11.04
7711.5  84.6  2.379  0.239  14.43
7712.0  96.8  2.305  0.235  22.98
7712.5  79.2  2.306  0.207  12.11
7713.0  59.9  2.344  0.295  22.18
7713.5  68.4  2.411  0.245  19.81
7714.0  85.9  2.304  0.267  16.48
7714.5  76.4  2.407  0.254  16.52
7715.0  86.6  2.387  0.262  13.92
7715.5  84.8  2.352  0.269  12.72
7716.0  79.4  2.395  0.257  18.75
7716.5  74.0  2.348  0.256  21.16
7717.0  87.3  2.293  0.244  24.71
7717.5  85.8  2.351  0.254  17.71
7718.0  83.5  2.343  0.261  12.20
7718.5  95.5  2.292  0.253  18.17
7719.0  87.4  2.402  0.213  16.16
7719.5  77.8  2.311  0.254  19.24
7720.0  80.7  2.270  0.279  17.49
7720.5  84.3  2.305  0.229  14.40
7721.0  86.5  2.369  0.215  16.95
7721.5  101.0  2.406  0.281  11.48
7722.0  105.3  2.363  0.239  11.28
7722.5  79.4  2.358  0.209  21.70
7723.0  72.8  2.464  0.238  14.53
7723.5  78.5  2.305  0.242  17.15
7724.0  90.0  2.323  0.249  22.90
7724.5  95.0  2.336  0.224  14.49
7725.0  80.1  2.293  0.273  23.86
7725.5  74.0  2.319  0.240  15.49
7726.0  89.6  2.439  0.230  13.54
7726.5  92.5  2.343  0.265  23.85
7727.0  97.4  2.367  0.211  18.13
7727.5  77.3  2.299  0.287  11.16
7728.0  88.9  2.341  0.228  13.47
7728.5  65.4  2.410  0.256  20.07
7729.0  83.7  2.323  0.276  20.99
7729.5  93.6  2.442  0.279  19.87
7730.0  102.8  2.370  0.236  16.13
7730.5  88.6  2.423  0.265  17.43
7731.0  82.1  2.399  0.257  17.77
7731.5  68.1  2.389  0.249  15.18
7732.0  87.7  2.375  0.271  13.45
7732.5  92.6  2.370  0.301  20.64
7733.0  97.2  2.414  0.220  19.43
7733.5  87.9  2.317  0.219  15.87
7734.0  73.5  2.373  0.256  19.87
7734.5  91.6  2.283  0.273  26.39
7735.0  105.3  2.432  0.298  16.93
7735.5  81.9  2.391  0.297  14.34
7736.0  75.4  2.377  0.252  9.64
7736.5  81.0  2.323  0.266  12.96
7737.0  84.8  2.350  0.264  14.98
7737.5  78.7  2.373  0.210  24.24
7738.0  93.5  2.238  0.327  12.40
7738.5  90.2  2.375  0.245  15.95
7739.0  81.0  2.331  0.289  16.22
7739.5  84.8  2.418  0.290  14.29
7740.0  66.5  2.389  0.251  14.20
7740.5  88.9  2.384  0.257  14.32
7741.0  68.3  2.409  0.207  20.97
7741.5  81.7  2.394  0.318  15.36
7742.0  79.5  2.465  0.238  24.75
7742.5  90.6  2.377  0.291  17.64
7743.0  79.7  2.422  0.204  14.47
7743.5  84.4  2.432  0.248  21.83
7744.0  102.9  2.349  0.255  16.03
7744.5  66.2  2.402  0.194  12.23
7745.0  86.4  2.383  0.223  14.55
7745.5  95.4  2.340  0.179  22.22
7746.0  77.5  2.401  0.248  18.02
7746.5  85.3  2.386  0.258  17.37
7747.0  68.7  2.485  0.223  13.17
7747.5  65.7  2.392  0.242  14.09
7748.0  93.7  2.400  0.249  16.56
7748.5  81.1  2.419  0.277  16.85
7749.0  69.2  2.376  0.261  16.33
7749.5  79.3  2.362  0.286  15.17
7750.0  92.3  2.356  0.252  8.63
7750.5  91.6  2.278  0.241  25.39
7751.0  97.6  2.334  0.285  14.88
7751.5  79.0  2.437  0.276  21.40
7752.0  77.5  2.387  0.201  18.57
7752.5  89.0  2.342  0.228  16.21
7753.0  97.0  2.417  0.201  11.91
7753.5  80.5  2.427  0.264  17.06
7754.0  96.5  2.363  0.237  24.98
7754.5  81.0  2.473  0.308  22.79
7755.0  109.4  2.364  0.259  17.87
7755.5  64.4  2.340  0.288  26.66
7756.0  103.4  2.367  0.267  21.04
7756.5  67.0  2.366  0.214  17.90
7757.0  99.7  2.378  0.284  19.30
7757.5  86.0  2.354  0.289  19.13
7758.0  79.6  2.403  0.257  22.91
7758.5  74.1  2.295  0.256  18.84
7759.0  73.9  2.360  0.272  17.92
7759.5  93.2  2.343  0.221  17.27
7760.0  90.5  2.375  0.283  14.50
7760.5  82.7  2.251  0.292  20.41
7761.0  84.7  2.373  0.246  15.46
7761.5  74.5  2.357  0.273  12.04
7762.0  83.4  2.271  0.254  16.29
7762.5  95.6  2.370  0.239  21.94
7763.0  74.1  2.351  0.252  15.51
7763.5  91.3  2.421  0.252  14.62
7764.0  79.5  2.361  0.232  18.42
7764.5  66.7  2.378  0.211  16.45
7765.0  97.7  2.407  0.261  19.07
7765.5  68.5  2.383  0.295  21.36
7766.0  79.4  2.329  0.220  21.23
7766.5  97.8  2.392  0.242  16.46
7767.0  75.6  2.358  0.288  18.48
7767.5  96.3  2.329  0.252  23.23
7768.0  79.6  2.365  0.285  19.05
7768.5  83.9  2.283  0.273  11.38
7769.0  107.6  2.323  0.263  20.58
7769.5  98.6  2.284  0.227  14.14
7770.0  86.0  2.348  0.250  19.03
7770.5  77.2  2.284  0.232  12.33
7771.0  85.3  2.367  0.232  17.63
7771.5  104.8  2.402  0.257  17.73
7772.0  111.1  2.392  0.251  14.25
7772.5  77.6  2.285  0.213  23.24
7773.0  102.3  2.281  0.320  16.26
7773.5  66.1  2.319  0.246  25.33
7774.0  92.1  2.345  0.234  16.78
7774.5  89.5  2.275  0.226  12.94
7775.0  97.5  2.316  0.280  13.09
7775.5  75.0  2.317  0.256  16.72
7776.0  86.8  2.328  0.311  18.82
7776.5  62.7  2.243  0.273  9.30
7777.0  77.4  2.277  0.188  22.13
7777.5  84.8  2.323  0.270  20.90
7778.0  87.3  2.309  0.197  16.89
7778.5  118.5  2.341  0.215  22.05
7779.0  78.9  2.326  0.221  12.86
7779.5  85.3  2.355  0.271  21.05
7780.0  71.2  2.272  0.264  12.62
7780.5  62.4  2.339  0.208  14.99
7781.0  95.8  2.271  0.240  18.82
7781.5  95.9  2.377  0.291  16.46
7782.0  68.5  2.399  0.259  18.92
7782.5  64.7  2.307  0.226  17.33
7783.0  77.4  2.344  0.234  19.90
7783.5  105.0  2.373  0.264  14.97
7784.0  67.1  2.333  0.258  16.22
7784.5  93.2  2.355  0.288  20.69
7785.0  86.6  2.309  0.257  15.17
7785.5  81.4  2.428  0.223  10.85
7786.0  77.7  2.345  0.282  15.48
7786.5  87.9  2.335  0.274  18.54
7787.0  81.3  2.388  0.308  20.92
7787.5  80.2  2.379  0.282  13.68
7788.0  82.5  2.268  0.247  21.65
7788.5  98.3  2.404  0.275  22.51
7789.0  87.6  2.339  0.223  17.61
7789.5  85.8  2.259  0.244  18.62
7790.0  101.6  2.337  0.276  15.62
7790.5  81.8  2.300  0.243  19.17
7791.0  102.2  2.371  0.243  8.40
7791.5  76.9  2.391  0.234  19.57
7792.0  91.4  2.350  0.234  19.47
7792.5  81.1  2.320  0.273  13.94
7793.0  84.2  2.302  0.222  14.16
7793.5  77.3  2.371  0.217  17.12
7794.0  81.5  2.343  0.221  18.91
7794.5  76.6  2.284  0.292  19.82
7795.0  89.8  2.387  0.237  21.34
7795.5  75.1  2.311  0.261  18.47
7796.0  91.4  2.379  0.278  20.89
7796.5  113.2  2.323  0.239  19.57
7797.0  66.3  2.315  0.294  13.58
7797.5  56.5  2.359  0.233  13.31
7798.0  73.1  2.453  0.262  14.27
7798.5  93.9  2.372  0.285  16.74
7799.0  76.5  2.311  0.317  22.86
7799.5  91.9  2.391  0.272  20.29
7800.0  96.4  2.336  0.267  26.34
7800.5  82.0  2.424  0.231  16.94
7801.0  95.6  2.275  0.278  11.88
7801.5  57.8  2.434  0.247  18.75
7802.0  95.0  2.384  0.246  14.49
7802.5  94.6  2.305  0.223  18.85
7803.0  83.8  2.292  0.254  17.82
7803.5  97.0  2.398  0.258  14.53
7804.0  102.3  2.326  0.254  18.12
7804.5  108.2  2.292  0.196  12.11
7805.0  108.3  2.359  0.224  17.03
7805.5  85.7  2.377  0.263  15.58
7806.0  83.3  2.376  0.224  13.69
7806.5  84.1  2.292  0.270  16.21
7807.0  52.9  2.319  0.184  16.92
7807.5  93.4  2.356  0.296  20.10
7808.0  113.2  2.292  0.255  20.97
7808.5  91.8  2.339  0.283  18.59
7809.0  67.9  2.350  0.291  20.27
7809.5  73.1  2.350  0.269  17.81
7810.0  73.7  2.252  0.162  15.33
7810.5  104.9  2.326  0.273  24.64
7811.0  91.0  2.313  0.250  21.22
7811.5  92.7  2.316  0.255  12.00
7812.0  89.2  2.422  0.260  20.57
7812.5  71.7  2.373  0.199  20.46
7813.0  73.7  2.324  0.219  17.11
7813.5  93.2  2.418  0.161  16.39
7814.0  86.0  2.423  0.249  20.24
7814.5  62.7  2.342  0.301  22.75
7815.0  94.4  2.311  0.232  19.78
7815.5  102.0  2.377  0.264  19.85
7816.0  85.1  2.278  0.277  24.89
7816.5  81.2  2.358  0.209  20.99
7817.0  101.4  2.330  0.258  25.24
7817.5  82.7  2.263  0.274  8.95
7818.0  77.6  2.418  0.250  19.89
7818.5  66.5  2.297  0.232  13.74
7819.0  79.1  2.233  0.266  16.74
7819.5  107.4  2.336  0.221  20.52
7820.0  99.0  2.274  0.295  20.08
7820.5  86.4  2.432  0.248  17.20
7821.0  84.9  2.318  0.309  18.89
7821.5  96.9  2.456  0.276  21.37
7822.0  86.2  2.255  0.226  15.48
7822.5  69.8  2.460  0.272  25.07
7823.0  86.7  2.338  0.237  23.09
7823.5  87.1  2.328  0.229  16.73
7824.0  85.2  2.340  0.239  16.70
7824.5  88.1  2.390  0.259  14.57
7825.0  76.7  2.304  0.197  23.34
7825.5  86.9  2.390  0.267  16.80
7826.0  65.8  2.315  0.229  22.61
