~Version Information
VERS.                  2.0 : LAS version
WRAP.                  NO  : One line per depth step

~Well Information
#MNEM.UNIT          Data                    Description
WELL.               FORMATION-TOPS-WELL     : Well Name
LOC.                TRAINING-BASIN          : Location
SRVC.               DRAKE AI SYSTEM         : Service Company
DATE.               2025-05-16              : Creation Date
NULL.               -999.25                 : Null value

~Curve Information
#MNEM.UNIT          API Code                Description
DEPT.FT             00 000 00 00            : Depth
GR.API              00 001 00 00            : Gamma Ray
RHOB.G/C3           00 002 00 00            : Bulk Density
NPHI.V/V            00 003 00 00            : Neutron Porosity
RESD.OHM            00 004 00 00            : Deep Resistivity

~Parameter Information
#PARAM.UNIT         Value                   Description
STRT.FT             6534.0                  : Start Depth
STOP.FT             8569.0                  : Stop Depth
STEP.FT             0.5                     : Step Size

~ASCII Log Data
# ...
6769.0  93.1  2.330  0.242  21.09
6769.5  102.9  2.302  0.202  21.98
6770.0  96.8  2.314  0.189  24.09
6770.5  96.9  2.424  0.246  17.89
6771.0  85.2  2.285  0.295  23.60
6771.5  78.0  2.389  0.220  14.82
6772.0  77.1  2.373  0.279  20.63
6772.5  94.0  2.426  0.244  19.10
6773.0  55.7  2.450  0.251  11.24
6773.5  69.3  2.343  0.273  29.55
6774.0  73.4  2.366  0.240  19.55
6774.5  82.0  2.353  0.244  17.69
6775.0  53.4  2.295  0.220  17.65
6775.5  100.1  2.328  0.276  19.81
6776.0  92.2  2.488  0.261  26.08
6776.5  108.8  2.371  0.299  19.46
6777.0  97.7  2.272  0.239  22.87
6777.5  97.4  2.382  0.285  17.76
6778.0  112.0  2.403  0.229  27.01
6778.5  78.1  2.385  0.312  12.79
6779.0  67.0  2.277  0.247  29.84
6779.5  82.2  2.363  0.248  18.92
6780.0  75.1  2.268  0.261  15.80
6780.5  81.9  2.338  0.308  16.92
6781.0  72.4  2.211  0.279  19.79
6781.5  91.8  2.258  0.290  22.22
6782.0  91.2  2.367  0.279  17.75
6782.5  84.7  2.405  0.276  17.79
6783.0  88.7  2.344  0.255  22.92
6783.5  83.3  2.384  0.231  17.07
6784.0  94.0  2.444  0.292  24.78
6784.5  85.8  2.299  0.273  15.68
6785.0  81.8  2.382  0.245  22.38
6785.5  96.2  2.413  0.224  19.50
6786.0  100.1  2.359  0.195  20.88
6786.5  101.0  2.370  0.218  29.43
6787.0  73.1  2.375  0.223  13.44
6787.5  78.6  2.328  0.252  17.65
6788.0  64.6  2.413  0.211  15.51
6788.5  82.1  2.286  0.221  21.06
6789.0  90.0  2.330  0.254  19.94
6789.5  83.4  2.357  0.271  14.31
6790.0  108.2  2.397  0.187  13.53
6790.5  80.1  2.295  0.227  20.57
6791.0  71.9  2.397  0.222  19.94
6791.5  91.8  2.344  0.249  11.34
6792.0  86.8  2.401  0.290  20.96
6792.5  91.6  2.458  0.246  19.85
6793.0  88.6  2.397  0.213  18.77
6793.5  87.9  2.367  0.247  17.75
6794.0  59.5  2.368  0.230  16.79
6794.5  76.3  2.382  0.295  14.57
6795.0  77.9  2.380  0.240  19.12
6795.5  80.8  2.308  0.259  20.14
6796.0  79.6  2.362  0.210  7.83
6796.5  90.0  2.378  0.201  15.05
6797.0  92.2  2.303  0.194  21.54
6797.5  71.4  2.345  0.246  21.62
6798.0  93.2  2.281  0.218  14.74
6798.5  92.0  2.218  0.305  15.50
6799.0  90.6  2.340  0.234  15.89
6799.5  68.0  2.334  0.263  20.16
6800.0  90.3  2.426  0.236  15.52
6800.5  86.0  2.279  0.264  16.28
6801.0  96.5  2.380  0.244  22.99
6801.5  106.4  2.359  0.213  16.14
6802.0  104.1  2.403  0.224  15.17
6802.5  86.4  2.329  0.247  16.51
6803.0  85.0  2.380  0.215  22.68
6803.5  92.6  2.301  0.235  15.24
6804.0  71.6  2.372  0.275  16.84
6804.5  67.6  2.357  0.238  22.38
6805.0  79.3  2.325  0.252  15.25
6805.5  99.6  2.407  0.243  19.39
6806.0  81.0  2.357  0.218  16.52
6806.5  103.0  2.385  0.209  15.49
6807.0  51.5  2.428  0.275  13.55
6807.5  66.0  2.416  0.280  12.16
6808.0  83.5  2.404  0.213  19.52
6808.5  95.7  2.340  0.276  21.51
6809.0  84.2  2.367  0.252  7.17
6809.5  83.9  2.378  0.264  25.66
6810.0  83.5  2.393  0.311  17.17
6810.5  63.8  2.379  0.188  19.92
6811.0  98.9  2.322  0.236  17.60
6811.5  76.8  2.338  0.259  20.25
6812.0  98.1  2.340  0.276  12.86
6812.5  84.2  2.331  0.217  15.70
6813.0  97.8  2.388  0.270  15.08
6813.5  89.1  2.261  0.255  14.71
6814.0  83.7  2.319  0.295  17.69
6814.5  87.7  2.335  0.233  23.02
6815.0  67.3  2.413  0.271  22.98
6815.5  85.1  2.301  0.249  18.21
6816.0  105.6  2.376  0.224  14.93
6816.5  100.7  2.356  0.230  19.08
6817.0  73.2  2.317  0.229  18.19
6817.5  91.1  2.454  0.246  15.30
6818.0  88.0  2.386  0.256  16.91
6818.5  94.8  2.325  0.233  18.34
6819.0  86.1  2.409  0.277  19.83
6819.5  82.2  2.352  0.241  12.20
6820.0  101.0  2.291  0.286  15.91
6820.5  87.6  2.202  0.257  29.19
6821.0  100.1  2.383  0.254  17.12
6821.5  96.7  2.371  0.238  18.26
6822.0  81.1  2.306  0.278  17.68
6822.5  83.0  2.276  0.193  22.08
6823.0  108.2  2.313  0.266  14.76
6823.5  87.3  2.324  0.272  13.63
6824.0  75.9  2.373  0.276  20.15
6824.5  70.6  2.364  0.256  18.15
6825.0  96.7  2.329  0.340  19.43
6825.5  86.9  2.263  0.255  14.88
6826.0  75.5  2.288  0.191  23.48
6826.5  93.1  2.430  0.250  20.19
6827.0  86.9  2.328  0.256  19.11
6827.5  65.1  2.412  0.226  22.21
6828.0  92.1  2.395  0.299  26.34
6828.5  101.0  2.267  0.242  26.61
6829.0  115.7  2.389  0.219  14.17
6829.5  85.4  2.298  0.255  17.74
6830.0  87.8  2.303  0.255  18.40
6830.5  104.3  2.390  0.265  18.69
6831.0  87.0  2.323  0.171  19.29
6831.5  88.3  2.273  0.225  22.59
6832.0  77.4  2.292  0.262  15.68
6832.5  68.3  2.330  0.285  19.48
6833.0  96.0  2.383  0.259  20.89
6833.5  69.7  2.275  0.226  17.65
6834.0  98.7  2.352  0.246  14.01
6834.5  75.5  2.432  0.279  16.97
6835.0  88.2  2.284  0.273  28.83
6835.5  80.5  2.324  0.272  27.69
6836.0  99.1  2.326  0.290  13.39
6836.5  88.6  2.302  0.296  18.25
6837.0  108.5  2.391  0.216  17.61
6837.5  72.0  2.344  0.230  25.54
6838.0  90.0  2.346  0.288  16.71
6838.5  85.6  2.424  0.204  19.58
6839.0  88.4  2.364  0.280  14.88
6839.5  104.2  2.346  0.205  19.41
6840.0  92.0  2.347  0.284  18.26
6840.5  71.2  2.311  0.254  23.14
6841.0  91.4  2.410  0.255  16.50
6841.5  80.0  2.327  0.261  21.52
6842.0  79.3  2.351  0.222  13.27
6842.5  97.6  2.247  0.290  15.20
6843.0  77.8  2.382  0.286  20.74
6843.5  80.4  2.421  0.191  23.22
6844.0  85.4  2.412  0.307  20.95
6844.5  96.4  2.298  0.222  16.84
6845.0  92.0  2.380  0.209  23.54
6845.5  82.2  2.353  0.213  21.31
6846.0  81.7  2.319  0.271  18.95
6846.5  71.1  2.376  0.151  28.51
6847.0  75.9  2.383  0.234  15.32
6847.5  77.1  2.372  0.232  23.85
6848.0  83.2  2.375  0.237  12.25
6848.5  108.8  2.345  0.206  10.18
6849.0  76.9  2.433  0.249  18.56
6849.5  81.5  2.308  0.252  15.97
6850.0  60.4  2.370  0.235  26.52
6850.5  92.2  2.283  0.283  18.33
6851.0  66.1  2.345  0.220  13.90
6851.5  74.1  2.363  0.243  14.53
6852.0  97.5  2.359  0.262  23.25
6852.5  59.7  2.384  0.202  26.56
6853.0  86.2  2.310  0.186  21.42
6853.5  94.6  2.309  0.256  15.83
6854.0  103.3  2.287  0.276  23.46
6854.5  74.0  2.308  0.303  13.59
6855.0  77.5  2.316  0.248  11.66
6855.5  106.7  2.307  0.251  18.01
6856.0  84.7  2.281  0.228  15.77
6856.5  76.2  2.366  0.260  18.79
6857.0  76.4  2.336  0.212  13.13
6857.5  73.3  2.357  0.267  14.76
6858.0  79.7  2.330  0.247  19.63
6858.5  98.1  2.458  0.225  17.52
6859.0  95.7  2.251  0.264  10.93
6859.5  70.9  2.320  0.271  20.88
6860.0  87.6  2.274  0.318  22.55
6860.5  80.2  2.385  0.255  20.23
6861.0  94.4  2.318  0.242  27.24
6861.5  83.1  2.363  0.259  27.94
6862.0  89.5  2.288  0.260  20.13
6862.5  83.1  2.351  0.251  20.00
6863.0  58.8  2.342  0.326  14.33
6863.5  85.6  2.323  0.290  19.63
6864.0  69.7  2.502  0.279  17.86
6864.5  94.0  2.364  0.255  12.70
6865.0  76.8  2.256  0.255  11.66
6865.5  77.7  2.459  0.235  19.85
6866.0  84.9  2.341  0.203  14.50
6866.5  91.9  2.293  0.249  16.04
6867.0  83.0  2.314  0.250  9.21
6867.5  104.7  2.397  0.237  14.73
6868.0  104.8  2.404  0.283  22.08
6868.5  105.6  2.374  0.262  15.95
6869.0  82.2  2.313  0.256  21.61
6869.5  67.2  2.384  0.264  17.02
6870.0  99.6  2.363  0.214  10.55
6870.5  80.0  2.359  0.241  18.92
6871.0  85.5  2.354  0.220  23.74
6871.5  92.5  2.337  0.280  21.97
6872.0  65.7  2.358  0.231  22.64
6872.5  104.5  2.324  0.211  16.56
6873.0  95.5  2.383  0.259  9.12
6873.5  89.2  2.362  0.287  21.04
6874.0  95.7  2.447  0.210  11.17
6874.5  91.7  2.290  0.282  14.84
6875.0  86.4  2.412  0.245  15.89
6875.5  81.3  2.305  0.230  15.89
6876.0  76.1  2.321  0.294  24.00
6876.5  88.4  2.345  0.286  22.45
6877.0  89.3  2.428  0.214  12.28
6877.5  98.0  2.306  0.287  23.35
6878.0  87.4  2.402  0.258  11.25
6878.5  74.8  2.400  0.259  23.03
6879.0  66.1  2.411  0.226  16.79
6879.5  83.5  2.319  0.239  21.52
6880.0  84.7  2.392  0.298  22.36
6880.5  83.8  2.351  0.231  21.60
6881.0  66.6  2.374  0.293  20.45
6881.5  97.9  2.329  0.333  22.27
6882.0  97.9  2.253  0.229  20.22
6882.5  75.1  2.360  0.267  11.18
6883.0  94.7  2.390  0.282  23.14
6883.5  96.4  2.396  0.255  24.81
6884.0  85.5  2.368  0.202  19.41
6884.5  73.6  2.332  0.254  14.26
6885.0  104.4  2.313  0.270  21.82
6885.5  89.6  2.391  0.277  19.54
6886.0  82.0  2.395  0.221  13.35
