~Version Information
VERS.                  2.0 : LAS version
WRAP.                  NO  : One line per depth step

~Well Information
#MNEM.UNIT          Data                    Description
WELL.               FORMATION-TOPS-WELL     : Well Name
LOC.                TRAINING-BASIN          : Location
SRVC.               DRAKE AI SYSTEM         : Service Company
DATE.               2025-05-16              : Creation Date
NULL.               -999.25                 : Null value

~Curve Information
#MNEM.UNIT          API Code                Description
DEPT.FT             00 000 00 00            : Depth
GR.API              00 001 00 00            : Gamma Ray
RHOB.G/C3           00 002 00 00            : Bulk Density
NPHI.V/V            00 003 00 00            : Neutron Porosity
RESD.OHM            00 004 00 00            : Deep Resistivity

~Parameter Information
#PARAM.UNIT         Value                   Description
STRT.FT             6534.0                  : Start Depth
STOP.FT             8569.0                  : Stop Depth
STEP.FT             0.5                     : Step Size

~ASCII Log Data
# ...
8296.5  97.9  2.383  0.252  21.49
8297.0  94.5  2.355  0.198  17.67
8297.5  90.7  2.348  0.232  10.54
8298.0  98.3  2.418  0.257  18.04
8298.5  116.9  2.428  0.213  17.37
8299.0  83.8  2.428  0.214  14.63
8299.5  92.3  2.281  0.228  19.50
8300.0  83.5  2.400  0.265  17.54
8300.5  82.8  2.330  0.275  21.95
8301.0  74.2  2.289  0.262  14.92
8301.5  105.3  2.342  0.278  14.49
8302.0  87.3  2.284  0.295  14.66
8302.5  103.4  2.339  0.196  15.28
8303.0  89.6  2.386  0.241  17.66
8303.5  74.6  2.327  0.270  21.24
8304.0  85.2  2.366  0.272  20.80
8304.5  92.8  2.417  0.268  29.66
8305.0  87.6  2.368  0.270  21.23
8305.5  63.2  2.442  0.251  23.97
8306.0  85.2  2.370  0.236  20.84
8306.5  80.3  2.286  0.263  14.90
8307.0  80.0  2.320  0.205  18.71
8307.5  68.6  2.348  0.283  16.79
8308.0  107.7  2.362  0.271  15.49
8308.5  96.8  2.399  0.268  19.47
8309.0  75.1  2.299  0.280  20.08
8309.5  82.3  2.337  0.244  20.13
8310.0  100.5  2.367  0.277  21.26
8310.5  65.5  2.367  0.242  18.94
8311.0  103.9  2.442  0.216  20.18
8311.5  89.4  2.263  0.242  20.29
8312.0  90.7  2.381  0.244  18.29
8312.5  83.1  2.365  0.212  18.47
8313.0  90.3  2.365  0.282  17.61
8313.5  108.5  2.430  0.213  20.91
8314.0  86.3  2.320  0.307  22.32
8314.5  76.8  2.281  0.242  14.37
8315.0  78.7  2.274  0.243  19.90
8315.5  97.5  2.323  0.237  9.51
8316.0  88.3  2.364  0.281  20.28
8316.5  87.8  2.352  0.280  22.55
8317.0  78.4  2.433  0.310  18.97
8317.5  102.0  2.287  0.215  23.67
8318.0  86.6  2.353  0.254  19.06
8318.5  75.3  2.305  0.264  10.54
8319.0  64.0  2.310  0.256  14.00
8319.5  70.3  2.376  0.220  17.32
8320.0  89.9  2.398  0.246  24.93
8320.5  74.4  2.348  0.234  14.40
8321.0  60.6  2.312  0.251  13.98
8321.5  74.9  2.294  0.234  27.27
8322.0  83.2  2.335  0.239  18.34
8322.5  92.1  2.341  0.282  18.88
8323.0  54.6  2.391  0.199  21.63
8323.5  84.4  2.286  0.231  17.14
8324.0  95.8  2.443  0.276  20.20
8324.5  74.6  2.492  0.230  15.10
8325.0  78.1  2.359  0.235  21.44
8325.5  87.4  2.361  0.262  19.68
8326.0  73.1  2.362  0.260  16.32
8326.5  74.0  2.379  0.258  20.56
8327.0  83.6  2.307  0.255  21.84
8327.5  87.1  2.358  0.246  24.40
8328.0  91.9  2.342  0.269  26.99
8328.5  85.2  2.329  0.230  16.20
8329.0  85.0  2.400  0.259  16.67
8329.5  88.0  2.310  0.254  14.67
8330.0  74.5  2.398  0.295  14.68
8330.5  59.8  2.371  0.215  17.86
8331.0  74.2  2.402  0.227  20.38
8331.5  79.2  2.345  0.213  16.33
8332.0  75.2  2.329  0.280  26.84
8332.5  71.3  2.347  0.270  22.41
8333.0  97.8  2.399  0.213  13.94
8333.5  75.0  2.423  0.234  16.06
8334.0  80.6  2.393  0.294  14.63
8334.5  91.9  2.245  0.295  18.87
8335.0  90.3  2.406  0.234  19.97
8335.5  76.3  2.352  0.233  28.47
8336.0  74.3  2.352  0.286  18.31
8336.5  84.2  2.229  0.253  14.76
8337.0  76.7  2.315  0.243  17.72
8337.5  83.4  2.384  0.250  18.24
8338.0  74.7  2.295  0.252  20.97
8338.5  90.0  2.222  0.214  24.54
8339.0  68.0  2.346  0.213  20.87
8339.5  82.4  2.297  0.228  17.53
8340.0  88.5  2.376  0.229  19.78
8340.5  88.5  2.397  0.239  22.63
8341.0  114.0  2.357  0.255  19.43
8341.5  82.2  2.337  0.260  18.65
8342.0  86.7  2.320  0.296  19.04
8342.5  83.9  2.354  0.252  19.71
8343.0  107.9  2.312  0.209  12.95
8343.5  97.1  2.357  0.245  17.72
8344.0  108.2  2.402  0.249  15.96
8344.5  78.1  2.341  0.242  17.67
8345.0  87.0  2.359  0.250  11.34
8345.5  85.6  2.374  0.257  22.70
8346.0  71.2  2.323  0.256  16.86
8346.5  89.1  2.353  0.251  16.76
8347.0  73.1  2.314  0.305  21.28
8347.5  97.6  2.307  0.219  21.63
8348.0  82.5  2.383  0.242  21.32
8348.5  66.8  2.293  0.228  27.27
8349.0  78.3  2.349  0.266  24.35
8349.5  85.6  2.335  0.207  19.90
8350.0  106.0  2.309  0.260  17.08
8350.5  95.4  2.367  0.213  20.54
8351.0  86.1  2.274  0.238  22.64
8351.5  95.5  2.294  0.283  23.48
8352.0  87.1  2.304  0.254  23.92
8352.5  74.3  2.288  0.275  16.97
8353.0  90.0  2.320  0.247  15.90
8353.5  95.3  2.352  0.278  25.75
8354.0  121.6  2.348  0.314  16.54
8354.5  88.6  2.357  0.245  21.62
8355.0  79.2  2.332  0.289  24.80
8355.5  96.2  2.350  0.230  18.82
8356.0  93.3  2.415  0.188  19.09
8356.5  104.0  2.256  0.256  17.92
8357.0  94.0  2.363  0.259  19.32
8357.5  64.5  2.337  0.281  15.66
8358.0  84.3  2.330  0.271  22.46
8358.5  100.5  2.307  0.239  11.53
8359.0  105.5  2.249  0.230  23.01
8359.5  75.0  2.349  0.296  18.46
8360.0  82.4  2.287  0.288  25.60
8360.5  92.9  2.384  0.263  8.70
8361.0  80.1  2.308  0.259  22.77
8361.5  81.9  2.317  0.237  15.13
8362.0  95.9  2.329  0.229  18.58
8362.5  97.2  2.377  0.207  20.46
8363.0  98.7  2.385  0.233  16.99
8363.5  91.1  2.382  0.218  20.54
8364.0  72.9  2.319  0.276  20.07
8364.5  83.4  2.383  0.261  17.59
8365.0  73.2  2.278  0.257  20.76
8365.5  78.9  2.379  0.250  14.77
8366.0  91.9  2.368  0.273  17.28
8366.5  87.0  2.376  0.248  16.69
8367.0  111.5  2.310  0.223  13.47
8367.5  88.2  2.339  0.235  17.39
8368.0  89.9  2.413  0.273  23.57
8368.5  84.7  2.272  0.327  14.60
8369.0  94.3  2.360  0.260  10.59
8369.5  105.0  2.328  0.273  12.40
8370.0  87.0  2.342  0.235  12.34
8370.5  103.3  2.364  0.210  20.19
8371.0  83.8  2.295  0.230  15.88
8371.5  97.9  2.377  0.282  24.24
8372.0  84.1  2.296  0.276  25.45
8372.5  83.8  2.337  0.245  16.53
8373.0  60.7  2.267  0.243  17.80
8373.5  63.4  2.349  0.212  22.25
8374.0  83.5  2.283  0.241  18.95
8374.5  94.0  2.368  0.219  19.36
8375.0  84.5  2.448  0.222  21.24
8375.5  74.9  2.330  0.258  10.62
8376.0  73.5  2.301  0.274  11.96
8376.5  94.0  2.333  0.256  13.26
8377.0  72.7  2.362  0.265  19.47
8377.5  95.0  2.289  0.294  18.49
8378.0  93.4  2.341  0.268  17.00
8378.5  103.0  2.446  0.270  22.08
8379.0  114.5  2.380  0.248  14.36
8379.5  82.0  2.301  0.209  15.39
8380.0  83.6  2.357  0.197  16.64
8380.5  102.3  2.333  0.297  20.66
8381.0  84.5  2.320  0.282  26.46
8381.5  66.3  2.303  0.265  16.22
8382.0  75.8  2.443  0.290  21.60
8382.5  89.6  2.229  0.264  17.15
8383.0  70.4  2.394  0.266  21.52
8383.5  109.2  2.324  0.200  20.83
8384.0  100.6  2.421  0.214  25.31
8384.5  73.8  2.286  0.229  12.64
8385.0  74.8  2.377  0.260  17.89
8385.5  86.6  2.403  0.233  15.85
8386.0  79.9  2.355  0.244  21.17
8386.5  83.8  2.364  0.288  14.95
8387.0  93.2  2.307  0.266  21.53
8387.5  82.7  2.318  0.258  17.05
8388.0  102.1  2.331  0.210  26.11
8388.5  95.4  2.363  0.298  24.53
8389.0  97.3  2.280  0.225  18.39
8389.5  71.2  2.253  0.278  18.04
8390.0  67.8  2.306  0.292  19.03
8390.5  84.8  2.375  0.214  20.12
8391.0  106.5  2.315  0.240  21.05
8391.5  99.6  2.320  0.257  15.82
8392.0  93.9  2.367  0.232  26.37
8392.5  100.0  2.350  0.264  16.44
8393.0  71.7  2.361  0.217  16.70
8393.5  67.7  2.371  0.273  14.88
8394.0  100.6  2.330  0.212  21.15
8394.5  77.7  2.290  0.222  14.77
8395.0  75.4  2.273  0.228  16.83
8395.5  92.3  2.267  0.205  20.09
8396.0  82.0  2.384  0.221  13.01
8396.5  83.5  2.267  0.268  20.76
8397.0  89.1  2.385  0.249  15.48
8397.5  87.1  2.323  0.256  27.75
8398.0  65.5  2.370  0.213  18.05
8398.5  79.4  2.375  0.283  15.19
8399.0  93.7  2.342  0.301  14.17
8399.5  76.8  2.369  0.219  16.50
8400.0  81.1  2.365  0.231  15.61
8400.5  81.5  2.404  0.270  14.32
8401.0  54.4  2.281  0.251  17.66
8401.5  86.2  2.359  0.236  18.99
8402.0  77.7  2.324  0.273  12.56
8402.5  92.0  2.319  0.207  18.15
8403.0  88.1  2.324  0.278  15.76
8403.5  75.5  2.414  0.198  19.91
8404.0  90.6  2.280  0.271  16.92
8404.5  79.2  2.341  0.275  11.60
8405.0  76.8  2.316  0.233  17.20
8405.5  67.5  2.393  0.249  23.49
8406.0  90.3  2.300  0.211  24.68
8406.5  83.2  2.336  0.319  17.11
8407.0  78.8  2.397  0.243  17.45
8407.5  66.2  2.397  0.215  21.92
8408.0  98.2  2.341  0.233  10.35
8408.5  81.6  2.350  0.246  16.52
8409.0  89.1  2.381  0.264  16.24
8409.5  88.7  2.345  0.264  20.01
8410.0  68.5  2.311  0.259  12.84
8410.5  93.2  2.277  0.263  14.74
8411.0  81.9  2.359  0.252  15.92
8411.5  82.6  2.294  0.253  15.59
8412.0  61.7  2.362  0.192  13.06
8412.5  99.7  2.297  0.278  19.86
8413.0  86.2  2.361  0.222  22.91
8413.5  82.4  2.320  0.253  23.15
