~Version Information
VERS.                  2.0 : LAS version
WRAP.                  NO  : One line per depth step

~Well Information
#MNEM.UNIT          Data                    Description
WELL.               FORMATION-TOPS-WELL     : Well Name
LOC.                TRAINING-BASIN          : Location
SRVC.               DRAKE AI SYSTEM         : Service Company
DATE.               2025-05-16              : Creation Date
NULL.               -999.25                 : Null value

~Curve Information
#MNEM.UNIT          API Code                Description
DEPT.FT             00 000 00 00            : Depth
GR.API              00 001 00 00            : Gamma Ray
RHOB.G/C3           00 002 00 00            : Bulk Density
NPHI.V/V            00 003 00 00            : Neutron Porosity
RESD.OHM            00 004 00 00            : Deep Resistivity

~Parameter Information
#PARAM.UNIT         Value                   Description
STRT.FT             6534.0                  : Start Depth
STOP.FT             8569.0                  : Stop Depth
STEP.FT             0.5                     : Step Size

~ASCII Log Data
6534.0  72.0  2.452  0.294  20.88
6534.5  97.0  2.322  0.286  13.13
6535.0  88.4  2.386  0.236  23.60
6535.5  66.9  2.327  0.264  23.20
6536.0  78.1  2.355  0.261  6.15
6536.5  104.8  2.333  0.238  19.72
6537.0  55.9  2.250  0.190  18.61
6537.5  79.9  2.381  0.277  15.27
6538.0  100.2  2.297  0.236  25.00
6538.5  74.6  2.293  0.241  15.60
6539.0  76.9  2.326  0.260  20.20
6539.5  83.9  2.336  0.223  12.99
6540.0  102.9  2.368  0.264  17.04
6540.5  77.3  2.324  0.292  14.32
6541.0  79.7  2.484  0.257  22.29
6541.5  79.8  2.273  0.286  19.53
6542.0  111.5  2.334  0.230  12.35
6542.5  111.2  2.374  0.266  18.61
6543.0  97.0  2.404  0.248  21.91
6543.5  89.6  2.381  0.188  14.10
6544.0  93.8  2.392  0.284  15.69
6544.5  102.9  2.315  0.249  17.40
6545.0  73.8  2.380  0.263  19.44
6545.5  99.1  2.415  0.244  19.03
6546.0  70.0  2.375  0.242  24.38
6546.5  77.3  2.470  0.242  15.33
6547.0  95.9  2.347  0.237  22.68
6547.5  67.9  2.333  0.241  19.73
6548.0  83.3  2.264  0.232  23.85
6548.5  74.7  2.328  0.231  21.15
6549.0  81.9  2.376  0.215  17.77
6549.5  51.4  2.395  0.332  16.89
6550.0  63.7  2.420  0.230  21.66
6550.5  76.6  2.361  0.258  21.57
6551.0  96.1  2.322  0.213  22.42
6551.5  82.9  2.284  0.247  16.54
6552.0  85.0  2.341  0.222  12.71
6552.5  93.3  2.299  0.229  18.30
6553.0  74.4  2.340  0.229  21.81
6553.5  88.4  2.281  0.257  14.78
6554.0  75.3  2.332  0.229  17.76
6554.5  64.3  2.318  0.297  24.46
6555.0  80.3  2.401  0.254  13.71
6555.5  91.9  2.292  0.193  19.05
6556.0  89.1  2.266  0.261  15.59
6556.5  84.9  2.389  0.306  16.02
6557.0  113.7  2.425  0.259  17.62
6557.5  90.0  2.389  0.265  21.16
6558.0  96.7  2.343  0.241  12.64
6558.5  111.9  2.307  0.269  18.58
6559.0  69.5  2.340  0.279  24.99
6559.5  72.5  2.330  0.257  24.74
6560.0  105.9  2.290  0.290  20.05
6560.5  75.4  2.351  0.289  18.74
6561.0  85.4  2.414  0.263  4.45
6561.5  97.8  2.393  0.225  6.96
6562.0  95.7  2.368  0.235  18.08
6562.5  106.1  2.347  0.258  15.64
6563.0  102.9  2.301  0.246  6.52
6563.5  97.8  2.405  0.225  20.35
6564.0  75.7  2.278  0.276  20.12
6564.5  94.5  2.243  0.236  18.67
6565.0  88.8  2.347  0.219  16.53
6565.5  69.1  2.329  0.265  14.91
6566.0  102.0  2.332  0.231  23.20
6566.5  94.7  2.386  0.221  20.73
6567.0  85.5  2.377  0.253  17.11
6567.5  82.2  2.383  0.334  14.62
6568.0  70.6  2.405  0.235  13.41
6568.5  87.4  2.287  0.249  19.66
6569.0  90.6  2.437  0.239  21.15
6569.5  75.0  2.307  0.251  18.36
6570.0  98.9  2.365  0.208  14.42
6570.5  71.8  2.444  0.242  13.64
6571.0  59.5  2.431  0.281  17.25
6571.5  97.5  2.421  0.210  17.71
6572.0  80.2  2.349  0.295  21.14
6572.5  83.5  2.277  0.199  14.89
6573.0  74.9  2.297  0.277  19.25
6573.5  65.7  2.334  0.279  27.77
6574.0  100.1  2.316  0.283  20.55
6574.5  76.7  2.314  0.254  14.60
6575.0  104.9  2.338  0.260  14.91
6575.5  94.7  2.318  0.272  14.84
6576.0  81.2  2.324  0.209  15.27
6576.5  72.0  2.355  0.267  19.43
6577.0  76.2  2.300  0.225  20.92
6577.5  70.4  2.386  0.250  14.69
6578.0  110.0  2.397  0.292  24.66
6578.5  87.0  2.327  0.267  17.43
6579.0  98.8  2.350  0.225  25.26
6579.5  69.8  2.426  0.298  26.71
6580.0  87.2  2.390  0.212  12.76
6580.5  99.1  2.431  0.225  25.26
6581.0  81.0  2.389  0.279  14.36
6581.5  97.4  2.402  0.228  17.93
6582.0  72.0  2.322  0.271  14.42
6582.5  68.6  2.349  0.270  21.24
6583.0  89.6  2.312  0.254  15.38
6583.5  80.4  2.354  0.270  18.79
6584.0  92.7  2.377  0.235  17.12
6584.5  61.3  2.362  0.229  14.79
6585.0  93.5  2.275  0.246  15.61
6585.5  116.2  2.311  0.250  25.98
6586.0  84.7  2.291  0.222  15.93
6586.5  85.4  2.366  0.192  22.30
6587.0  87.2  2.330  0.285  13.33
6587.5  62.7  2.363  0.278  18.46
6588.0  90.1  2.246  0.253  19.09
6588.5  65.7  2.355  0.226  19.91
6589.0  79.9  2.299  0.331  16.82
6589.5  99.9  2.386  0.282  20.09
6590.0  76.2  2.389  0.206  21.71
6590.5  91.0  2.378  0.268  15.39
6591.0  97.2  2.397  0.242  22.23
6591.5  88.3  2.391  0.301  15.49
6592.0  68.5  2.324  0.267  8.27
6592.5  81.0  2.278  0.216  24.57
6593.0  108.5  2.386  0.214  11.98
6593.5  60.7  2.366  0.210  20.62
6594.0  81.7  2.236  0.255  15.29
6594.5  78.4  2.264  0.200  16.34
6595.0  86.4  2.285  0.168  22.53
6595.5  94.0  2.346  0.235  22.33
6596.0  104.3  2.280  0.213  19.88
6596.5  81.8  2.383  0.239  16.00
6597.0  94.7  2.325  0.185  26.79
6597.5  91.0  2.427  0.246  24.70
6598.0  90.7  2.371  0.250  11.54
6598.5  78.2  2.343  0.216  23.56
6599.0  73.0  2.371  0.193  8.78
6599.5  71.8  2.303  0.248  19.12
6600.0  75.9  2.422  0.284  21.67
6600.5  88.9  2.403  0.175  12.42
6601.0  94.1  2.362  0.250  15.93
6601.5  88.9  2.447  0.172  10.72
6602.0  78.4  2.277  0.268  17.07
6602.5  106.7  2.390  0.231  25.11
6603.0  103.2  2.410  0.249  18.32
6603.5  80.8  2.375  0.209  16.51
6604.0  75.1  2.342  0.285  10.21
6604.5  86.6  2.247  0.275  21.61
6605.0  100.2  2.404  0.295  19.73
6605.5  89.0  2.329  0.218  8.74
6606.0  91.7  2.346  0.273  20.70
6606.5  82.5  2.399  0.372  19.78
6607.0  90.5  2.399  0.206  13.03
6607.5  103.5  2.292  0.246  14.20
6608.0  82.1  2.301  0.232  11.12
6608.5  86.7  2.315  0.215  14.60
6609.0  88.0  2.384  0.269  17.81
6609.5  88.4  2.404  0.263  21.72
6610.0  68.1  2.375  0.198  16.03
6610.5  62.5  2.328  0.241  14.43
6611.0  72.8  2.343  0.196  22.93
6611.5  87.0  2.419  0.178  15.92
6612.0  91.6  2.294  0.268  13.01
6612.5  78.6  2.389  0.275  20.62
6613.0  101.5  2.345  0.230  22.50
6613.5  83.3  2.374  0.220  21.35
6614.0  85.2  2.351  0.252  22.01
6614.5  82.7  2.402  0.268  23.85
6615.0  86.6  2.377  0.327  15.93
6615.5  93.5  2.354  0.261  19.98
6616.0  93.0  2.463  0.305  17.36
6616.5  74.2  2.413  0.293  18.83
6617.0  103.3  2.364  0.204  22.74
6617.5  71.9  2.389  0.203  17.41
6618.0  86.0  2.356  0.256  21.25
6618.5  81.7  2.315  0.260  21.56
6619.0  72.4  2.264  0.210  20.66
6619.5  84.1  2.453  0.228  21.91
6620.0  76.1  2.328  0.237  20.20
6620.5  85.9  2.379  0.233  15.56
6621.0  89.8  2.413  0.276  15.78
6621.5  102.7  2.328  0.258  18.02
6622.0  88.7  2.336  0.283  19.58
6622.5  77.7  2.376  0.240  24.56
6623.0  80.3  2.376  0.223  16.55
6623.5  86.7  2.352  0.259  18.09
6624.0  86.1  2.297  0.308  15.25
6624.5  102.5  2.414  0.296  16.77
6625.0  101.7  2.388  0.267  22.47
6625.5  80.7  2.359  0.198  17.20
6626.0  78.4  2.390  0.227  18.01
6626.5  54.3  2.188  0.232  25.02
6627.0  78.4  2.353  0.280  13.08
6627.5  73.3  2.329  0.334  21.50
6628.0  80.7  2.252  0.226  20.38
6628.5  89.7  2.377  0.236  22.09
6629.0  87.1  2.301  0.272  16.21
6629.5  84.6  2.421  0.269  12.74
6630.0  87.4  2.343  0.228  24.70
6630.5  83.5  2.383  0.264  10.14
6631.0  87.4  2.321  0.306  17.49
6631.5  46.2  2.391  0.206  16.10
6632.0  81.8  2.421  0.243  20.11
6632.5  83.7  2.271  0.248  11.18
6633.0  80.9  2.381  0.302  12.99
6633.5  82.4  2.268  0.263  13.00
6634.0  93.4  2.344  0.237  19.49
6634.5  77.8  2.363  0.202  11.62
6635.0  111.4  2.295  0.229  11.11
6635.5  93.3  2.333  0.227  22.89
6636.0  84.9  2.425  0.214  21.43
6636.5  82.5  2.395  0.221  20.06
6637.0  84.0  2.402  0.263  8.52
6637.5  74.0  2.432  0.248  10.80
6638.0  83.9  2.334  0.222  13.35
6638.5  88.3  2.400  0.243  12.39
6639.0  92.0  2.320  0.258  19.57
6639.5  92.0  2.412  0.223  16.37
6640.0  81.7  2.294  0.225  19.43
6640.5  68.0  2.308  0.260  14.98
6641.0  77.0  2.437  0.263  8.98
6641.5  104.3  2.380  0.228  12.48
6642.0  95.8  2.366  0.248  18.81
6642.5  89.4  2.341  0.271  23.62
6643.0  75.9  2.331  0.264  20.73
6643.5  85.0  2.346  0.210  16.71
6644.0  69.9  2.346  0.243  19.49
6644.5  78.4  2.384  0.232  18.77
6645.0  82.1  2.435  0.229  18.23
6645.5  80.7  2.308  0.226  14.98
6646.0  96.5  2.359  0.203  17.05
6646.5  68.0  2.391  0.317  16.29
6647.0  74.6  2.336  0.248  16.99
6647.5  68.5  2.391  0.289  12.01
6648.0  70.2  2.281  0.255  17.65
6648.5  86.5  2.465  0.171  14.07
6649.0  65.8  2.367  0.262  14.72
6649.5  94.0  2.348  0.312  16.17
6650.0  82.0  2.314  0.250  24.06
6650.5  85.8  2.337  0.235  26.69
6651.0  88.9  2.387  0.236  21.58
