~Version Information
VERS.                  2.0 : LAS version
WRAP.                  NO  : One line per depth step

~Well Information
#MNEM.UNIT          Data                    Description
WELL.               FORMATION-TOPS-WELL     : Well Name
LOC.                TRAINING-BASIN          : Location
SRVC.               DRAKE AI SYSTEM         : Service Company
DATE.               2025-05-16              : Creation Date
NULL.               -999.25                 : Null value

~Curve Information
#MNEM.UNIT          API Code                Description
DEPT.FT             00 000 00 00            : Depth
GR.API              00 001 00 00            : Gamma Ray
RHOB.G/C3           00 002 00 00            : Bulk Density
NPHI.V/V            00 003 00 00            : Neutron Porosity
RESD.OHM            00 004 00 00            : Deep Resistivity

~Parameter Information
#PARAM.UNIT         Value                   Description
STRT.FT             6534.0                  : Start Depth
STOP.FT             8569.0                  : Stop Depth
STEP.FT             0.5                     : Step Size

~ASCII Log Data
# ...
7944.0  91.2  2.402  0.239  13.56
7944.5  86.1  2.426  0.281  18.99
7945.0  100.8  2.281  0.274  22.92
7945.5  101.3  2.362  0.261  23.38
7946.0  81.4  2.428  0.267  17.56
7946.5  86.5  2.323  0.245  17.89
7947.0  74.3  2.409  0.222  24.36
7947.5  74.7  2.358  0.264  15.98
7948.0  78.1  2.306  0.258  21.86
7948.5  90.9  2.324  0.216  22.19
7949.0  78.8  2.361  0.266  16.21
7949.5  103.5  2.322  0.268  16.33
7950.0  90.7  2.406  0.233  23.60
7950.5  81.8  2.385  0.287  16.74
7951.0  97.2  2.331  0.257  16.54
7951.5  76.2  2.283  0.212  15.95
7952.0  77.3  2.355  0.255  17.98
7952.5  101.2  2.443  0.281  16.06
7953.0  69.3  2.404  0.260  24.28
7953.5  83.2  2.400  0.229  18.95
7954.0  80.4  2.389  0.250  20.05
7954.5  76.2  2.439  0.255  11.17
7955.0  96.8  2.363  0.222  19.23
7955.5  95.4  2.446  0.164  10.98
7956.0  93.1  2.361  0.324  21.36
7956.5  85.3  2.335  0.254  17.25
7957.0  92.7  2.427  0.261  13.89
7957.5  61.0  2.354  0.235  22.87
7958.0  80.1  2.368  0.250  18.86
7958.5  85.4  2.365  0.290  16.91
7959.0  77.9  2.385  0.265  20.25
7959.5  87.2  2.355  0.211  15.36
7960.0  113.6  2.293  0.309  10.98
7960.5  86.4  2.387  0.248  13.61
7961.0  89.9  2.365  0.238  17.71
7961.5  87.4  2.334  0.239  19.15
7962.0  70.6  2.310  0.235  13.49
7962.5  67.1  2.385  0.243  16.02
7963.0  65.6  2.304  0.284  16.36
7963.5  88.4  2.321  0.260  15.98
7964.0  60.5  2.253  0.271  13.96
7964.5  92.7  2.335  0.265  17.15
7965.0  82.6  2.397  0.312  25.85
7965.5  90.4  2.351  0.220  17.50
7966.0  69.1  2.297  0.261  18.25
7966.5  103.6  2.433  0.282  15.32
7967.0  84.3  2.377  0.255  14.55
7967.5  62.3  2.313  0.226  17.06
7968.0  99.8  2.366  0.233  19.68
7968.5  69.7  2.337  0.227  22.26
7969.0  70.3  2.258  0.264  17.89
7969.5  70.6  2.376  0.204  22.85
7970.0  81.3  2.320  0.286  15.00
7970.5  92.0  2.435  0.274  21.20
7971.0  91.7  2.412  0.206  14.97
7971.5  115.3  2.301  0.204  19.26
7972.0  77.0  2.277  0.325  17.45
7972.5  79.5  2.330  0.261  19.95
7973.0  68.6  2.390  0.264  18.48
7973.5  71.8  2.383  0.321  13.17
7974.0  98.4  2.433  0.214  14.14
7974.5  79.0  2.357  0.218  21.53
7975.0  90.4  2.278  0.239  17.40
7975.5  85.4  2.333  0.240  17.72
7976.0  72.4  2.287  0.267  19.75
7976.5  75.1  2.402  0.277  19.43
7977.0  62.5  2.376  0.322  17.44
7977.5  82.6  2.321  0.275  16.46
7978.0  85.9  2.345  0.255  19.74
7978.5  81.4  2.418  0.229  16.28
7979.0  96.9  2.418  0.322  13.73
7979.5  69.1  2.340  0.272  7.58
7980.0  85.6  2.329  0.202  15.81
7980.5  73.0  2.400  0.245  17.99
7981.0  89.6  2.318  0.278  11.09
7981.5  74.2  2.305  0.229  27.65
7982.0  94.8  2.362  0.302  25.32
7982.5  92.6  2.344  0.239  18.28
7983.0  89.0  2.327  0.230  18.71
7983.5  88.1  2.436  0.260  11.75
7984.0  88.4  2.344  0.213  25.31
7984.5  89.0  2.338  0.282  15.81
7985.0  91.4  2.333  0.258  23.65
7985.5  80.7  2.357  0.274  22.91
7986.0  71.6  2.336  0.262  13.79
7986.5  84.5  2.352  0.254  18.26
7987.0  91.2  2.267  0.295  16.88
7987.5  91.1  2.292  0.242  13.32
7988.0  105.8  2.426  0.277  17.09
7988.5  79.0  2.403  0.262  18.03
7989.0  68.1  2.408  0.258  18.73
7989.5  78.5  2.344  0.246  20.35
7990.0  79.9  2.289  0.221  14.22
7990.5  75.3  2.398  0.261  17.62
7991.0  72.5  2.394  0.217  16.48
7991.5  83.4  2.309  0.197  16.25
7992.0  84.2  2.489  0.262  12.56
7992.5  72.5  2.379  0.206  13.26
7993.0  71.3  2.391  0.295  14.07
7993.5  89.4  2.291  0.232  18.38
7994.0  90.7  2.454  0.254  17.63
7994.5  75.2  2.358  0.233  17.49
7995.0  82.9  2.379  0.256  17.14
7995.5  91.0  2.345  0.274  16.84
7996.0  86.6  2.373  0.280  10.18
7996.5  103.8  2.279  0.235  19.26
7997.0  68.9  2.394  0.232  22.48
7997.5  66.3  2.373  0.166  15.52
7998.0  93.7  2.272  0.294  14.45
7998.5  89.2  2.406  0.235  19.94
7999.0  78.4  2.350  0.256  23.33
7999.5  98.0  2.426  0.280  18.57
8000.0  77.3  2.313  0.312  23.96
8000.5  91.1  2.263  0.211  24.31
8001.0  82.8  2.363  0.233  20.81
8001.5  75.7  2.373  0.235  16.34
8002.0  79.9  2.448  0.203  12.55
8002.5  99.1  2.319  0.251  13.67
8003.0  80.4  2.373  0.241  15.63
8003.5  103.1  2.403  0.242  19.92
8004.0  86.9  2.362  0.226  19.98
8004.5  82.0  2.361  0.252  13.89
8005.0  72.9  2.283  0.258  20.70
8005.5  93.1  2.398  0.256  14.73
8006.0  87.5  2.349  0.235  14.26
8006.5  84.1  2.465  0.270  12.09
8007.0  86.2  2.412  0.264  12.93
8007.5  83.5  2.325  0.234  20.80
8008.0  70.6  2.320  0.242  15.00
8008.5  92.9  2.286  0.238  10.13
8009.0  107.3  2.349  0.215  14.09
8009.5  105.4  2.402  0.240  19.32
8010.0  86.3  2.375  0.221  11.25
8010.5  82.0  2.413  0.252  14.00
8011.0  86.0  2.320  0.250  15.85
8011.5  77.5  2.407  0.217  19.53
8012.0  88.4  2.347  0.265  15.20
8012.5  89.5  2.414  0.219  14.67
8013.0  70.6  2.275  0.244  18.03
8013.5  81.1  2.315  0.208  27.05
8014.0  95.5  2.316  0.234  20.32
8014.5  95.8  2.390  0.233  15.07
8015.0  69.9  2.271  0.316  17.74
8015.5  98.2  2.344  0.209  19.71
8016.0  81.6  2.408  0.246  14.98
8016.5  84.7  2.386  0.216  17.36
8017.0  83.0  2.352  0.290  20.93
8017.5  59.6  2.426  0.308  11.08
8018.0  90.1  2.372  0.240  18.32
8018.5  65.7  2.364  0.300  10.96
8019.0  95.0  2.336  0.260  17.89
8019.5  69.4  2.441  0.243  12.67
8020.0  97.7  2.431  0.239  15.35
8020.5  87.8  2.368  0.209  20.21
8021.0  92.3  2.369  0.242  19.22
8021.5  76.4  2.360  0.240  14.20
8022.0  63.3  2.353  0.251  10.93
8022.5  73.2  2.343  0.253  18.32
8023.0  88.9  2.376  0.275  14.29
8023.5  90.5  2.313  0.288  19.12
8024.0  74.7  2.311  0.309  16.37
8024.5  100.9  2.308  0.269  25.09
8025.0  84.8  2.395  0.225  16.61
8025.5  65.3  2.253  0.212  16.23
8026.0  88.2  2.437  0.244  22.19
8026.5  75.7  2.320  0.264  18.57
8027.0  94.9  2.289  0.224  16.98
8027.5  87.7  2.348  0.240  11.93
8028.0  86.8  2.297  0.251  17.34
8028.5  81.5  2.319  0.224  16.58
8029.0  98.5  2.326  0.284  16.54
8029.5  74.1  2.346  0.188  17.06
8030.0  89.0  2.246  0.282  20.81
8030.5  85.5  2.371  0.320  19.42
8031.0  72.6  2.319  0.255  11.73
8031.5  84.1  2.253  0.238  14.68
8032.0  73.6  2.355  0.251  19.00
8032.5  109.5  2.442  0.246  17.33
8033.0  97.2  2.263  0.264  18.37
8033.5  65.4  2.340  0.256  13.86
8034.0  79.6  2.355  0.228  22.99
8034.5  92.3  2.416  0.275  19.40
8035.0  99.1  2.296  0.222  24.30
8035.5  95.5  2.400  0.248  24.41
8036.0  107.9  2.313  0.270  16.45
8036.5  86.6  2.390  0.287  13.37
8037.0  100.4  2.404  0.251  19.66
8037.5  71.1  2.330  0.277  21.95
8038.0  95.4  2.288  0.245  22.81
8038.5  82.5  2.365  0.273  21.03
8039.0  83.2  2.356  0.260  21.97
8039.5  101.6  2.291  0.271  15.90
8040.0  96.6  2.368  0.274  21.05
8040.5  83.0  2.346  0.267  17.03
8041.0  115.6  2.347  0.230  17.96
8041.5  100.1  2.355  0.228  22.74
8042.0  79.7  2.349  0.246  20.42
8042.5  55.9  2.322  0.225  13.75
8043.0  88.3  2.380  0.310  23.19
8043.5  80.3  2.298  0.232  19.08
8044.0  77.5  2.447  0.242  17.31
8044.5  79.1  2.213  0.259  11.98
8045.0  86.8  2.390  0.231  16.22
8045.5  100.8  2.393  0.218  20.47
8046.0  73.2  2.335  0.262  18.13
8046.5  84.2  2.290  0.251  15.83
8047.0  82.6  2.353  0.271  18.79
8047.5  75.1  2.302  0.264  17.53
8048.0  88.4  2.334  0.317  25.65
8048.5  106.3  2.306  0.265  15.91
8049.0  92.4  2.399  0.204  17.78
8049.5  85.9  2.346  0.244  17.68
8050.0  79.7  2.408  0.272  18.99
8050.5  85.6  2.348  0.260  17.16
8051.0  64.4  2.262  0.246  18.99
8051.5  84.3  2.358  0.192  19.46
8052.0  82.7  2.420  0.250  22.48
8052.5  90.7  2.344  0.275  7.18
8053.0  96.4  2.289  0.281  10.70
8053.5  93.9  2.333  0.233  12.85
8054.0  83.4  2.294  0.292  20.48
8054.5  78.8  2.397  0.253  18.37
8055.0  77.5  2.293  0.258  19.92
8055.5  75.6  2.300  0.257  20.01
8056.0  77.6  2.347  0.248  15.46
8056.5  83.5  2.413  0.213  21.90
8057.0  70.4  2.302  0.224  19.83
8057.5  90.3  2.339  0.218  21.34
8058.0  83.7  2.327  0.237  14.81
8058.5  75.0  2.332  0.262  12.97
8059.0  77.3  2.241  0.277  14.26
8059.5  95.1  2.281  0.197  18.37
8060.0  95.8  2.309  0.199  11.30
8060.5  113.7  2.364  0.258  19.13
8061.0  91.8  2.321  0.273  24.70
