~Version Information
VERS.                  2.0 : LAS version
WRAP.                  NO  : One line per depth step

~Well Information
#MNEM.UNIT          Data                    Description
WELL.               FORMATION-TOPS-WELL     : Well Name
LOC.                TRAINING-BASIN          : Location
SRVC.               DRAKE AI SYSTEM         : Service Company
DATE.               2025-05-16              : Creation Date
NULL.               -999.25                 : Null value

~Curve Information
#MNEM.UNIT          API Code                Description
DEPT.FT             00 000 00 00            : Depth
GR.API              00 001 00 00            : Gamma Ray
RHOB.G/C3           00 002 00 00            : Bulk Density
NPHI.V/V            00 003 00 00            : Neutron Porosity
RESD.OHM            00 004 00 00            : Deep Resistivity

~Parameter Information
#PARAM.UNIT         Value                   Description
STRT.FT             6534.0                  : Start Depth
STOP.FT             8569.0                  : Stop Depth
STEP.FT             0.5                     : Step Size

~ASCII Log Data
# ...
7004.0  47.0  2.285  0.225  11.41
7004.5  76.4  2.418  0.227  19.80
7005.0  71.7  2.270  0.275  17.67
7005.5  69.9  2.424  0.275  20.06
7006.0  96.5  2.311  0.306  17.85
7006.5  95.0  2.353  0.239  8.65
7007.0  75.7  2.361  0.247  11.74
7007.5  99.1  2.326  0.225  18.32
7008.0  86.2  2.378  0.228  21.48
7008.5  79.9  2.338  0.304  22.56
7009.0  76.7  2.306  0.220  16.41
7009.5  75.7  2.310  0.256  18.67
7010.0  90.7  2.334  0.256  15.55
7010.5  92.8  2.430  0.252  25.80
7011.0  87.9  2.351  0.234  16.20
7011.5  60.4  2.319  0.294  16.97
7012.0  88.6  2.289  0.281  19.42
7012.5  91.8  2.348  0.238  19.03
7013.0  77.0  2.323  0.309  27.54
7013.5  85.5  2.240  0.278  13.87
7014.0  62.6  2.376  0.255  11.38
7014.5  70.2  2.389  0.204  16.51
7015.0  81.1  2.377  0.266  20.01
7015.5  81.3  2.442  0.271  19.35
7016.0  89.2  2.371  0.257  24.68
7016.5  70.8  2.335  0.247  19.91
7017.0  80.9  2.378  0.251  9.20
7017.5  79.1  2.392  0.259  18.12
7018.0  91.3  2.346  0.259  18.19
7018.5  102.1  2.364  0.272  18.49
7019.0  105.7  2.345  0.215  13.42
7019.5  66.2  2.419  0.254  10.80
7020.0  84.4  2.414  0.238  25.63
7020.5  71.6  2.339  0.266  16.58
7021.0  84.2  2.311  0.197  17.32
7021.5  90.1  2.346  0.259  16.69
7022.0  86.0  2.268  0.257  19.61
7022.5  84.4  2.389  0.267  16.69
7023.0  102.8  2.395  0.316  22.75
7023.5  93.7  2.299  0.196  27.11
7024.0  81.7  2.393  0.260  22.49
7024.5  85.3  2.339  0.227  15.47
7025.0  95.5  2.445  0.294  15.98
7025.5  92.3  2.468  0.253  11.72
7026.0  79.9  2.339  0.263  18.96
7026.5  63.7  2.274  0.234  21.81
7027.0  70.8  2.414  0.220  21.48
7027.5  86.8  2.439  0.261  22.01
7028.0  63.6  2.389  0.267  17.70
7028.5  83.2  2.352  0.210  22.51
7029.0  79.6  2.407  0.257  19.19
7029.5  97.0  2.293  0.249  19.45
7030.0  69.2  2.405  0.255  14.34
7030.5  61.8  2.315  0.243  18.45
7031.0  80.0  2.341  0.237  15.95
7031.5  92.6  2.415  0.215  19.03
7032.0  97.8  2.413  0.235  20.95
7032.5  74.1  2.343  0.264  12.69
7033.0  90.6  2.318  0.308  19.23
7033.5  71.7  2.357  0.265  20.54
7034.0  76.0  2.306  0.195  20.48
7034.5  91.8  2.411  0.283  24.65
7035.0  93.6  2.317  0.261  16.53
7035.5  73.0  2.300  0.288  22.08
7036.0  90.7  2.394  0.308  21.90
7036.5  62.6  2.368  0.288  19.79
7037.0  82.6  2.320  0.260  17.77
7037.5  71.4  2.323  0.250  16.11
7038.0  75.3  2.339  0.281  25.45
7038.5  69.7  2.305  0.239  13.62
7039.0  91.6  2.359  0.247  18.17
7039.5  91.6  2.340  0.281  20.05
7040.0  76.7  2.268  0.279  23.66
7040.5  89.5  2.329  0.234  17.76
7041.0  88.1  2.421  0.275  21.36
7041.5  83.5  2.304  0.223  21.62
7042.0  110.9  2.320  0.234  6.81
7042.5  74.9  2.330  0.269  16.92
7043.0  85.2  2.345  0.316  20.98
7043.5  80.4  2.281  0.284  19.73
7044.0  80.5  2.311  0.257  20.04
7044.5  86.9  2.340  0.200  17.51
7045.0  81.5  2.381  0.236  20.28
7045.5  74.7  2.375  0.256  18.97
7046.0  86.5  2.362  0.262  21.70
7046.5  99.2  2.362  0.242  17.57
7047.0  96.3  2.301  0.199  15.74
7047.5  87.4  2.254  0.232  22.62
7048.0  76.2  2.279  0.246  21.83
7048.5  87.2  2.368  0.226  22.47
7049.0  98.0  2.374  0.266  29.73
7049.5  99.3  2.301  0.220  16.20
7050.0  89.3  2.434  0.244  11.06
7050.5  80.6  2.432  0.237  25.38
7051.0  82.6  2.307  0.191  22.14
7051.5  94.3  2.355  0.238  19.09
7052.0  93.2  2.404  0.247  14.96
7052.5  63.9  2.425  0.281  19.94
7053.0  92.9  2.361  0.269  18.17
7053.5  93.5  2.326  0.254  24.60
7054.0  74.4  2.379  0.241  12.81
7054.5  75.8  2.376  0.263  30.49
7055.0  75.9  2.436  0.259  12.40
7055.5  76.8  2.388  0.193  14.65
7056.0  68.0  2.375  0.210  20.75
7056.5  88.8  2.348  0.183  13.95
7057.0  75.6  2.377  0.282  10.44
7057.5  84.2  2.242  0.168  20.48
7058.0  79.0  2.363  0.314  18.64
7058.5  88.1  2.382  0.270  17.57
7059.0  72.9  2.270  0.247  13.99
7059.5  87.9  2.297  0.272  12.54
7060.0  89.7  2.256  0.221  16.00
7060.5  94.9  2.377  0.226  19.78
7061.0  108.6  2.391  0.261  18.78
7061.5  59.9  2.279  0.236  20.73
7062.0  88.8  2.335  0.246  19.60
7062.5  76.5  2.300  0.229  14.07
7063.0  61.9  2.378  0.235  17.71
7063.5  95.1  2.302  0.251  11.88
7064.0  101.0  2.305  0.292  19.52
7064.5  80.3  2.371  0.254  18.77
7065.0  87.5  2.466  0.233  20.99
7065.5  84.2  2.309  0.267  14.80
7066.0  90.2  2.316  0.227  21.75
7066.5  95.6  2.335  0.241  12.41
7067.0  89.1  2.379  0.319  22.34
7067.5  89.1  2.359  0.223  17.62
7068.0  100.1  2.318  0.261  17.81
7068.5  83.0  2.327  0.240  16.98
7069.0  96.1  2.322  0.233  25.26
7069.5  75.1  2.295  0.241  23.45
7070.0  104.3  2.400  0.190  26.40
7070.5  93.9  2.331  0.217  20.00
7071.0  80.2  2.376  0.271  23.59
7071.5  59.6  2.319  0.242  17.61
7072.0  85.0  2.355  0.211  20.59
7072.5  70.8  2.404  0.195  21.67
7073.0  88.6  2.424  0.235  16.28
7073.5  102.4  2.398  0.241  24.05
7074.0  86.9  2.305  0.247  15.60
7074.5  82.9  2.277  0.288  21.82
7075.0  89.1  2.349  0.229  11.55
7075.5  88.4  2.375  0.248  18.84
7076.0  56.6  2.436  0.254  17.63
7076.5  87.9  2.346  0.194  20.67
7077.0  92.4  2.390  0.273  18.96
7077.5  81.9  2.364  0.234  18.85
7078.0  96.7  2.289  0.258  12.78
7078.5  83.5  2.382  0.241  17.19
7079.0  94.2  2.344  0.279  18.09
7079.5  112.3  2.393  0.254  10.80
7080.0  83.8  2.282  0.271  17.95
7080.5  61.7  2.391  0.263  21.11
7081.0  81.0  2.344  0.239  19.04
7081.5  64.3  2.325  0.220  15.02
7082.0  92.3  2.429  0.207  22.27
7082.5  100.7  2.391  0.169  32.10
7083.0  93.4  2.390  0.262  22.08
7083.5  88.8  2.343  0.222  20.61
7084.0  77.3  2.292  0.288  13.01
7084.5  103.9  2.286  0.254  20.78
7085.0  94.0  2.334  0.287  13.87
7085.5  88.4  2.280  0.275  20.79
7086.0  87.5  2.326  0.252  17.24
7086.5  86.3  2.348  0.236  18.62
7087.0  90.4  2.333  0.265  14.37
7087.5  77.6  2.360  0.242  18.78
7088.0  103.3  2.235  0.208  16.41
7088.5  86.8  2.390  0.228  25.79
7089.0  92.2  2.344  0.247  16.04
7089.5  79.8  2.379  0.260  27.23
7090.0  89.5  2.332  0.213  17.42
7090.5  57.6  2.343  0.228  24.60
7091.0  71.6  2.294  0.280  14.81
7091.5  84.6  2.362  0.222  25.00
7092.0  69.1  2.314  0.220  24.46
7092.5  114.3  2.363  0.291  21.96
7093.0  65.0  2.393  0.259  18.67
7093.5  89.2  2.358  0.217  15.84
7094.0  104.9  2.448  0.268  16.19
7094.5  90.8  2.371  0.241  13.65
7095.0  81.3  2.347  0.248  8.60
7095.5  78.4  2.360  0.233  17.36
7096.0  93.1  2.359  0.239  22.31
7096.5  75.4  2.382  0.283  14.58
7097.0  83.6  2.321  0.285  16.87
7097.5  93.3  2.367  0.327  17.59
7098.0  81.3  2.304  0.217  24.21
7098.5  86.1  2.357  0.283  15.12
7099.0  81.4  2.383  0.254  6.87
7099.5  73.4  2.394  0.263  13.86
7100.0  99.3  2.332  0.234  13.93
7100.5  101.7  2.410  0.272  21.37
7101.0  81.2  2.339  0.225  11.22
7101.5  81.8  2.290  0.289  20.66
7102.0  82.9  2.356  0.216  24.74
7102.5  91.5  2.387  0.237  19.73
7103.0  74.1  2.315  0.248  17.82
7103.5  83.9  2.282  0.213  19.22
7104.0  88.2  2.350  0.275  19.19
7104.5  92.7  2.345  0.295  23.21
7105.0  51.6  2.311  0.264  17.17
7105.5  89.8  2.417  0.225  14.80
7106.0  89.2  2.391  0.207  20.53
7106.5  97.1  2.400  0.322  19.93
7107.0  78.7  2.286  0.340  16.90
7107.5  78.8  2.336  0.280  10.87
7108.0  99.4  2.326  0.281  17.06
7108.5  66.2  2.331  0.274  23.90
7109.0  104.5  2.401  0.229  17.75
7109.5  115.7  2.322  0.259  19.30
7110.0  90.7  2.318  0.240  15.95
7110.5  94.8  2.402  0.254  20.47
7111.0  67.1  2.440  0.315  17.99
7111.5  76.7  2.415  0.235  15.73
7112.0  97.7  2.305  0.231  26.01
7112.5  89.3  2.248  0.212  20.10
7113.0  82.8  2.311  0.256  19.63
7113.5  87.8  2.344  0.231  23.77
7114.0  91.1  2.366  0.200  19.66
7114.5  81.5  2.325  0.236  19.40
7115.0  84.7  2.407  0.248  15.42
7115.5  84.6  2.379  0.252  8.60
7116.0  72.4  2.351  0.245  22.51
7116.5  88.9  2.279  0.227  20.24
7117.0  106.6  2.408  0.253  16.52
7117.5  105.8  2.348  0.253  22.33
7118.0  67.3  2.261  0.221  17.67
7118.5  91.8  2.411  0.253  20.69
7119.0  93.1  2.445  0.273  19.43
7119.5  80.1  2.339  0.230  20.70
7120.0  73.4  2.299  0.231  17.56
7120.5  69.2  2.406  0.232  17.04
7121.0  79.7  2.422  0.272  15.66
