~VERSION INFORMATION
VERS.           2.0   :CWLS Log ASCII Standard - VERSION 2.0
WRAP.           NO    :One Line per depth step
PROD.  Company   :LAS Producer
PROG.  DLIS to ASCII 12C0-302                          :LAS Program name and version
CREA.        2006/12/30 10:30                          :LAS Creation date {YYYY/MM/DD hh:mm}
SOURCE.     KGIII6-B1_12in_DLIS_1430-3100m.dlis        :DLIS File Name
FILE-ID.     CDF_LWD003                                :File Identification Number
#--------------------------------------------------
~WELL INFORMATION
#MNEM.UNIT      DATA             DESCRIPTION
#---- ------ --------------   -----------------------------
STRT .M      1429.9692       :START DEPTH     
STOP .M      3099.9684       :STOP DEPTH     
STEP .M         0.1524       :STEP     
NULL .          -999.25      :NULL VALUE
COMP .        Company:COMPANY
WELL .        W2:WELL
FLD  .        Block                  :FIELD
LOC  .        Offshore                                 :LOCATION
CNTY .        Actinia                                  :COUNTY
STAT .        State                           :STATE
CTRY .                                                 :COUNTRY
API  .        06INM0159                                :API NUMBER
UWI  .                                                 :UNIQUE WELL ID
DATE .        25-Dec-2006                              :LOG DATE {DD-MMM-YYYY}
SRVC .        Company                             :SERVICE COMPANY
LATI .DEG     N 16.2763                                :LATITUDE
LONG .DEG     E 82.0962                                :LONGITUDE
GDAT .                                                 :GeoDetic Datum
SECT .        12.25 in.                                :Section
#-----------------------------------------------------------------------------
~PARAMETER INFORMATION
#MNEM.UNIT    VALUE                      DESCRIPTION
#---- -----   --------------------       ------------------------
RUN  .                                   :RUN NUMBER
PDAT .        Lowest Astronomical Tide   :Permanent Datum
EPD  .M           0.000000               :Elevation of Permanent Datum above Mean Sea Level
EPD  .M           0.000000               :Elevation of tool zero above Mean Sea Level
LMF  .          Drill Floor              :Logging Measured From (Name of Logging Elevation Reference)
APD  .                                   :Elevation of Depth Reference (LMF) above Permanent Datum
TN1 .        PowerPulse                  :Tool Number 1
TN2 .        ARC,SADN                    :Tool Number 2
OS3  .          N/A                      :Other Services Line 3
OS2  .          InterACT                 :Other Services Line 2
OS1  .          Directional Surveys      :Other Services Line 1
MST  .DEGC      66.00000                 :Mud Sample Temperature
BHT  .DEGC     99.00000                  :Bottom Hole Temperature
RMS.OHMM      1000.00000                 :Resistivity of Mud Sample (RM)
MST.DEGC        66.00000                 :Mud Sample temperature (RM)
MW.LB/G         13.60000                 :Mud Weight (RM)
SHT.DEGC        25.00000                 :Surface Hole Temperature (RM)
BSAL .PPM     64350.00000                :Mud Salinity
MRT  .DEGC     99.00000                  :Maximum Recorded Temperature
RMB  .OHMM    1000.00000                 :Resistivity of Mud - BHT
MCST .DEGC      66.00000                 :Mud Cake Sample Temperature
RMCS .OHMM    1000.00000                 :Resistivity of Mud Cake Sample
MFST .DEGC      66.00000                 :Mud Filtrate Sample Temperature
RMFS .OHMM    1000.00000                 :Resistivity of Mud Filtrate Sample
RMS  .OHMM    1000.00000                 :Resistivity of Mud Sample
MSS  .        Shakers                    :Mud Sample Source
MFSS  .       Shakers                    :Mud Filtrate Sample Source
MCSS  .       Shakers                    :Mud Cake Sample Source
TCS  .         03 00                     :End Log Time
DCS  .         22-Dec-2006               :End Log Date
DFT  .        SOBM                       :Drilling Fluid Type
DFPH .           N/A                     :Drilling Fluid PH
DFV  .S       79.00000                   :Drilling Fluid Viscosity
DFD  .LB/G    13.600000                  :Drilling Fluid Density
DOWR .        75/25                      :Oil/Water Ratio
DFTS .        25.57                      :Drilling Fluid Total Solids
DHGS .        242.31                     :Drilling Fluid High Gravity Solids
TLAB .        18 00                      :Begin Log Time
DLAB .        15-Dec-2006                :Begin Log Date
RUN  .        2                          :Run Number
BLI  .M       3100.00000                 :Bottom Log Interval
TLI  .M        1430.00000                :Top Log Interval
WITN .        Peter/Ismad                 :Witness's Name
ENGI .        Hatim/Harsh/Sidy           :Engineer's Name
LUL  .        Zone 2                     :Logging Unit Location
LUN  .        OLU-KC-0103                :Logging Unit Number
RR5  .        No  Potassium in mud       :Remark Line 5
RR4  .        SADN Neutron Porosity is corrected for bit size, mud Hydrogen Index, temperature, pressure and mud salinity :Remark Line 4
RR3  .        SADN Density is corrected for Stand off by Spine and Ribs Plot :Remark Line 3
RR2  .        ARC8 Resistivity is environmentally corrected for mud resistivity and bit size. :Remark Line 2
RR1  .        GR is corrected for bit size, tool size and mud weight               :Remark Line 1
PDAT .        Lowest Astronomical Tide   :Permanent Datum
EPD  .M          0.00000                 :Elevation of Permanent Datum
DMF  .        Driller's Depth            :Drilling Measured From
LMF  .        Rotary table               :Log Measured From
APD  .M         25.60000                 :Above Permanent Datum
EDF  .M         25.60000                 :Elevation of Derrick Floor
EGL  .M       -80.360000                 :Elevation of Ground Level
EKB  .M         25.60000                 :Elevation of Kelly Bushing
TDL  .M       3100.00000                 :Total Depth - Logger
TDD  .M       3100.00000                 :Total Depth - Driller
MHD  .DEG       1.54000                  :Maximum Hole Deviation
AMD  .DEG     97.370000                  :Azimuth of Maximum Hole Deviation
BS   .IN        12.25000                 :Bit Size
BSDT .M       3100.00000                 :Bit Size Depth To
BSDF .M       1444.00000                 :Bit Size Depth From
CWEI .LB/M     236.16000                 :Casing Weight
CSIZ .IN        13.37500                 :Current Casing Size
CASG .         P-110                     :Casing Grade
CADT .        1433.6300                  :Casing Depth To
CDF  .        105.86000                  :Casing Depth From
CBLO .M       1433.6300                  :Casing Bottom Logger
CBDR .M       1433.6300                  :Casing Bottom Driller
#-----------------------------------------------------------------------------
~CURVE INFORMATION
#MNEM.UNIT   API CODE                                  DESCRIPTION
#---- -----  --------                                  -----------------------
DEPT .M                                                :DEPTH (BOREHOLE) {F10.4}
TDEP ..1IN                                             :0.1-ft Frame Depth {F13.4}
ROP5_RM.M/HR                                           :Rate of Penetration, Averaged over Last 5ft {F13.4}
AGTM .S                                                :ARC Gamma Ray Time After Bit {F13.4}
GR_ARC.GAPI                                            :ARC Gamma Ray {F13.4}
A16H .OHMM                                             :ARC Attenuation Resistivity 16-in. at 2 MHz {F13.4}
A22H .OHMM                                             :ARC Attenuation Resistivity 22-in. at 2 MHz {F13.4}
A28H .OHMM                                             :ARC Attenuation Resistivity 28-in. at 2 MHz {F13.4}
A34H .OHMM                                             :ARC Attenuation Resistivity 34-in. at 2 MHz {F13.4}
A40H .OHMM                                             :ARC Attenuation Resistivity 40-in. at 2 MHz {F13.4}
A16L .OHMM                                             :ARC Attenuation Resistivity 16-in. at 400 KHz {F13.4}
A22L .OHMM                                             :ARC Attenuation Resistivity 22-in. at 400 KHz {F13.4}
A28L .OHMM                                             :ARC Attenuation Resistivity 28-in. at 400 KHz {F13.4}
A34L .OHMM                                             :ARC Attenuation Resistivity 34-in. at 400 KHz {F13.4}
A40L .OHMM                                             :ARC Attenuation Resistivity 40-in. at 400 KHz {F13.4}
P16H .OHMM                                             :ARC Phase-Shift Resistivity 16-in. at 2 MHz {F13.4}
P22H .OHMM                                             :ARC Phase-Shift Resistivity 22-in. at 2 MHz {F13.4}
P28H .OHMM                                             :ARC Phase-Shift Resistivity 28-in. at 2 MHz {F13.4}
P34H .OHMM                                             :ARC Phase-Shift Resistivity 34-in. at 2 MHz {F13.4}
P40H .OHMM                                             :ARC Phase-Shift Resistivity 40-in. at 2 MHz {F13.4}
P16L .OHMM                                             :ARC Phase-Shift Resistivity 16-in. at 400 KHz {F13.4}
P22L .OHMM                                             :ARC Phase-Shift Resistivity 22-in. at 400 KHz {F13.4}
P28L .OHMM                                             :ARC Phase-Shift Resistivity 28-in. at 400 KHz {F13.4}
P34L .OHMM                                             :ARC Phase-Shift Resistivity 34-in. at 400 KHz {F13.4}
P40L .OHMM                                             :ARC Phase-Shift Resistivity 40-in. at 400 KHz {F13.4}
TAB_ARC_RES.S                                          :ARC Resistivity Time After Bit {F13.4}
ATMP .DEGC                                             :ARC Annular Temperature {F13.4}
RHOB .G/C3                                             :Bulk Density {F13.4}
DRHO .G/C3                                             :Bulk Density Correction {F13.4}
TAB_DEN.S                                              :Density Time After Bit {F13.4}
TNPH .PU                                               :Thermal Neutron Porosity (Ratio Method) in Selected Lithology {F13.4}
TAB_NEU.S                                              :Neutron Time After Bit {F13.4}
HORD .IN                                               :Horizontal Hole Diameter {F13.4}
VERD .IN                                               :Vertical Hole Diameter {F13.4}
DCHO .IN                                               :Density Caliper, Horizontal {F13.4}
DCVE .IN                                               :Density Caliper, Vertical {F13.4}
DCAV .IN                                               :Density Caliper, Average {F13.4}
APRS_ARC.KPA                                           :ARC Annular Pressure {F13.4}
ECD_ARC.G/C3                                           :Equivalent Circulating Density {F13.4}
#-----------------------------------------------------------------------------
# 
#     DEPT        TDEP       ROP5_RM        AGTM        GR_ARC        A16H         A22H         A28H         A34H         A40H         A16L         A22L         A28L         A34L         A40L         P16H         P22H         P28H         P34H         P40H         P16L         P22L         P28L         P34L         P40L     TAB_ARC_RES      ATMP         RHOB         DRHO       TAB_DEN        TNPH       TAB_NEU        HORD         VERD         DCHO         DCVE         DCAV       APRS_ARC     ECD_ARC
#
~A  
# ...
 1539.6972  606180.0000      35.0794    2410.0000      96.2591       0.5023       0.5113       0.5221       0.5328       0.5411       0.4982       0.5071       0.5127       0.5139       0.5134       0.4858       0.4866       0.4865       0.4929       0.5074       0.4990       0.4981       0.4983       0.4984       0.4977    2410.0000      70.0000       2.0506      -0.0020    4060.0000      64.0758    5410.0000      15.6891      15.5046      12.1218      12.2003      12.1610   24083.3965       1.5976
 1539.8496  606240.0000      33.4931    2410.0000      96.0688       0.5152       0.5200       0.5253       0.5315       0.5375       0.5021       0.5102       0.5146       0.5154       0.5150       0.4868       0.4870       0.4890       0.4984       0.5140       0.5013       0.5001       0.4992       0.5000       0.5020    2400.0000      70.0000       2.0674       0.0076    4050.0000      66.1763    5410.0000      15.7707      15.6749      12.3031      12.2428      12.2730   24083.3965       1.5975
 1540.0020  606300.0000      32.2274    2400.0000      94.1341       0.5190       0.5218       0.5265       0.5332       0.5396       0.5058       0.5109       0.5157       0.5192       0.5208       0.4841       0.4837       0.4841       0.4897       0.5003       0.5018       0.4994       0.4990       0.4991       0.4975    2390.0000      70.0000       2.0980       0.0136    4050.0000      65.5531    5410.0000      15.7707      15.6749      12.2716      12.3314      12.3015   24083.3965       1.5973
 1540.1544  606360.0000      31.3558    2400.0000      93.7218       0.5203       0.5170       0.5273       0.5350       0.5271       0.5060       0.5064       0.5075       0.5075       0.5056       0.5292       0.5285       0.5339       0.5428       0.5489       0.5204       0.5157       0.5147       0.5134       0.5085    2390.0000      70.0000       2.1438       0.0228    4040.0000      62.5601    5400.0000      15.6713      15.5756      12.2562      12.6408      12.4485   24090.2910       1.5976
 1540.3068  606420.0000      31.5914    2400.0000      91.0893       0.5345       0.5364       0.5460       0.5544       0.5538       0.5039       0.5092       0.5147       0.5166       0.5146       0.5145       0.5106       0.5136       0.5236       0.5335       0.5171       0.5101       0.5049       0.4991       0.4907    2390.0000      70.0000       2.1316       0.0175    4050.0000      56.4239    5410.0000      15.7511      14.9779      12.2390      12.6435      12.4413   24090.2910       1.5974
 1540.4592  606480.0000      32.7255    2400.0000      89.0912       0.5224       0.5193       0.5221       0.5265       0.5268       0.5092       0.5157       0.5201       0.5176       0.5101       0.4824       0.4767       0.4771       0.4868       0.5001       0.4994       0.4964       0.4964       0.4957       0.4914    2400.0000      70.0000       2.0988       0.0129    4050.0000      54.6423    5410.0000      15.8806      15.2811      12.1689      12.3964      12.2827   24104.0801       1.5982
 1540.6116  606540.0000      33.2105    2400.0000      87.9177       0.5234       0.5257       0.5323       0.5370       0.5355       0.5049       0.5119       0.5176       0.5181       0.5143       0.4751       0.4733       0.4778       0.4884       0.4988       0.4964       0.4949       0.4947       0.4922       0.4862    2400.0000      70.0000       2.0621       0.0046    4050.0000      56.0938    5420.0000      15.8806      15.2811      12.2057      12.1620      12.1838   24097.1855       1.5976
 1540.7640  606600.0000      30.7646    2380.0000      90.8673       0.5194       0.5266       0.5322       0.5343       0.5342       0.5031       0.5137       0.5201       0.5192       0.5144       0.4748       0.4719       0.4743       0.4844       0.4972       0.4964       0.4934       0.4921       0.4912       0.4891    2380.0000      70.0000       2.0588       0.0015    4030.0000      61.3148    5390.0000      15.4337      15.1801      12.2430      12.1366      12.1898   24104.0801       1.5979
 1540.9164  606660.0000      30.2306    2380.0000      91.1845       0.5201       0.5386       0.5531       0.5595       0.5614       0.5036       0.5153       0.5217       0.5207       0.5161       0.4670       0.4686       0.4737       0.4843       0.4971       0.4923       0.4916       0.4902       0.4868       0.4823    2380.0000      70.0000       2.0602       0.0027    4030.0000      61.0390    5400.0000      15.2315      15.1570      12.2949      12.1109      12.2029   24117.8711       1.5986
 1541.0688  606720.0000      30.9054    2380.0000      86.8711       0.5188       0.5306       0.5411       0.5499       0.5578       0.5047       0.5140       0.5212       0.5245       0.5249       0.4774       0.4797       0.4832       0.4925       0.5069       0.4963       0.4969       0.4961       0.4945       0.4933    2380.0000      70.0000       2.0631      -0.0015    4080.0000      60.2915    5400.0000      15.2315      15.1570      12.1558      12.0706      12.1132   24104.0801       1.5976
 1541.2212  606780.0000      31.0007    2380.0000      82.5259       0.5219       0.5338       0.5419       0.5513       0.5651       0.5071       0.5160       0.5189       0.5173       0.5158       0.4856       0.4885       0.4933       0.5071       0.5294       0.5033       0.5031       0.5034       0.5019       0.4980    2370.0000      70.0000       2.0641       0.0060    5150.0000      60.3785    5400.0000      16.2353      15.6678      12.3346      12.1247      12.2296   24117.8711       1.5983
 1541.3736  606840.0000      33.2450    2380.0000      82.2088       0.5260       0.5365       0.5463       0.5493       0.5460       0.5109       0.5188       0.5230       0.5206       0.5149       0.4926       0.4978       0.5034       0.5135       0.5284       0.5108       0.5101       0.5122       0.5138       0.5121    2380.0000      70.0000       2.0715       0.0094    5170.0000      65.2563    5410.0000      16.2158      15.7831      12.3496      12.1574      12.2535   24104.0801       1.5973
 1541.5260  606900.0000      32.4669    1540.0000      84.9364       0.5256       0.5335       0.5423       0.5458       0.5430       0.5121       0.5171       0.5198       0.5193       0.5169       0.5021       0.5049       0.5127       0.5264       0.5413       0.5153       0.5142       0.5149       0.5145       0.5110    1540.0000      70.0000       2.0667       0.0046    4370.0000      69.6795    4570.0000      15.8008      15.8966      12.3262      12.0964      12.2113   24110.9766       1.5976
 1541.6784  606960.0000      16.7802    1550.0000      87.9177       0.5287       0.5378       0.5503       0.5585       0.5588       0.5173       0.5195       0.5217       0.5214       0.5187       0.4985       0.4985       0.5030       0.5143       0.5283       0.5144       0.5102       0.5101       0.5091       0.5034    1540.0000      70.0000       2.0626      -0.0001    4370.0000      68.5922    4580.0000      15.1854      15.8221      12.2880      12.0703      12.1792   24124.7656       1.5983
 1541.8308  607020.0000      11.5544    1540.0000      89.3132       0.5376       0.5441       0.5548       0.5625       0.5628       0.5153       0.5211       0.5240       0.5218       0.5168       0.4948       0.4954       0.5022       0.5171       0.5345       0.5118       0.5106       0.5113       0.5110       0.5078    1540.0000      70.0000       2.0645      -0.0003    4370.0000      64.4953    4570.0000      15.1854      15.8221      12.2574      12.0960      12.1767   24124.7656       1.5982
 1541.9832  607080.0000      11.5696    1560.0000      89.7572       0.5368       0.5399       0.5481       0.5528       0.5488       0.5152       0.5192       0.5214       0.5203       0.5173       0.4946       0.4962       0.5040       0.5175       0.5309       0.5126       0.5128       0.5143       0.5139       0.5104    1550.0000      70.0000       2.0771       0.0033    4390.0000      62.0528    4580.0000      15.8966      15.9835      12.2179      12.1061      12.1620   24131.6602       1.5985
