~VERSION INFORMATION
VERS.           2.0   :CWLS Log ASCII Standard - VERSION 2.0
WRAP.           NO    :One Line per depth step
PROD.  Company   :LAS Producer
PROG.  DLIS to ASCII 12C0-302                          :LAS Program name and version
CREA.        2006/12/30 10:30                          :LAS Creation date {YYYY/MM/DD hh:mm}
SOURCE.     KGIII6-B1_12in_DLIS_1430-3100m.dlis        :DLIS File Name
FILE-ID.     CDF_LWD003                                :File Identification Number
#--------------------------------------------------
~WELL INFORMATION
#MNEM.UNIT      DATA             DESCRIPTION
#---- ------ --------------   -----------------------------
STRT .M      1429.9692       :START DEPTH     
STOP .M      3099.9684       :STOP DEPTH     
STEP .M         0.1524       :STEP     
NULL .          -999.25      :NULL VALUE
COMP .        Company:COMPANY
WELL .        W2:WELL
FLD  .        Block                  :FIELD
LOC  .        Offshore                                 :LOCATION
CNTY .        Actinia                                  :COUNTY
STAT .        State                           :STATE
CTRY .                                                 :COUNTRY
API  .        06INM0159                                :API NUMBER
UWI  .                                                 :UNIQUE WELL ID
DATE .        25-Dec-2006                              :LOG DATE {DD-MMM-YYYY}
SRVC .        Company                             :SERVICE COMPANY
LATI .DEG     N 16.2763                                :LATITUDE
LONG .DEG     E 82.0962                                :LONGITUDE
GDAT .                                                 :GeoDetic Datum
SECT .        12.25 in.                                :Section
#-----------------------------------------------------------------------------
~PARAMETER INFORMATION
#MNEM.UNIT    VALUE                      DESCRIPTION
#---- -----   --------------------       ------------------------
RUN  .                                   :RUN NUMBER
PDAT .        Lowest Astronomical Tide   :Permanent Datum
EPD  .M           0.000000               :Elevation of Permanent Datum above Mean Sea Level
EPD  .M           0.000000               :Elevation of tool zero above Mean Sea Level
LMF  .          Drill Floor              :Logging Measured From (Name of Logging Elevation Reference)
APD  .                                   :Elevation of Depth Reference (LMF) above Permanent Datum
TN1 .        PowerPulse                  :Tool Number 1
TN2 .        ARC,SADN                    :Tool Number 2
OS3  .          N/A                      :Other Services Line 3
OS2  .          InterACT                 :Other Services Line 2
OS1  .          Directional Surveys      :Other Services Line 1
MST  .DEGC      66.00000                 :Mud Sample Temperature
BHT  .DEGC     99.00000                  :Bottom Hole Temperature
RMS.OHMM      1000.00000                 :Resistivity of Mud Sample (RM)
MST.DEGC        66.00000                 :Mud Sample temperature (RM)
MW.LB/G         13.60000                 :Mud Weight (RM)
SHT.DEGC        25.00000                 :Surface Hole Temperature (RM)
BSAL .PPM     64350.00000                :Mud Salinity
MRT  .DEGC     99.00000                  :Maximum Recorded Temperature
RMB  .OHMM    1000.00000                 :Resistivity of Mud - BHT
MCST .DEGC      66.00000                 :Mud Cake Sample Temperature
RMCS .OHMM    1000.00000                 :Resistivity of Mud Cake Sample
MFST .DEGC      66.00000                 :Mud Filtrate Sample Temperature
RMFS .OHMM    1000.00000                 :Resistivity of Mud Filtrate Sample
RMS  .OHMM    1000.00000                 :Resistivity of Mud Sample
MSS  .        Shakers                    :Mud Sample Source
MFSS  .       Shakers                    :Mud Filtrate Sample Source
MCSS  .       Shakers                    :Mud Cake Sample Source
TCS  .         03 00                     :End Log Time
DCS  .         22-Dec-2006               :End Log Date
DFT  .        SOBM                       :Drilling Fluid Type
DFPH .           N/A                     :Drilling Fluid PH
DFV  .S       79.00000                   :Drilling Fluid Viscosity
DFD  .LB/G    13.600000                  :Drilling Fluid Density
DOWR .        75/25                      :Oil/Water Ratio
DFTS .        25.57                      :Drilling Fluid Total Solids
DHGS .        242.31                     :Drilling Fluid High Gravity Solids
TLAB .        18 00                      :Begin Log Time
DLAB .        15-Dec-2006                :Begin Log Date
RUN  .        2                          :Run Number
BLI  .M       3100.00000                 :Bottom Log Interval
TLI  .M        1430.00000                :Top Log Interval
WITN .        Peter/Ismad                 :Witness's Name
ENGI .        Hatim/Harsh/Sidy           :Engineer's Name
LUL  .        Zone 2                     :Logging Unit Location
LUN  .        OLU-KC-0103                :Logging Unit Number
RR5  .        No  Potassium in mud       :Remark Line 5
RR4  .        SADN Neutron Porosity is corrected for bit size, mud Hydrogen Index, temperature, pressure and mud salinity :Remark Line 4
RR3  .        SADN Density is corrected for Stand off by Spine and Ribs Plot :Remark Line 3
RR2  .        ARC8 Resistivity is environmentally corrected for mud resistivity and bit size. :Remark Line 2
RR1  .        GR is corrected for bit size, tool size and mud weight               :Remark Line 1
PDAT .        Lowest Astronomical Tide   :Permanent Datum
EPD  .M          0.00000                 :Elevation of Permanent Datum
DMF  .        Driller's Depth            :Drilling Measured From
LMF  .        Rotary table               :Log Measured From
APD  .M         25.60000                 :Above Permanent Datum
EDF  .M         25.60000                 :Elevation of Derrick Floor
EGL  .M       -80.360000                 :Elevation of Ground Level
EKB  .M         25.60000                 :Elevation of Kelly Bushing
TDL  .M       3100.00000                 :Total Depth - Logger
TDD  .M       3100.00000                 :Total Depth - Driller
MHD  .DEG       1.54000                  :Maximum Hole Deviation
AMD  .DEG     97.370000                  :Azimuth of Maximum Hole Deviation
BS   .IN        12.25000                 :Bit Size
BSDT .M       3100.00000                 :Bit Size Depth To
BSDF .M       1444.00000                 :Bit Size Depth From
CWEI .LB/M     236.16000                 :Casing Weight
CSIZ .IN        13.37500                 :Current Casing Size
CASG .         P-110                     :Casing Grade
CADT .        1433.6300                  :Casing Depth To
CDF  .        105.86000                  :Casing Depth From
CBLO .M       1433.6300                  :Casing Bottom Logger
CBDR .M       1433.6300                  :Casing Bottom Driller
#-----------------------------------------------------------------------------
~CURVE INFORMATION
#MNEM.UNIT   API CODE                                  DESCRIPTION
#---- -----  --------                                  -----------------------
DEPT .M                                                :DEPTH (BOREHOLE) {F10.4}
TDEP ..1IN                                             :0.1-ft Frame Depth {F13.4}
ROP5_RM.M/HR                                           :Rate of Penetration, Averaged over Last 5ft {F13.4}
AGTM .S                                                :ARC Gamma Ray Time After Bit {F13.4}
GR_ARC.GAPI                                            :ARC Gamma Ray {F13.4}
A16H .OHMM                                             :ARC Attenuation Resistivity 16-in. at 2 MHz {F13.4}
A22H .OHMM                                             :ARC Attenuation Resistivity 22-in. at 2 MHz {F13.4}
A28H .OHMM                                             :ARC Attenuation Resistivity 28-in. at 2 MHz {F13.4}
A34H .OHMM                                             :ARC Attenuation Resistivity 34-in. at 2 MHz {F13.4}
A40H .OHMM                                             :ARC Attenuation Resistivity 40-in. at 2 MHz {F13.4}
A16L .OHMM                                             :ARC Attenuation Resistivity 16-in. at 400 KHz {F13.4}
A22L .OHMM                                             :ARC Attenuation Resistivity 22-in. at 400 KHz {F13.4}
A28L .OHMM                                             :ARC Attenuation Resistivity 28-in. at 400 KHz {F13.4}
A34L .OHMM                                             :ARC Attenuation Resistivity 34-in. at 400 KHz {F13.4}
A40L .OHMM                                             :ARC Attenuation Resistivity 40-in. at 400 KHz {F13.4}
P16H .OHMM                                             :ARC Phase-Shift Resistivity 16-in. at 2 MHz {F13.4}
P22H .OHMM                                             :ARC Phase-Shift Resistivity 22-in. at 2 MHz {F13.4}
P28H .OHMM                                             :ARC Phase-Shift Resistivity 28-in. at 2 MHz {F13.4}
P34H .OHMM                                             :ARC Phase-Shift Resistivity 34-in. at 2 MHz {F13.4}
P40H .OHMM                                             :ARC Phase-Shift Resistivity 40-in. at 2 MHz {F13.4}
P16L .OHMM                                             :ARC Phase-Shift Resistivity 16-in. at 400 KHz {F13.4}
P22L .OHMM                                             :ARC Phase-Shift Resistivity 22-in. at 400 KHz {F13.4}
P28L .OHMM                                             :ARC Phase-Shift Resistivity 28-in. at 400 KHz {F13.4}
P34L .OHMM                                             :ARC Phase-Shift Resistivity 34-in. at 400 KHz {F13.4}
P40L .OHMM                                             :ARC Phase-Shift Resistivity 40-in. at 400 KHz {F13.4}
TAB_ARC_RES.S                                          :ARC Resistivity Time After Bit {F13.4}
ATMP .DEGC                                             :ARC Annular Temperature {F13.4}
RHOB .G/C3                                             :Bulk Density {F13.4}
DRHO .G/C3                                             :Bulk Density Correction {F13.4}
TAB_DEN.S                                              :Density Time After Bit {F13.4}
TNPH .PU                                               :Thermal Neutron Porosity (Ratio Method) in Selected Lithology {F13.4}
TAB_NEU.S                                              :Neutron Time After Bit {F13.4}
HORD .IN                                               :Horizontal Hole Diameter {F13.4}
VERD .IN                                               :Vertical Hole Diameter {F13.4}
DCHO .IN                                               :Density Caliper, Horizontal {F13.4}
DCVE .IN                                               :Density Caliper, Vertical {F13.4}
DCAV .IN                                               :Density Caliper, Average {F13.4}
APRS_ARC.KPA                                           :ARC Annular Pressure {F13.4}
ECD_ARC.G/C3                                           :Equivalent Circulating Density {F13.4}
#-----------------------------------------------------------------------------
# 
#     DEPT        TDEP       ROP5_RM        AGTM        GR_ARC        A16H         A22H         A28H         A34H         A40H         A16L         A22L         A28L         A34L         A40L         P16H         P22H         P28H         P34H         P40H         P16L         P22L         P28L         P34L         P40L     TAB_ARC_RES      ATMP         RHOB         DRHO       TAB_DEN        TNPH       TAB_NEU        HORD         VERD         DCHO         DCVE         DCAV       APRS_ARC     ECD_ARC
#
~A  
# ...
 2090.7756  823140.0000      30.3541    3130.0000      96.4494       0.5507       0.5521       0.5549       0.5555       0.5525       0.5447       0.5554       0.5611       0.5579       0.5502       0.5258       0.5267       0.5249       0.5268       0.5353       0.5515       0.5490       0.5480       0.5459       0.5413    3120.0000      84.0000       2.2689       0.0237    4910.0000      55.6510    6310.0000      14.9938      15.1783      12.2429      12.1799      12.2114   34101.4844       1.6654
 2090.9280  823200.0000      30.1531    3120.0000      98.0353       0.5481       0.5504       0.5539       0.5569       0.5579       0.5446       0.5539       0.5586       0.5566       0.5514       0.5290       0.5255       0.5253       0.5320       0.5429       0.5496       0.5470       0.5456       0.5431       0.5383    3120.0000      84.0000       2.2710       0.0286    4900.0000      53.4287    6300.0000      14.9938      15.1783      12.3199      12.2234      12.2717   34108.3789       1.6656
 2091.0804  823260.0000      31.1796    3120.0000      97.9401       0.5479       0.5514       0.5550       0.5570       0.5570       0.5399       0.5517       0.5567       0.5557       0.5538       0.5261       0.5238       0.5219       0.5253       0.5340       0.5491       0.5468       0.5466       0.5449       0.5398    3110.0000      83.0000       2.2868       0.0364    4900.0000      56.5118    6300.0000      14.2738      14.9814      12.3878      12.3409      12.3643   34122.1680       1.6661
 2091.2328  823320.0000      24.4988    3050.0000      97.3058       0.5510       0.5548       0.5593       0.5630       0.5650       0.5388       0.5526       0.5580       0.5549       0.5499       0.5294       0.5288       0.5295       0.5348       0.5436       0.5530       0.5513       0.5495       0.5484       0.5481    3050.0000      83.0000       2.2893       0.0358    4840.0000      60.3605    6230.0000      15.1002      14.5203      12.4424      12.3239      12.3831   34108.3789       1.6653
 2091.3852  823380.0000      19.0557    3000.0000     100.6677       0.5619       0.5622       0.5644       0.5680       0.5710       0.5517       0.5607       0.5641       0.5625       0.5600       0.5461       0.5474       0.5483       0.5524       0.5600       0.5624       0.5603       0.5606       0.5604       0.5572    3000.0000      83.0000       2.2816       0.0288    4790.0000      56.0412    6180.0000      14.9459      14.5025      12.4041      12.2975      12.3508   34115.2734       1.6655
 2091.5376  823440.0000      18.0113    3000.0000     103.5222       0.5647       0.5637       0.5670       0.5729       0.5771       0.5545       0.5623       0.5677       0.5665       0.5604       0.5471       0.5477       0.5485       0.5516       0.5567       0.5646       0.5615       0.5611       0.5602       0.5563    2990.0000      83.0000       2.2678       0.0216    5970.0000      49.7675    6170.0000      15.4621      14.6427      12.2379      12.1798      12.2088   34129.0625       1.6661
 2091.6900  823500.0000      17.7331    2990.0000     100.9849       0.5515       0.5544       0.5593       0.5598       0.5539       0.5489       0.5558       0.5606       0.5611       0.5586       0.5364       0.5365       0.5372       0.5398       0.5437       0.5548       0.5534       0.5552       0.5567       0.5546    2980.0000      83.0000       2.2712       0.0229    5970.0000      47.0473    6160.0000      14.9016      14.6356      12.2306      12.1739      12.2022   34129.0625       1.6660
 2091.8424  823560.0000      17.3463    2980.0000      94.5465       0.5475       0.5477       0.5520       0.5544       0.5508       0.5400       0.5505       0.5579       0.5592       0.5562       0.5302       0.5308       0.5331       0.5399       0.5496       0.5501       0.5480       0.5498       0.5510       0.5476    2980.0000      83.0000       2.2679       0.0219    5960.0000      50.8837    6150.0000      14.7136      15.2120      12.2283      12.1562      12.1923   34135.9570       1.6662
 2091.9948  823620.0000      17.2569    2980.0000      90.7405       0.5391       0.5420       0.5472       0.5527       0.5564       0.5374       0.5477       0.5532       0.5521       0.5480       0.5277       0.5302       0.5328       0.5354       0.5380       0.5436       0.5431       0.5451       0.5458       0.5424    2980.0000      83.0000       2.2837       0.0295    5960.0000      52.3089    6150.0000      14.5043      14.0006      12.3449      12.2375      12.2912   34142.8516       1.6664
 2092.1472  823680.0000      17.3662    2980.0000      96.2592       0.5400       0.5419       0.5464       0.5504       0.5513       0.5422       0.5531       0.5594       0.5585       0.5537       0.5149       0.5169       0.5213       0.5293       0.5387       0.5360       0.5366       0.5394       0.5410       0.5391    2980.0000      83.0000       2.2976       0.0339    5950.0000      53.4831    6140.0000      14.4369      14.2720      12.4034      12.3169      12.3602   34135.9570       1.6659
 2092.2996  823740.0000      17.3716    2990.0000     102.6976       0.5355       0.5387       0.5426       0.5438       0.5415       0.5388       0.5497       0.5562       0.5559       0.5520       0.5142       0.5170       0.5207       0.5275       0.5368       0.5339       0.5356       0.5389       0.5417       0.5423    2980.0000      83.0000       2.3076       0.0365    5940.0000      52.7717    6130.0000      14.6639      14.6675      12.3295      12.2805      12.3050   34135.9570       1.6658
 2092.4520  823800.0000      17.3012    2980.0000     104.5054       0.5328       0.5362       0.5425       0.5508       0.5580       0.5230       0.5379       0.5469       0.5457       0.5388       0.5181       0.5204       0.5232       0.5298       0.5401       0.5378       0.5384       0.5406       0.5423       0.5417    2980.0000      83.0000       2.2960       0.0255    5940.0000      53.6993    6130.0000      14.6639      14.6675      12.2459      12.2954      12.2707   34149.7461       1.6664
 2092.6044  823860.0000      17.1693    3000.0000     100.9214       0.5317       0.5374       0.5451       0.5518       0.5548       0.5300       0.5406       0.5490       0.5511       0.5480       0.5195       0.5209       0.5235       0.5316       0.5445       0.5373       0.5382       0.5413       0.5438       0.5432    2990.0000      83.0000       2.2756       0.0164    5940.0000      52.5499    6140.0000      14.7899      14.4050      12.2107      12.2003      12.2055   34142.8516       1.6659
 2092.7568  823920.0000      18.9914    3010.0000      96.7032       0.5275       0.5330       0.5409       0.5443       0.5406       0.5283       0.5395       0.5451       0.5447       0.5427       0.5177       0.5208       0.5252       0.5339       0.5459       0.5378       0.5371       0.5389       0.5410       0.5410    3000.0000      83.0000       2.2802       0.0160    5940.0000      52.0914    6130.0000      14.6622      14.4706      12.1630      12.1558      12.1594   34149.7461       1.6661
 2092.9092  823980.0000      21.8853    3020.0000      95.1174       0.5307       0.5354       0.5400       0.5437       0.5464       0.5294       0.5404       0.5474       0.5472       0.5430       0.5155       0.5191       0.5248       0.5336       0.5435       0.5348       0.5361       0.5387       0.5405       0.5405    3000.0000      83.0000       2.2800       0.0188    5930.0000      52.1601    6120.0000      13.9776      13.8055      12.1879      12.1573      12.1726   34156.6406       1.6664
 2093.0616  824040.0000      28.8205    3030.0000      95.6248       0.5281       0.5370       0.5465       0.5542       0.5592       0.5287       0.5392       0.5452       0.5455       0.5433       0.5183       0.5215       0.5262       0.5354       0.5479       0.5369       0.5366       0.5375       0.5381       0.5373    3020.0000      83.0000       2.2865       0.0260    5940.0000      51.6836    6130.0000      13.9776      13.8055      12.2413      12.1707      12.2060   34149.7461       1.6659
