~VERSION INFORMATION
VERS.           2.0   :CWLS Log ASCII Standard - VERSION 2.0
WRAP.           NO    :One Line per depth step
PROD.  Company   :LAS Producer
PROG.  DLIS to ASCII 12C0-302                          :LAS Program name and version
CREA.        2006/12/30 10:30                          :LAS Creation date {YYYY/MM/DD hh:mm}
SOURCE.     KGIII6-B1_12in_DLIS_1430-3100m.dlis        :DLIS File Name
FILE-ID.     CDF_LWD003                                :File Identification Number
#--------------------------------------------------
~WELL INFORMATION
#MNEM.UNIT      DATA             DESCRIPTION
#---- ------ --------------   -----------------------------
STRT .M      1429.9692       :START DEPTH     
STOP .M      3099.9684       :STOP DEPTH     
STEP .M         0.1524       :STEP     
NULL .          -999.25      :NULL VALUE
COMP .        Company:COMPANY
WELL .        W2:WELL
FLD  .        Block                  :FIELD
LOC  .        Offshore                                 :LOCATION
CNTY .        Actinia                                  :COUNTY
STAT .        State                           :STATE
CTRY .                                                 :COUNTRY
API  .        06INM0159                                :API NUMBER
UWI  .                                                 :UNIQUE WELL ID
DATE .        25-Dec-2006                              :LOG DATE {DD-MMM-YYYY}
SRVC .        Company                             :SERVICE COMPANY
LATI .DEG     N 16.2763                                :LATITUDE
LONG .DEG     E 82.0962                                :LONGITUDE
GDAT .                                                 :GeoDetic Datum
SECT .        12.25 in.                                :Section
#-----------------------------------------------------------------------------
~PARAMETER INFORMATION
#MNEM.UNIT    VALUE                      DESCRIPTION
#---- -----   --------------------       ------------------------
RUN  .                                   :RUN NUMBER
PDAT .        Lowest Astronomical Tide   :Permanent Datum
EPD  .M           0.000000               :Elevation of Permanent Datum above Mean Sea Level
EPD  .M           0.000000               :Elevation of tool zero above Mean Sea Level
LMF  .          Drill Floor              :Logging Measured From (Name of Logging Elevation Reference)
APD  .                                   :Elevation of Depth Reference (LMF) above Permanent Datum
TN1 .        PowerPulse                  :Tool Number 1
TN2 .        ARC,SADN                    :Tool Number 2
OS3  .          N/A                      :Other Services Line 3
OS2  .          InterACT                 :Other Services Line 2
OS1  .          Directional Surveys      :Other Services Line 1
MST  .DEGC      66.00000                 :Mud Sample Temperature
BHT  .DEGC     99.00000                  :Bottom Hole Temperature
RMS.OHMM      1000.00000                 :Resistivity of Mud Sample (RM)
MST.DEGC        66.00000                 :Mud Sample temperature (RM)
MW.LB/G         13.60000                 :Mud Weight (RM)
SHT.DEGC        25.00000                 :Surface Hole Temperature (RM)
BSAL .PPM     64350.00000                :Mud Salinity
MRT  .DEGC     99.00000                  :Maximum Recorded Temperature
RMB  .OHMM    1000.00000                 :Resistivity of Mud - BHT
MCST .DEGC      66.00000                 :Mud Cake Sample Temperature
RMCS .OHMM    1000.00000                 :Resistivity of Mud Cake Sample
MFST .DEGC      66.00000                 :Mud Filtrate Sample Temperature
RMFS .OHMM    1000.00000                 :Resistivity of Mud Filtrate Sample
RMS  .OHMM    1000.00000                 :Resistivity of Mud Sample
MSS  .        Shakers                    :Mud Sample Source
MFSS  .       Shakers                    :Mud Filtrate Sample Source
MCSS  .       Shakers                    :Mud Cake Sample Source
TCS  .         03 00                     :End Log Time
DCS  .         22-Dec-2006               :End Log Date
DFT  .        SOBM                       :Drilling Fluid Type
DFPH .           N/A                     :Drilling Fluid PH
DFV  .S       79.00000                   :Drilling Fluid Viscosity
DFD  .LB/G    13.600000                  :Drilling Fluid Density
DOWR .        75/25                      :Oil/Water Ratio
DFTS .        25.57                      :Drilling Fluid Total Solids
DHGS .        242.31                     :Drilling Fluid High Gravity Solids
TLAB .        18 00                      :Begin Log Time
DLAB .        15-Dec-2006                :Begin Log Date
RUN  .        2                          :Run Number
BLI  .M       3100.00000                 :Bottom Log Interval
TLI  .M        1430.00000                :Top Log Interval
WITN .        Peter/Ismad                 :Witness's Name
ENGI .        Hatim/Harsh/Sidy           :Engineer's Name
LUL  .        Zone 2                     :Logging Unit Location
LUN  .        OLU-KC-0103                :Logging Unit Number
RR5  .        No  Potassium in mud       :Remark Line 5
RR4  .        SADN Neutron Porosity is corrected for bit size, mud Hydrogen Index, temperature, pressure and mud salinity :Remark Line 4
RR3  .        SADN Density is corrected for Stand off by Spine and Ribs Plot :Remark Line 3
RR2  .        ARC8 Resistivity is environmentally corrected for mud resistivity and bit size. :Remark Line 2
RR1  .        GR is corrected for bit size, tool size and mud weight               :Remark Line 1
PDAT .        Lowest Astronomical Tide   :Permanent Datum
EPD  .M          0.00000                 :Elevation of Permanent Datum
DMF  .        Driller's Depth            :Drilling Measured From
LMF  .        Rotary table               :Log Measured From
APD  .M         25.60000                 :Above Permanent Datum
EDF  .M         25.60000                 :Elevation of Derrick Floor
EGL  .M       -80.360000                 :Elevation of Ground Level
EKB  .M         25.60000                 :Elevation of Kelly Bushing
TDL  .M       3100.00000                 :Total Depth - Logger
TDD  .M       3100.00000                 :Total Depth - Driller
MHD  .DEG       1.54000                  :Maximum Hole Deviation
AMD  .DEG     97.370000                  :Azimuth of Maximum Hole Deviation
BS   .IN        12.25000                 :Bit Size
BSDT .M       3100.00000                 :Bit Size Depth To
BSDF .M       1444.00000                 :Bit Size Depth From
CWEI .LB/M     236.16000                 :Casing Weight
CSIZ .IN        13.37500                 :Current Casing Size
CASG .         P-110                     :Casing Grade
CADT .        1433.6300                  :Casing Depth To
CDF  .        105.86000                  :Casing Depth From
CBLO .M       1433.6300                  :Casing Bottom Logger
CBDR .M       1433.6300                  :Casing Bottom Driller
#-----------------------------------------------------------------------------
~CURVE INFORMATION
#MNEM.UNIT   API CODE                                  DESCRIPTION
#---- -----  --------                                  -----------------------
DEPT .M                                                :DEPTH (BOREHOLE) {F10.4}
TDEP ..1IN                                             :0.1-ft Frame Depth {F13.4}
ROP5_RM.M/HR                                           :Rate of Penetration, Averaged over Last 5ft {F13.4}
AGTM .S                                                :ARC Gamma Ray Time After Bit {F13.4}
GR_ARC.GAPI                                            :ARC Gamma Ray {F13.4}
A16H .OHMM                                             :ARC Attenuation Resistivity 16-in. at 2 MHz {F13.4}
A22H .OHMM                                             :ARC Attenuation Resistivity 22-in. at 2 MHz {F13.4}
A28H .OHMM                                             :ARC Attenuation Resistivity 28-in. at 2 MHz {F13.4}
A34H .OHMM                                             :ARC Attenuation Resistivity 34-in. at 2 MHz {F13.4}
A40H .OHMM                                             :ARC Attenuation Resistivity 40-in. at 2 MHz {F13.4}
A16L .OHMM                                             :ARC Attenuation Resistivity 16-in. at 400 KHz {F13.4}
A22L .OHMM                                             :ARC Attenuation Resistivity 22-in. at 400 KHz {F13.4}
A28L .OHMM                                             :ARC Attenuation Resistivity 28-in. at 400 KHz {F13.4}
A34L .OHMM                                             :ARC Attenuation Resistivity 34-in. at 400 KHz {F13.4}
A40L .OHMM                                             :ARC Attenuation Resistivity 40-in. at 400 KHz {F13.4}
P16H .OHMM                                             :ARC Phase-Shift Resistivity 16-in. at 2 MHz {F13.4}
P22H .OHMM                                             :ARC Phase-Shift Resistivity 22-in. at 2 MHz {F13.4}
P28H .OHMM                                             :ARC Phase-Shift Resistivity 28-in. at 2 MHz {F13.4}
P34H .OHMM                                             :ARC Phase-Shift Resistivity 34-in. at 2 MHz {F13.4}
P40H .OHMM                                             :ARC Phase-Shift Resistivity 40-in. at 2 MHz {F13.4}
P16L .OHMM                                             :ARC Phase-Shift Resistivity 16-in. at 400 KHz {F13.4}
P22L .OHMM                                             :ARC Phase-Shift Resistivity 22-in. at 400 KHz {F13.4}
P28L .OHMM                                             :ARC Phase-Shift Resistivity 28-in. at 400 KHz {F13.4}
P34L .OHMM                                             :ARC Phase-Shift Resistivity 34-in. at 400 KHz {F13.4}
P40L .OHMM                                             :ARC Phase-Shift Resistivity 40-in. at 400 KHz {F13.4}
TAB_ARC_RES.S                                          :ARC Resistivity Time After Bit {F13.4}
ATMP .DEGC                                             :ARC Annular Temperature {F13.4}
RHOB .G/C3                                             :Bulk Density {F13.4}
DRHO .G/C3                                             :Bulk Density Correction {F13.4}
TAB_DEN.S                                              :Density Time After Bit {F13.4}
TNPH .PU                                               :Thermal Neutron Porosity (Ratio Method) in Selected Lithology {F13.4}
TAB_NEU.S                                              :Neutron Time After Bit {F13.4}
HORD .IN                                               :Horizontal Hole Diameter {F13.4}
VERD .IN                                               :Vertical Hole Diameter {F13.4}
DCHO .IN                                               :Density Caliper, Horizontal {F13.4}
DCVE .IN                                               :Density Caliper, Vertical {F13.4}
DCAV .IN                                               :Density Caliper, Average {F13.4}
APRS_ARC.KPA                                           :ARC Annular Pressure {F13.4}
ECD_ARC.G/C3                                           :Equivalent Circulating Density {F13.4}
#-----------------------------------------------------------------------------
# 
#     DEPT        TDEP       ROP5_RM        AGTM        GR_ARC        A16H         A22H         A28H         A34H         A40H         A16L         A22L         A28L         A34L         A40L         P16H         P22H         P28H         P34H         P40H         P16L         P22L         P28L         P34L         P40L     TAB_ARC_RES      ATMP         RHOB         DRHO       TAB_DEN        TNPH       TAB_NEU        HORD         VERD         DCHO         DCVE         DCAV       APRS_ARC     ECD_ARC
#
~A  
# ...
 1649.4252  649380.0000      32.4650    3000.0000      89.5987       0.5147       0.5194       0.5255       0.5309       0.5336       0.5031       0.5093       0.5131       0.5119       0.5075       0.4815       0.4804       0.4832       0.4930       0.5061       0.5007       0.4990       0.4989       0.4982       0.4954    3000.0000      75.0000       2.1089       0.0042    4850.0000      55.3036    5060.0000      15.7919      15.6997      12.2841      12.0629      12.1735   25745.0332       1.5941
 1649.5776  649440.0000      32.1826    3000.0000      87.2517       0.5111       0.5181       0.5243       0.5296       0.5345       0.5036       0.5114       0.5181       0.5185       0.5132       0.4794       0.4783       0.4808       0.4907       0.5050       0.5000       0.4982       0.5001       0.5015       0.4991    3000.0000      75.0000       2.1126       0.0046    4850.0000      55.5966    5070.0000      15.7919      15.6997      12.2992      12.0684      12.1838   25745.0332       1.5940
 1649.7300  649500.0000      32.4191    3000.0000      89.8207       0.5128       0.5183       0.5239       0.5278       0.5296       0.5023       0.5105       0.5152       0.5139       0.5092       0.4796       0.4815       0.4830       0.4904       0.5044       0.5006       0.4999       0.5020       0.5031       0.5006    2990.0000      75.0000       2.1204       0.0082    4850.0000      57.4009    5070.0000      16.1945      15.4762      12.1892      12.1031      12.1461   25751.9277       1.5942
 1649.8824  649560.0000      33.4568    3000.0000      92.3580       0.5153       0.5167       0.5224       0.5265       0.5245       0.5063       0.5121       0.5160       0.5163       0.5143       0.4926       0.4958       0.4995       0.5067       0.5176       0.5088       0.5059       0.5077       0.5085       0.5039    2990.0000      75.0000       2.1232       0.0099    4840.0000      55.4387    5070.0000      16.1945      15.4762      12.1630      12.1312      12.1471   25758.8242       1.5945
 1650.0348  649620.0000      32.9798    3000.0000      94.7050       0.5158       0.5212       0.5320       0.5437       0.5505       0.5120       0.5201       0.5256       0.5237       0.5166       0.4624       0.4633       0.4681       0.4758       0.4821       0.4960       0.4943       0.4949       0.4957       0.4946    3000.0000      75.0000       2.1261       0.0120    4850.0000      58.6652    5070.0000      15.2652      15.0612      12.1738      12.1285      12.1512   25758.8242       1.5944
 1650.1872  649680.0000      32.8061    3000.0000      94.7050       0.5097       0.5129       0.5197       0.5312       0.5436       0.5134       0.5193       0.5214       0.5193       0.5159       0.4800       0.4814       0.4833       0.4902       0.5017       0.5007       0.5020       0.5048       0.5054       0.5022    3000.0000      75.0000       2.1233       0.0078    4840.0000      60.1104    5070.0000      15.5365      14.6143      12.1514      12.1364      12.1439   25751.9277       1.5938
 1650.3396  649740.0000      33.1124    3000.0000      93.7535       0.5113       0.5135       0.5205       0.5336       0.5478       0.5095       0.5174       0.5197       0.5141       0.5057       0.4856       0.4849       0.4852       0.4916       0.5032       0.5049       0.5075       0.5091       0.5069       0.5016    3000.0000      75.0000       2.1186       0.0044    4850.0000      61.4608    5070.0000      14.9051      14.9353      12.0996      12.1150      12.1073   25758.8242       1.5941
 1650.4920  649800.0000      33.1232    3000.0000      91.3114       0.5153       0.5222       0.5288       0.5351       0.5412       0.5088       0.5166       0.5197       0.5200       0.5208       0.4894       0.4926       0.4966       0.5061       0.5209       0.5075       0.5095       0.5115       0.5113       0.5088    2990.0000      75.0000       2.1126       0.0032    4850.0000      57.1659    5070.0000      15.6376      14.7101      12.1172      12.0981      12.1076   25772.6133       1.5948
 1650.6444  649860.0000      33.4764    3000.0000      88.0129       0.5254       0.5316       0.5374       0.5423       0.5467       0.5142       0.5201       0.5229       0.5218       0.5191       0.4986       0.4989       0.5016       0.5112       0.5258       0.5132       0.5135       0.5145       0.5162       0.5177    3000.0000      75.0000       2.1054       0.0025    4860.0000      62.4222    5070.0000      16.2318      15.2439      12.1257      12.1448      12.1352   25758.8242       1.5938
 1650.7968  649920.0000      33.5334    3000.0000      86.1099       0.5269       0.5305       0.5375       0.5450       0.5495       0.5176       0.5226       0.5245       0.5225       0.5190       0.4949       0.4945       0.4948       0.5043       0.5229       0.5169       0.5137       0.5139       0.5156       0.5153    2990.0000      75.0000       2.0989      -0.0001    4860.0000      62.3042    5080.0000      15.1570      14.9353      12.1046      12.0583      12.0815   25758.8242       1.5936
 1650.9492  649980.0000      33.3264    2990.0000      87.7908       0.5270       0.5285       0.5336       0.5387       0.5400       0.5166       0.5214       0.5210       0.5172       0.5142       0.4876       0.4888       0.4885       0.4991       0.5232       0.5090       0.5095       0.5106       0.5099       0.5071    2990.0000      75.0000       2.0986      -0.0002    4850.0000      66.1971    5070.0000      15.8735      15.3592      12.1487      12.0798      12.1142   25765.7188       1.5939
 1651.1016  650040.0000      32.6598    2990.0000      89.5035       0.5237       0.5250       0.5333       0.5446       0.5517       0.5140       0.5186       0.5205       0.5173       0.5114       0.4833       0.4837       0.4860       0.4967       0.5148       0.5109       0.5103       0.5093       0.5065       0.5024    2980.0000      75.0000       2.1142       0.0091    4850.0000      61.8615    5070.0000      15.8735      15.3592      12.2526      12.1402      12.1964   25765.7188       1.5938
 1651.2540  650100.0000      33.4110    3000.0000      89.4084       0.5232       0.5296       0.5388       0.5457       0.5470       0.5159       0.5189       0.5206       0.5188       0.5145       0.4817       0.4839       0.4863       0.4954       0.5113       0.5113       0.5092       0.5091       0.5104       0.5112    2990.0000      75.0000       2.1266       0.0172    4860.0000      58.6291    5080.0000      15.4727      15.3840      12.3019      12.1948      12.2483   25779.5078       1.5945
 1651.4064  650160.0000      33.3901    3000.0000      88.5838       0.5176       0.5263       0.5342       0.5417       0.5491       0.5118       0.5179       0.5223       0.5195       0.5111       0.4951       0.4953       0.4968       0.5042       0.5165       0.5102       0.5119       0.5142       0.5135       0.5093    2990.0000      75.0000       2.1225       0.0117    4850.0000      57.7014    5080.0000      15.9409      15.0648      12.2053      12.1905      12.1979   25765.7188       1.5935
 1651.5588  650220.0000      27.3134    2680.0000      90.1696       0.5198       0.5258       0.5320       0.5368       0.5399       0.5117       0.5175       0.5195       0.5172       0.5136       0.4972       0.4987       0.4990       0.5027       0.5114       0.5138       0.5119       0.5121       0.5115       0.5078    2670.0000      75.0000       2.1170       0.0018    4540.0000      59.1745    4770.0000      16.1697      15.1818      12.1430      12.1799      12.1614   25765.7188       1.5933
 1651.7112  650280.0000      25.1518    2670.0000      92.3897       0.5235       0.5263       0.5327       0.5414       0.5487       0.5133       0.5185       0.5210       0.5183       0.5126       0.4999       0.4987       0.4996       0.5041       0.5104       0.5134       0.5123       0.5123       0.5102       0.5050    2670.0000      75.0000       2.1213      -0.0011    4540.0000      62.0495    4760.0000      16.0509      14.6267      12.1264      12.1769      12.1517   25772.6133       1.5936
