~VERSION INFORMATION
VERS.           2.0   :CWLS Log ASCII Standard - VERSION 2.0
WRAP.           NO    :One Line per depth step
PROD.  Company   :LAS Producer
PROG.  DLIS to ASCII 12C0-302                          :LAS Program name and version
CREA.        2006/12/30 10:30                          :LAS Creation date {YYYY/MM/DD hh:mm}
SOURCE.     KGIII6-B1_12in_DLIS_1430-3100m.dlis        :DLIS File Name
FILE-ID.     CDF_LWD003                                :File Identification Number
#--------------------------------------------------
~WELL INFORMATION
#MNEM.UNIT      DATA             DESCRIPTION
#---- ------ --------------   -----------------------------
STRT .M      1429.9692       :START DEPTH     
STOP .M      3099.9684       :STOP DEPTH     
STEP .M         0.1524       :STEP     
NULL .          -999.25      :NULL VALUE
COMP .        Company:COMPANY
WELL .        W2:WELL
FLD  .        Block                  :FIELD
LOC  .        Offshore                                 :LOCATION
CNTY .        Actinia                                  :COUNTY
STAT .        State                           :STATE
CTRY .                                                 :COUNTRY
API  .        06INM0159                                :API NUMBER
UWI  .                                                 :UNIQUE WELL ID
DATE .        25-Dec-2006                              :LOG DATE {DD-MMM-YYYY}
SRVC .        Company                             :SERVICE COMPANY
LATI .DEG     N 16.2763                                :LATITUDE
LONG .DEG     E 82.0962                                :LONGITUDE
GDAT .                                                 :GeoDetic Datum
SECT .        12.25 in.                                :Section
#-----------------------------------------------------------------------------
~PARAMETER INFORMATION
#MNEM.UNIT    VALUE                      DESCRIPTION
#---- -----   --------------------       ------------------------
RUN  .                                   :RUN NUMBER
PDAT .        Lowest Astronomical Tide   :Permanent Datum
EPD  .M           0.000000               :Elevation of Permanent Datum above Mean Sea Level
EPD  .M           0.000000               :Elevation of tool zero above Mean Sea Level
LMF  .          Drill Floor              :Logging Measured From (Name of Logging Elevation Reference)
APD  .                                   :Elevation of Depth Reference (LMF) above Permanent Datum
TN1 .        PowerPulse                  :Tool Number 1
TN2 .        ARC,SADN                    :Tool Number 2
OS3  .          N/A                      :Other Services Line 3
OS2  .          InterACT                 :Other Services Line 2
OS1  .          Directional Surveys      :Other Services Line 1
MST  .DEGC      66.00000                 :Mud Sample Temperature
BHT  .DEGC     99.00000                  :Bottom Hole Temperature
RMS.OHMM      1000.00000                 :Resistivity of Mud Sample (RM)
MST.DEGC        66.00000                 :Mud Sample temperature (RM)
MW.LB/G         13.60000                 :Mud Weight (RM)
SHT.DEGC        25.00000                 :Surface Hole Temperature (RM)
BSAL .PPM     64350.00000                :Mud Salinity
MRT  .DEGC     99.00000                  :Maximum Recorded Temperature
RMB  .OHMM    1000.00000                 :Resistivity of Mud - BHT
MCST .DEGC      66.00000                 :Mud Cake Sample Temperature
RMCS .OHMM    1000.00000                 :Resistivity of Mud Cake Sample
MFST .DEGC      66.00000                 :Mud Filtrate Sample Temperature
RMFS .OHMM    1000.00000                 :Resistivity of Mud Filtrate Sample
RMS  .OHMM    1000.00000                 :Resistivity of Mud Sample
MSS  .        Shakers                    :Mud Sample Source
MFSS  .       Shakers                    :Mud Filtrate Sample Source
MCSS  .       Shakers                    :Mud Cake Sample Source
TCS  .         03 00                     :End Log Time
DCS  .         22-Dec-2006               :End Log Date
DFT  .        SOBM                       :Drilling Fluid Type
DFPH .           N/A                     :Drilling Fluid PH
DFV  .S       79.00000                   :Drilling Fluid Viscosity
DFD  .LB/G    13.600000                  :Drilling Fluid Density
DOWR .        75/25                      :Oil/Water Ratio
DFTS .        25.57                      :Drilling Fluid Total Solids
DHGS .        242.31                     :Drilling Fluid High Gravity Solids
TLAB .        18 00                      :Begin Log Time
DLAB .        15-Dec-2006                :Begin Log Date
RUN  .        2                          :Run Number
BLI  .M       3100.00000                 :Bottom Log Interval
TLI  .M        1430.00000                :Top Log Interval
WITN .        Peter/Ismad                 :Witness's Name
ENGI .        Hatim/Harsh/Sidy           :Engineer's Name
LUL  .        Zone 2                     :Logging Unit Location
LUN  .        OLU-KC-0103                :Logging Unit Number
RR5  .        No  Potassium in mud       :Remark Line 5
RR4  .        SADN Neutron Porosity is corrected for bit size, mud Hydrogen Index, temperature, pressure and mud salinity :Remark Line 4
RR3  .        SADN Density is corrected for Stand off by Spine and Ribs Plot :Remark Line 3
RR2  .        ARC8 Resistivity is environmentally corrected for mud resistivity and bit size. :Remark Line 2
RR1  .        GR is corrected for bit size, tool size and mud weight               :Remark Line 1
PDAT .        Lowest Astronomical Tide   :Permanent Datum
EPD  .M          0.00000                 :Elevation of Permanent Datum
DMF  .        Driller's Depth            :Drilling Measured From
LMF  .        Rotary table               :Log Measured From
APD  .M         25.60000                 :Above Permanent Datum
EDF  .M         25.60000                 :Elevation of Derrick Floor
EGL  .M       -80.360000                 :Elevation of Ground Level
EKB  .M         25.60000                 :Elevation of Kelly Bushing
TDL  .M       3100.00000                 :Total Depth - Logger
TDD  .M       3100.00000                 :Total Depth - Driller
MHD  .DEG       1.54000                  :Maximum Hole Deviation
AMD  .DEG     97.370000                  :Azimuth of Maximum Hole Deviation
BS   .IN        12.25000                 :Bit Size
BSDT .M       3100.00000                 :Bit Size Depth To
BSDF .M       1444.00000                 :Bit Size Depth From
CWEI .LB/M     236.16000                 :Casing Weight
CSIZ .IN        13.37500                 :Current Casing Size
CASG .         P-110                     :Casing Grade
CADT .        1433.6300                  :Casing Depth To
CDF  .        105.86000                  :Casing Depth From
CBLO .M       1433.6300                  :Casing Bottom Logger
CBDR .M       1433.6300                  :Casing Bottom Driller
#-----------------------------------------------------------------------------
~CURVE INFORMATION
#MNEM.UNIT   API CODE                                  DESCRIPTION
#---- -----  --------                                  -----------------------
DEPT .M                                                :DEPTH (BOREHOLE) {F10.4}
TDEP ..1IN                                             :0.1-ft Frame Depth {F13.4}
ROP5_RM.M/HR                                           :Rate of Penetration, Averaged over Last 5ft {F13.4}
AGTM .S                                                :ARC Gamma Ray Time After Bit {F13.4}
GR_ARC.GAPI                                            :ARC Gamma Ray {F13.4}
A16H .OHMM                                             :ARC Attenuation Resistivity 16-in. at 2 MHz {F13.4}
A22H .OHMM                                             :ARC Attenuation Resistivity 22-in. at 2 MHz {F13.4}
A28H .OHMM                                             :ARC Attenuation Resistivity 28-in. at 2 MHz {F13.4}
A34H .OHMM                                             :ARC Attenuation Resistivity 34-in. at 2 MHz {F13.4}
A40H .OHMM                                             :ARC Attenuation Resistivity 40-in. at 2 MHz {F13.4}
A16L .OHMM                                             :ARC Attenuation Resistivity 16-in. at 400 KHz {F13.4}
A22L .OHMM                                             :ARC Attenuation Resistivity 22-in. at 400 KHz {F13.4}
A28L .OHMM                                             :ARC Attenuation Resistivity 28-in. at 400 KHz {F13.4}
A34L .OHMM                                             :ARC Attenuation Resistivity 34-in. at 400 KHz {F13.4}
A40L .OHMM                                             :ARC Attenuation Resistivity 40-in. at 400 KHz {F13.4}
P16H .OHMM                                             :ARC Phase-Shift Resistivity 16-in. at 2 MHz {F13.4}
P22H .OHMM                                             :ARC Phase-Shift Resistivity 22-in. at 2 MHz {F13.4}
P28H .OHMM                                             :ARC Phase-Shift Resistivity 28-in. at 2 MHz {F13.4}
P34H .OHMM                                             :ARC Phase-Shift Resistivity 34-in. at 2 MHz {F13.4}
P40H .OHMM                                             :ARC Phase-Shift Resistivity 40-in. at 2 MHz {F13.4}
P16L .OHMM                                             :ARC Phase-Shift Resistivity 16-in. at 400 KHz {F13.4}
P22L .OHMM                                             :ARC Phase-Shift Resistivity 22-in. at 400 KHz {F13.4}
P28L .OHMM                                             :ARC Phase-Shift Resistivity 28-in. at 400 KHz {F13.4}
P34L .OHMM                                             :ARC Phase-Shift Resistivity 34-in. at 400 KHz {F13.4}
P40L .OHMM                                             :ARC Phase-Shift Resistivity 40-in. at 400 KHz {F13.4}
TAB_ARC_RES.S                                          :ARC Resistivity Time After Bit {F13.4}
ATMP .DEGC                                             :ARC Annular Temperature {F13.4}
RHOB .G/C3                                             :Bulk Density {F13.4}
DRHO .G/C3                                             :Bulk Density Correction {F13.4}
TAB_DEN.S                                              :Density Time After Bit {F13.4}
TNPH .PU                                               :Thermal Neutron Porosity (Ratio Method) in Selected Lithology {F13.4}
TAB_NEU.S                                              :Neutron Time After Bit {F13.4}
HORD .IN                                               :Horizontal Hole Diameter {F13.4}
VERD .IN                                               :Vertical Hole Diameter {F13.4}
DCHO .IN                                               :Density Caliper, Horizontal {F13.4}
DCVE .IN                                               :Density Caliper, Vertical {F13.4}
DCAV .IN                                               :Density Caliper, Average {F13.4}
APRS_ARC.KPA                                           :ARC Annular Pressure {F13.4}
ECD_ARC.G/C3                                           :Equivalent Circulating Density {F13.4}
#-----------------------------------------------------------------------------
# 
#     DEPT        TDEP       ROP5_RM        AGTM        GR_ARC        A16H         A22H         A28H         A34H         A40H         A16L         A22L         A28L         A34L         A40L         P16H         P22H         P28H         P34H         P40H         P16L         P22L         P28L         P34L         P40L     TAB_ARC_RES      ATMP         RHOB         DRHO       TAB_DEN        TNPH       TAB_NEU        HORD         VERD         DCHO         DCVE         DCAV       APRS_ARC     ECD_ARC
#
~A  
# ...
 2312.6700  910500.0000      25.7830    2120.0000      98.7015       0.5384       0.5391       0.5410       0.5447       0.5489       0.5256       0.5328       0.5371       0.5364       0.5328       0.5119       0.5118       0.5116       0.5169       0.5284       0.5353       0.5339       0.5333       0.5312       0.5269    2110.0000      90.0000       2.2943       0.0267    4800.0000      47.1498    5030.0000      13.2947      13.9492      12.2291      12.1743      12.2017   37886.7070       1.6725
 2312.8224  910560.0000      25.1319    2120.0000     102.3171       0.5436       0.5429       0.5453       0.5483       0.5488       0.5352       0.5403       0.5431       0.5429       0.5414       0.5226       0.5227       0.5196       0.5196       0.5258       0.5418       0.5385       0.5372       0.5362       0.5335    2110.0000      90.0000       2.2869       0.0259    4800.0000      49.3141    5040.0000      14.1390      12.8301      12.2307      12.1684      12.1995   37893.6016       1.6727
 2312.9748  910620.0000      25.2829    2110.0000     101.7780       0.5413       0.5433       0.5472       0.5499       0.5493       0.5377       0.5427       0.5442       0.5417       0.5380       0.5146       0.5139       0.5119       0.5112       0.5131       0.5378       0.5372       0.5376       0.5355       0.5299    2100.0000      90.0000       2.2827       0.0215    4790.0000      51.0922    5030.0000      14.4706      13.4366      12.2027      12.1530      12.1778   37893.6016       1.6726
 2313.1272  910680.0000      24.8970    2120.0000      99.7798       0.5430       0.5439       0.5479       0.5553       0.5629       0.5399       0.5439       0.5450       0.5423       0.5382       0.5149       0.5147       0.5115       0.5098       0.5127       0.5403       0.5378       0.5372       0.5365       0.5340    2110.0000      90.0000       2.2766       0.0140    4800.0000      50.7400    5030.0000      13.9776      14.3004      12.1580      12.1153      12.1367   37900.4961       1.6728
 2313.2796  910740.0000      25.7838    2120.0000      96.7033       0.5414       0.5445       0.5487       0.5518       0.5526       0.5413       0.5426       0.5431       0.5439       0.5456       0.5187       0.5186       0.5170       0.5188       0.5259       0.5396       0.5377       0.5371       0.5366       0.5352    2120.0000      90.0000       2.2744       0.0141    4800.0000      48.3016    5030.0000      14.9371      13.9971      12.1657      12.1283      12.1470   37907.3906       1.6730
 2313.4320  910800.0000      26.8340    2120.0000      96.9254       0.5409       0.5437       0.5476       0.5513       0.5538       0.5360       0.5430       0.5452       0.5434       0.5413       0.5167       0.5165       0.5138       0.5143       0.5205       0.5392       0.5378       0.5353       0.5329       0.5315    2120.0000      90.0000       2.2690       0.0176    4800.0000      43.8020    5020.0000      14.9371      13.9971      12.1533      12.1655      12.1594   37907.3906       1.6729
 2313.5844  910860.0000      26.7912    2110.0000      96.6082       0.5435       0.5449       0.5477       0.5518       0.5558       0.5347       0.5436       0.5464       0.5416       0.5346       0.5164       0.5160       0.5143       0.5168       0.5249       0.5402       0.5390       0.5376       0.5352       0.5322    2110.0000      90.0000       2.2745       0.0229    4770.0000      51.2737    5000.0000      14.6568      14.0858      12.1760      12.1811      12.1786   37907.3906       1.6728
 2313.7368  910920.0000      24.7464    3010.0000      95.8787       0.5457       0.5463       0.5478       0.5497       0.5508       0.5337       0.5422       0.5432       0.5380       0.5329       0.5242       0.5253       0.5232       0.5248       0.5334       0.5435       0.5418       0.5426       0.5447       0.5455    2110.0000      90.0000       2.2765       0.0218    4760.0000      50.0806    4990.0000      13.9598      15.1854      12.1418      12.2214      12.1816   37907.3906       1.6727
 2313.8892  910980.0000      24.8253    2980.0000      97.7817       0.5364       0.5375       0.5402       0.5438       0.5466       0.5335       0.5383       0.5382       0.5375       0.5396       0.5155       0.5128       0.5078       0.5042       0.5045       0.5357       0.5323       0.5310       0.5306       0.5292    2980.0000      90.0000       2.2821       0.0203    4740.0000      57.3553    4970.0000      13.9935      13.7115      12.1704      12.2038      12.1871   37907.3906       1.6726
 2314.0416  911040.0000      21.9298    2990.0000     101.6828       0.5299       0.5312       0.5329       0.5365       0.5415       0.5217       0.5305       0.5343       0.5347       0.5352       0.4997       0.4984       0.4937       0.4934       0.5010       0.5254       0.5247       0.5240       0.5225       0.5204    2990.0000      90.0000       2.2921       0.0251    4740.0000      48.8302    4960.0000      14.1248      14.0077      12.1344      12.1996      12.1670   37914.2852       1.6728
 2314.1940  911100.0000      21.6800    2970.0000      99.8750       0.5320       0.5346       0.5386       0.5449       0.5518       0.5220       0.5318       0.5351       0.5339       0.5329       0.5029       0.5014       0.4985       0.4997       0.5066       0.5261       0.5252       0.5243       0.5233       0.5222    2970.0000      90.0000       2.3008       0.0327    4720.0000      49.2828    4950.0000      14.1248      14.0077      12.1476      12.1882      12.1679   37907.3906       1.6723
 2314.3464  911160.0000      22.1975    2970.0000      92.2631       0.5326       0.5337       0.5356       0.5374       0.5384       0.5228       0.5293       0.5325       0.5319       0.5300       0.5084       0.5079       0.5033       0.5026       0.5099       0.5299       0.5285       0.5262       0.5240       0.5227    2960.0000      90.0000       2.3016       0.0312    4720.0000      47.5244    4940.0000      14.6267      14.6905      12.2569      12.2071      12.2320   37907.3906       1.6722
 2314.4988  911220.0000      22.4311    2960.0000      85.9198       0.5245       0.5291       0.5333       0.5367       0.5395       0.5212       0.5266       0.5271       0.5253       0.5249       0.5071       0.5085       0.5038       0.4998       0.5027       0.5264       0.5248       0.5252       0.5268       0.5275    2960.0000      90.0000       2.2970       0.0268    4720.0000      46.4445    4940.0000      15.1960      13.6051      12.1935      12.1984      12.1960   37907.3906       1.6721
 2314.6512  911280.0000      22.6696    2960.0000      87.4105       0.5270       0.5286       0.5342       0.5415       0.5464       0.5155       0.5239       0.5278       0.5291       0.5305       0.5042       0.5024       0.4992       0.5005       0.5079       0.5255       0.5239       0.5226       0.5209       0.5185    2950.0000      90.0000       2.2945       0.0235    4720.0000      49.0432    4940.0000      13.3639      14.3305      12.1688      12.1964      12.1826   37907.3906       1.6720
 2314.8036  911340.0000      22.7073    2980.0000      90.7724       0.5191       0.5166       0.5195       0.5241       0.5253       0.5106       0.5165       0.5210       0.5223       0.5211       0.5124       0.5102       0.5051       0.5027       0.5055       0.5245       0.5206       0.5191       0.5182       0.5158    2970.0000      90.0000       2.2741       0.0220    4740.0000      49.5978    4940.0000      13.8836      14.4440      12.1811      12.1965      12.1888   37914.2852       1.6722
 2314.9560  911400.0000      22.8646    2970.0000      91.9459       0.5056       0.5107       0.5183       0.5229       0.5217       0.5063       0.5132       0.5163       0.5151       0.5123       0.5015       0.4980       0.4919       0.4887       0.4908       0.5153       0.5125       0.5116       0.5107       0.5079    2960.0000      90.0000       2.2696       0.0224    4740.0000      50.2963    4940.0000      14.7739      13.6814      12.1983      12.2109      12.2046   37914.2852       1.6721
