~VERSION INFORMATION
VERS.           2.0   :CWLS Log ASCII Standard - VERSION 2.0
WRAP.           NO    :One Line per depth step
PROD.  Company   :LAS Producer
PROG.  DLIS to ASCII 12C0-302                          :LAS Program name and version
CREA.        2006/12/30 10:30                          :LAS Creation date {YYYY/MM/DD hh:mm}
SOURCE.     KGIII6-B1_12in_DLIS_1430-3100m.dlis        :DLIS File Name
FILE-ID.     CDF_LWD003                                :File Identification Number
#--------------------------------------------------
~WELL INFORMATION
#MNEM.UNIT      DATA             DESCRIPTION
#---- ------ --------------   -----------------------------
STRT .M      1429.9692       :START DEPTH     
STOP .M      3099.9684       :STOP DEPTH     
STEP .M         0.1524       :STEP     
NULL .          -999.25      :NULL VALUE
COMP .        Company:COMPANY
WELL .        W2:WELL
FLD  .        Block                  :FIELD
LOC  .        Offshore                                 :LOCATION
CNTY .        Actinia                                  :COUNTY
STAT .        State                           :STATE
CTRY .                                                 :COUNTRY
API  .        06INM0159                                :API NUMBER
UWI  .                                                 :UNIQUE WELL ID
DATE .        25-Dec-2006                              :LOG DATE {DD-MMM-YYYY}
SRVC .        Company                             :SERVICE COMPANY
LATI .DEG     N 16.2763                                :LATITUDE
LONG .DEG     E 82.0962                                :LONGITUDE
GDAT .                                                 :GeoDetic Datum
SECT .        12.25 in.                                :Section
#-----------------------------------------------------------------------------
~PARAMETER INFORMATION
#MNEM.UNIT    VALUE                      DESCRIPTION
#---- -----   --------------------       ------------------------
RUN  .                                   :RUN NUMBER
PDAT .        Lowest Astronomical Tide   :Permanent Datum
EPD  .M           0.000000               :Elevation of Permanent Datum above Mean Sea Level
EPD  .M           0.000000               :Elevation of tool zero above Mean Sea Level
LMF  .          Drill Floor              :Logging Measured From (Name of Logging Elevation Reference)
APD  .                                   :Elevation of Depth Reference (LMF) above Permanent Datum
TN1 .        PowerPulse                  :Tool Number 1
TN2 .        ARC,SADN                    :Tool Number 2
OS3  .          N/A                      :Other Services Line 3
OS2  .          InterACT                 :Other Services Line 2
OS1  .          Directional Surveys      :Other Services Line 1
MST  .DEGC      66.00000                 :Mud Sample Temperature
BHT  .DEGC     99.00000                  :Bottom Hole Temperature
RMS.OHMM      1000.00000                 :Resistivity of Mud Sample (RM)
MST.DEGC        66.00000                 :Mud Sample temperature (RM)
MW.LB/G         13.60000                 :Mud Weight (RM)
SHT.DEGC        25.00000                 :Surface Hole Temperature (RM)
BSAL .PPM     64350.00000                :Mud Salinity
MRT  .DEGC     99.00000                  :Maximum Recorded Temperature
RMB  .OHMM    1000.00000                 :Resistivity of Mud - BHT
MCST .DEGC      66.00000                 :Mud Cake Sample Temperature
RMCS .OHMM    1000.00000                 :Resistivity of Mud Cake Sample
MFST .DEGC      66.00000                 :Mud Filtrate Sample Temperature
RMFS .OHMM    1000.00000                 :Resistivity of Mud Filtrate Sample
RMS  .OHMM    1000.00000                 :Resistivity of Mud Sample
MSS  .        Shakers                    :Mud Sample Source
MFSS  .       Shakers                    :Mud Filtrate Sample Source
MCSS  .       Shakers                    :Mud Cake Sample Source
TCS  .         03 00                     :End Log Time
DCS  .         22-Dec-2006               :End Log Date
DFT  .        SOBM                       :Drilling Fluid Type
DFPH .           N/A                     :Drilling Fluid PH
DFV  .S       79.00000                   :Drilling Fluid Viscosity
DFD  .LB/G    13.600000                  :Drilling Fluid Density
DOWR .        75/25                      :Oil/Water Ratio
DFTS .        25.57                      :Drilling Fluid Total Solids
DHGS .        242.31                     :Drilling Fluid High Gravity Solids
TLAB .        18 00                      :Begin Log Time
DLAB .        15-Dec-2006                :Begin Log Date
RUN  .        2                          :Run Number
BLI  .M       3100.00000                 :Bottom Log Interval
TLI  .M        1430.00000                :Top Log Interval
WITN .        Peter/Ismad                 :Witness's Name
ENGI .        Hatim/Harsh/Sidy           :Engineer's Name
LUL  .        Zone 2                     :Logging Unit Location
LUN  .        OLU-KC-0103                :Logging Unit Number
RR5  .        No  Potassium in mud       :Remark Line 5
RR4  .        SADN Neutron Porosity is corrected for bit size, mud Hydrogen Index, temperature, pressure and mud salinity :Remark Line 4
RR3  .        SADN Density is corrected for Stand off by Spine and Ribs Plot :Remark Line 3
RR2  .        ARC8 Resistivity is environmentally corrected for mud resistivity and bit size. :Remark Line 2
RR1  .        GR is corrected for bit size, tool size and mud weight               :Remark Line 1
PDAT .        Lowest Astronomical Tide   :Permanent Datum
EPD  .M          0.00000                 :Elevation of Permanent Datum
DMF  .        Driller's Depth            :Drilling Measured From
LMF  .        Rotary table               :Log Measured From
APD  .M         25.60000                 :Above Permanent Datum
EDF  .M         25.60000                 :Elevation of Derrick Floor
EGL  .M       -80.360000                 :Elevation of Ground Level
EKB  .M         25.60000                 :Elevation of Kelly Bushing
TDL  .M       3100.00000                 :Total Depth - Logger
TDD  .M       3100.00000                 :Total Depth - Driller
MHD  .DEG       1.54000                  :Maximum Hole Deviation
AMD  .DEG     97.370000                  :Azimuth of Maximum Hole Deviation
BS   .IN        12.25000                 :Bit Size
BSDT .M       3100.00000                 :Bit Size Depth To
BSDF .M       1444.00000                 :Bit Size Depth From
CWEI .LB/M     236.16000                 :Casing Weight
CSIZ .IN        13.37500                 :Current Casing Size
CASG .         P-110                     :Casing Grade
CADT .        1433.6300                  :Casing Depth To
CDF  .        105.86000                  :Casing Depth From
CBLO .M       1433.6300                  :Casing Bottom Logger
CBDR .M       1433.6300                  :Casing Bottom Driller
#-----------------------------------------------------------------------------
~CURVE INFORMATION
#MNEM.UNIT   API CODE                                  DESCRIPTION
#---- -----  --------                                  -----------------------
DEPT .M                                                :DEPTH (BOREHOLE) {F10.4}
TDEP ..1IN                                             :0.1-ft Frame Depth {F13.4}
ROP5_RM.M/HR                                           :Rate of Penetration, Averaged over Last 5ft {F13.4}
AGTM .S                                                :ARC Gamma Ray Time After Bit {F13.4}
GR_ARC.GAPI                                            :ARC Gamma Ray {F13.4}
A16H .OHMM                                             :ARC Attenuation Resistivity 16-in. at 2 MHz {F13.4}
A22H .OHMM                                             :ARC Attenuation Resistivity 22-in. at 2 MHz {F13.4}
A28H .OHMM                                             :ARC Attenuation Resistivity 28-in. at 2 MHz {F13.4}
A34H .OHMM                                             :ARC Attenuation Resistivity 34-in. at 2 MHz {F13.4}
A40H .OHMM                                             :ARC Attenuation Resistivity 40-in. at 2 MHz {F13.4}
A16L .OHMM                                             :ARC Attenuation Resistivity 16-in. at 400 KHz {F13.4}
A22L .OHMM                                             :ARC Attenuation Resistivity 22-in. at 400 KHz {F13.4}
A28L .OHMM                                             :ARC Attenuation Resistivity 28-in. at 400 KHz {F13.4}
A34L .OHMM                                             :ARC Attenuation Resistivity 34-in. at 400 KHz {F13.4}
A40L .OHMM                                             :ARC Attenuation Resistivity 40-in. at 400 KHz {F13.4}
P16H .OHMM                                             :ARC Phase-Shift Resistivity 16-in. at 2 MHz {F13.4}
P22H .OHMM                                             :ARC Phase-Shift Resistivity 22-in. at 2 MHz {F13.4}
P28H .OHMM                                             :ARC Phase-Shift Resistivity 28-in. at 2 MHz {F13.4}
P34H .OHMM                                             :ARC Phase-Shift Resistivity 34-in. at 2 MHz {F13.4}
P40H .OHMM                                             :ARC Phase-Shift Resistivity 40-in. at 2 MHz {F13.4}
P16L .OHMM                                             :ARC Phase-Shift Resistivity 16-in. at 400 KHz {F13.4}
P22L .OHMM                                             :ARC Phase-Shift Resistivity 22-in. at 400 KHz {F13.4}
P28L .OHMM                                             :ARC Phase-Shift Resistivity 28-in. at 400 KHz {F13.4}
P34L .OHMM                                             :ARC Phase-Shift Resistivity 34-in. at 400 KHz {F13.4}
P40L .OHMM                                             :ARC Phase-Shift Resistivity 40-in. at 400 KHz {F13.4}
TAB_ARC_RES.S                                          :ARC Resistivity Time After Bit {F13.4}
ATMP .DEGC                                             :ARC Annular Temperature {F13.4}
RHOB .G/C3                                             :Bulk Density {F13.4}
DRHO .G/C3                                             :Bulk Density Correction {F13.4}
TAB_DEN.S                                              :Density Time After Bit {F13.4}
TNPH .PU                                               :Thermal Neutron Porosity (Ratio Method) in Selected Lithology {F13.4}
TAB_NEU.S                                              :Neutron Time After Bit {F13.4}
HORD .IN                                               :Horizontal Hole Diameter {F13.4}
VERD .IN                                               :Vertical Hole Diameter {F13.4}
DCHO .IN                                               :Density Caliper, Horizontal {F13.4}
DCVE .IN                                               :Density Caliper, Vertical {F13.4}
DCAV .IN                                               :Density Caliper, Average {F13.4}
APRS_ARC.KPA                                           :ARC Annular Pressure {F13.4}
ECD_ARC.G/C3                                           :Equivalent Circulating Density {F13.4}
#-----------------------------------------------------------------------------
# 
#     DEPT        TDEP       ROP5_RM        AGTM        GR_ARC        A16H         A22H         A28H         A34H         A40H         A16L         A22L         A28L         A34L         A40L         P16H         P22H         P28H         P34H         P40H         P16L         P22L         P28L         P34L         P40L     TAB_ARC_RES      ATMP         RHOB         DRHO       TAB_DEN        TNPH       TAB_NEU        HORD         VERD         DCHO         DCVE         DCAV       APRS_ARC     ECD_ARC
#
~A  
# ...
 2422.3980  953700.0000      21.5030    2590.0000      97.4011       0.5227       0.5219       0.5234       0.5265       0.5289       0.5213       0.5268       0.5293       0.5316       0.5354       0.4920       0.4858       0.4796       0.4790       0.4840       0.5168       0.5140       0.5143       0.5144       0.5111    2580.0000      94.0000       2.3025       0.0237    6510.0000      48.4320    6780.0000      14.1780      14.0645      12.2423      12.1813      12.2118   39755.1875       1.6755
 2422.5504  953760.0000      22.2275    2590.0000      98.2574       0.5141       0.5180       0.5212       0.5247       0.5288       0.5170       0.5237       0.5270       0.5316       0.5393       0.4919       0.4903       0.4849       0.4824       0.4864       0.5187       0.5172       0.5162       0.5146       0.5117    2580.0000      94.0000       2.2894       0.0237    6510.0000      48.2425    6780.0000      14.7384      14.3163      12.2329      12.2891      12.2610   39775.8711       1.6762
 2422.7028  953820.0000      23.1437    2600.0000      99.0186       0.5221       0.5254       0.5271       0.5304       0.5364       0.5175       0.5262       0.5268       0.5271       0.5325       0.5006       0.5002       0.4937       0.4907       0.4972       0.5224       0.5225       0.5227       0.5209       0.5172    2580.0000      94.0000       2.2890       0.0202    6510.0000      49.6331    6800.0000      13.9173      15.6093      12.2014      12.2054      12.2034   39768.9766       1.6758
 2422.8552  953880.0000      23.8378    2620.0000     101.1436       0.5318       0.5360       0.5367       0.5345       0.5328       0.5260       0.5315       0.5331       0.5347       0.5387       0.5041       0.5051       0.5014       0.5003       0.5064       0.5258       0.5267       0.5284       0.5278       0.5242    2610.0000      94.0000       2.3039       0.0350    6510.0000      50.3186    6810.0000      14.2755      14.7775      12.2384      12.2114      12.2249   39789.6602       1.6766
 2423.0076  953940.0000      25.7445    2610.0000     105.5838       0.5335       0.5372       0.5396       0.5416       0.5442       0.5237       0.5335       0.5357       0.5365       0.5411       0.5082       0.5087       0.5049       0.5040       0.5100       0.5282       0.5294       0.5304       0.5293       0.5266    2600.0000      94.0000       2.3142       0.0296    6500.0000      49.4756    6810.0000      15.5082      14.0343      12.2272      12.3299      12.2785   39775.8711       1.6759
 2423.1600  954000.0000      26.3835    2610.0000     105.5838       0.5406       0.5400       0.5392       0.5415       0.5467       0.5331       0.5392       0.5405       0.5429       0.5492       0.5125       0.5108       0.5046       0.5009       0.5038       0.5337       0.5328       0.5323       0.5297       0.5247    2610.0000      94.0000       2.3184       0.0321    6510.0000      48.0034    6830.0000      14.2631      15.5348      12.2736      12.2303      12.2519   39789.6602       1.6764
 2423.3124  954060.0000      26.9307    2610.0000     104.6324       0.5428       0.5413       0.5388       0.5371       0.5373       0.5340       0.5408       0.5405       0.5391       0.5419       0.5170       0.5174       0.5136       0.5110       0.5135       0.5388       0.5368       0.5362       0.5356       0.5336    2610.0000      94.0000       2.3158       0.0276    6500.0000      48.1755    6830.0000      13.6016      14.5398      12.1767      12.1915      12.1841   39796.5547       1.6766
 2423.4648  954120.0000      28.1298    2630.0000     103.5857       0.5399       0.5427       0.5423       0.5401       0.5392       0.5325       0.5384       0.5406       0.5413       0.5428       0.5193       0.5186       0.5104       0.5044       0.5081       0.5395       0.5396       0.5381       0.5352       0.5326    2620.0000      94.0000       2.3122       0.0264    6510.0000      46.8497    6850.0000      13.6016      14.5398      12.1509      12.1790      12.1650   39817.2383       1.6773
 2423.6172  954180.0000      31.4539    2630.0000     105.9961       0.5403       0.5437       0.5439       0.5430       0.5439       0.5315       0.5422       0.5451       0.5451       0.5477       0.5234       0.5237       0.5194       0.5174       0.5221       0.5438       0.5425       0.5418       0.5410       0.5397    2630.0000      94.0000       2.3113       0.0230    6510.0000      47.8599    6860.0000      14.2773      14.0255      12.2073      12.1831      12.1952   39796.5547       1.6764
 2423.7696  954240.0000      32.0813    2630.0000     106.5036       0.5441       0.5434       0.5441       0.5481       0.5542       0.5355       0.5393       0.5401       0.5417       0.5458       0.5300       0.5234       0.5128       0.5099       0.5186       0.5428       0.5411       0.5424       0.5419       0.5367    2630.0000      94.0000       2.3016       0.0230    6510.0000      47.5702    6870.0000      15.0116      14.7810      12.2202      12.2344      12.2273   39803.4492       1.6765
 2423.9220  954300.0000      33.8875    2640.0000     103.7443       0.5392       0.5376       0.5386       0.5402       0.5399       0.5331       0.5354       0.5371       0.5384       0.5394       0.5283       0.5240       0.5174       0.5164       0.5236       0.5431       0.5384       0.5366       0.5364       0.5350    2640.0000      94.0000       2.2971       0.0244    6520.0000      46.9727    6890.0000      14.5558      14.3412      12.2521      12.1848      12.2184   39817.2383       1.6770
 2424.0744  954360.0000      34.9455    2650.0000      98.7965       0.5348       0.5321       0.5333       0.5369       0.5395       0.5361       0.5335       0.5316       0.5325       0.5353       0.5122       0.5073       0.4996       0.4974       0.5037       0.5332       0.5274       0.5255       0.5250       0.5222    2640.0000      93.0000       2.2928       0.0212    6540.0000      46.2660    6900.0000      15.2989      14.5753      12.1748      12.1537      12.1642   39817.2383       1.6769
 2424.2268  954420.0000      35.6691    2650.0000      95.1175       0.5121       0.5172       0.5192       0.5192       0.5201       0.5221       0.5296       0.5322       0.5324       0.5337       0.4903       0.4865       0.4762       0.4692       0.4717       0.5160       0.5137       0.5113       0.5093       0.5077    2640.0000      93.0000       2.3038       0.0244    6550.0000      45.6328    6900.0000      14.6249      15.7370      12.2134      12.1454      12.1794   39824.1328       1.6771
 2424.3792  954480.0000      29.2544    2590.0000      94.7051       0.5122       0.5171       0.5206       0.5242       0.5290       0.5214       0.5311       0.5359       0.5382       0.5413       0.4849       0.4852       0.4781       0.4694       0.4663       0.5160       0.5153       0.5140       0.5135       0.5143    2580.0000      93.0000       2.3105       0.0349    6510.0000      46.4585    6850.0000      14.4848      14.4529      12.2022      12.2121      12.2071   39858.6094       1.6784
 2424.5316  954540.0000      26.8661    2590.0000     100.4141       0.5274       0.5370       0.5386       0.5376       0.5409       0.5266       0.5367       0.5397       0.5403       0.5435       0.5097       0.5112       0.5062       0.5030       0.5082       0.5301       0.5347       0.5358       0.5360       0.5389    2590.0000      93.0000       2.3115       0.0367    6510.0000      48.3959    6850.0000      15.1056      15.9994      12.2539      12.3898      12.3219   39817.2383       1.6766
 2424.6840  954600.0000      26.7650    2590.0000     104.6323       0.5440       0.5499       0.5511       0.5575       0.5730       0.5353       0.5397       0.5405       0.5417       0.5457       0.5450       0.5455       0.5378       0.5306       0.5317       0.5544       0.5532       0.5522       0.5517       0.5513    2580.0000      93.0000       2.3064       0.0321    6520.0000      50.3244    6840.0000      15.3982      15.9817      12.3334      12.3644      12.3489   39831.0273       1.6771
