~VERSION INFORMATION
VERS.           2.0   :CWLS Log ASCII Standard - VERSION 2.0
WRAP.           NO    :One Line per depth step
PROD.  Company   :LAS Producer
PROG.  DLIS to ASCII 12C0-302                          :LAS Program name and version
CREA.        2006/12/30 10:30                          :LAS Creation date {YYYY/MM/DD hh:mm}
SOURCE.     KGIII6-B1_12in_DLIS_1430-3100m.dlis        :DLIS File Name
FILE-ID.     CDF_LWD003                                :File Identification Number
#--------------------------------------------------
~WELL INFORMATION
#MNEM.UNIT      DATA             DESCRIPTION
#---- ------ --------------   -----------------------------
STRT .M      1429.9692       :START DEPTH     
STOP .M      3099.9684       :STOP DEPTH     
STEP .M         0.1524       :STEP     
NULL .          -999.25      :NULL VALUE
COMP .        Company:COMPANY
WELL .        W2:WELL
FLD  .        Block                  :FIELD
LOC  .        Offshore                                 :LOCATION
CNTY .        Actinia                                  :COUNTY
STAT .        State                           :STATE
CTRY .                                                 :COUNTRY
API  .        06INM0159                                :API NUMBER
UWI  .                                                 :UNIQUE WELL ID
DATE .        25-Dec-2006                              :LOG DATE {DD-MMM-YYYY}
SRVC .        Company                             :SERVICE COMPANY
LATI .DEG     N 16.2763                                :LATITUDE
LONG .DEG     E 82.0962                                :LONGITUDE
GDAT .                                                 :GeoDetic Datum
SECT .        12.25 in.                                :Section
#-----------------------------------------------------------------------------
~PARAMETER INFORMATION
#MNEM.UNIT    VALUE                      DESCRIPTION
#---- -----   --------------------       ------------------------
RUN  .                                   :RUN NUMBER
PDAT .        Lowest Astronomical Tide   :Permanent Datum
EPD  .M           0.000000               :Elevation of Permanent Datum above Mean Sea Level
EPD  .M           0.000000               :Elevation of tool zero above Mean Sea Level
LMF  .          Drill Floor              :Logging Measured From (Name of Logging Elevation Reference)
APD  .                                   :Elevation of Depth Reference (LMF) above Permanent Datum
TN1 .        PowerPulse                  :Tool Number 1
TN2 .        ARC,SADN                    :Tool Number 2
OS3  .          N/A                      :Other Services Line 3
OS2  .          InterACT                 :Other Services Line 2
OS1  .          Directional Surveys      :Other Services Line 1
MST  .DEGC      66.00000                 :Mud Sample Temperature
BHT  .DEGC     99.00000                  :Bottom Hole Temperature
RMS.OHMM      1000.00000                 :Resistivity of Mud Sample (RM)
MST.DEGC        66.00000                 :Mud Sample temperature (RM)
MW.LB/G         13.60000                 :Mud Weight (RM)
SHT.DEGC        25.00000                 :Surface Hole Temperature (RM)
BSAL .PPM     64350.00000                :Mud Salinity
MRT  .DEGC     99.00000                  :Maximum Recorded Temperature
RMB  .OHMM    1000.00000                 :Resistivity of Mud - BHT
MCST .DEGC      66.00000                 :Mud Cake Sample Temperature
RMCS .OHMM    1000.00000                 :Resistivity of Mud Cake Sample
MFST .DEGC      66.00000                 :Mud Filtrate Sample Temperature
RMFS .OHMM    1000.00000                 :Resistivity of Mud Filtrate Sample
RMS  .OHMM    1000.00000                 :Resistivity of Mud Sample
MSS  .        Shakers                    :Mud Sample Source
MFSS  .       Shakers                    :Mud Filtrate Sample Source
MCSS  .       Shakers                    :Mud Cake Sample Source
TCS  .         03 00                     :End Log Time
DCS  .         22-Dec-2006               :End Log Date
DFT  .        SOBM                       :Drilling Fluid Type
DFPH .           N/A                     :Drilling Fluid PH
DFV  .S       79.00000                   :Drilling Fluid Viscosity
DFD  .LB/G    13.600000                  :Drilling Fluid Density
DOWR .        75/25                      :Oil/Water Ratio
DFTS .        25.57                      :Drilling Fluid Total Solids
DHGS .        242.31                     :Drilling Fluid High Gravity Solids
TLAB .        18 00                      :Begin Log Time
DLAB .        15-Dec-2006                :Begin Log Date
RUN  .        2                          :Run Number
BLI  .M       3100.00000                 :Bottom Log Interval
TLI  .M        1430.00000                :Top Log Interval
WITN .        Peter/Ismad                 :Witness's Name
ENGI .        Hatim/Harsh/Sidy           :Engineer's Name
LUL  .        Zone 2                     :Logging Unit Location
LUN  .        OLU-KC-0103                :Logging Unit Number
RR5  .        No  Potassium in mud       :Remark Line 5
RR4  .        SADN Neutron Porosity is corrected for bit size, mud Hydrogen Index, temperature, pressure and mud salinity :Remark Line 4
RR3  .        SADN Density is corrected for Stand off by Spine and Ribs Plot :Remark Line 3
RR2  .        ARC8 Resistivity is environmentally corrected for mud resistivity and bit size. :Remark Line 2
RR1  .        GR is corrected for bit size, tool size and mud weight               :Remark Line 1
PDAT .        Lowest Astronomical Tide   :Permanent Datum
EPD  .M          0.00000                 :Elevation of Permanent Datum
DMF  .        Driller's Depth            :Drilling Measured From
LMF  .        Rotary table               :Log Measured From
APD  .M         25.60000                 :Above Permanent Datum
EDF  .M         25.60000                 :Elevation of Derrick Floor
EGL  .M       -80.360000                 :Elevation of Ground Level
EKB  .M         25.60000                 :Elevation of Kelly Bushing
TDL  .M       3100.00000                 :Total Depth - Logger
TDD  .M       3100.00000                 :Total Depth - Driller
MHD  .DEG       1.54000                  :Maximum Hole Deviation
AMD  .DEG     97.370000                  :Azimuth of Maximum Hole Deviation
BS   .IN        12.25000                 :Bit Size
BSDT .M       3100.00000                 :Bit Size Depth To
BSDF .M       1444.00000                 :Bit Size Depth From
CWEI .LB/M     236.16000                 :Casing Weight
CSIZ .IN        13.37500                 :Current Casing Size
CASG .         P-110                     :Casing Grade
CADT .        1433.6300                  :Casing Depth To
CDF  .        105.86000                  :Casing Depth From
CBLO .M       1433.6300                  :Casing Bottom Logger
CBDR .M       1433.6300                  :Casing Bottom Driller
#-----------------------------------------------------------------------------
~CURVE INFORMATION
#MNEM.UNIT   API CODE                                  DESCRIPTION
#---- -----  --------                                  -----------------------
DEPT .M                                                :DEPTH (BOREHOLE) {F10.4}
TDEP ..1IN                                             :0.1-ft Frame Depth {F13.4}
ROP5_RM.M/HR                                           :Rate of Penetration, Averaged over Last 5ft {F13.4}
AGTM .S                                                :ARC Gamma Ray Time After Bit {F13.4}
GR_ARC.GAPI                                            :ARC Gamma Ray {F13.4}
A16H .OHMM                                             :ARC Attenuation Resistivity 16-in. at 2 MHz {F13.4}
A22H .OHMM                                             :ARC Attenuation Resistivity 22-in. at 2 MHz {F13.4}
A28H .OHMM                                             :ARC Attenuation Resistivity 28-in. at 2 MHz {F13.4}
A34H .OHMM                                             :ARC Attenuation Resistivity 34-in. at 2 MHz {F13.4}
A40H .OHMM                                             :ARC Attenuation Resistivity 40-in. at 2 MHz {F13.4}
A16L .OHMM                                             :ARC Attenuation Resistivity 16-in. at 400 KHz {F13.4}
A22L .OHMM                                             :ARC Attenuation Resistivity 22-in. at 400 KHz {F13.4}
A28L .OHMM                                             :ARC Attenuation Resistivity 28-in. at 400 KHz {F13.4}
A34L .OHMM                                             :ARC Attenuation Resistivity 34-in. at 400 KHz {F13.4}
A40L .OHMM                                             :ARC Attenuation Resistivity 40-in. at 400 KHz {F13.4}
P16H .OHMM                                             :ARC Phase-Shift Resistivity 16-in. at 2 MHz {F13.4}
P22H .OHMM                                             :ARC Phase-Shift Resistivity 22-in. at 2 MHz {F13.4}
P28H .OHMM                                             :ARC Phase-Shift Resistivity 28-in. at 2 MHz {F13.4}
P34H .OHMM                                             :ARC Phase-Shift Resistivity 34-in. at 2 MHz {F13.4}
P40H .OHMM                                             :ARC Phase-Shift Resistivity 40-in. at 2 MHz {F13.4}
P16L .OHMM                                             :ARC Phase-Shift Resistivity 16-in. at 400 KHz {F13.4}
P22L .OHMM                                             :ARC Phase-Shift Resistivity 22-in. at 400 KHz {F13.4}
P28L .OHMM                                             :ARC Phase-Shift Resistivity 28-in. at 400 KHz {F13.4}
P34L .OHMM                                             :ARC Phase-Shift Resistivity 34-in. at 400 KHz {F13.4}
P40L .OHMM                                             :ARC Phase-Shift Resistivity 40-in. at 400 KHz {F13.4}
TAB_ARC_RES.S                                          :ARC Resistivity Time After Bit {F13.4}
ATMP .DEGC                                             :ARC Annular Temperature {F13.4}
RHOB .G/C3                                             :Bulk Density {F13.4}
DRHO .G/C3                                             :Bulk Density Correction {F13.4}
TAB_DEN.S                                              :Density Time After Bit {F13.4}
TNPH .PU                                               :Thermal Neutron Porosity (Ratio Method) in Selected Lithology {F13.4}
TAB_NEU.S                                              :Neutron Time After Bit {F13.4}
HORD .IN                                               :Horizontal Hole Diameter {F13.4}
VERD .IN                                               :Vertical Hole Diameter {F13.4}
DCHO .IN                                               :Density Caliper, Horizontal {F13.4}
DCVE .IN                                               :Density Caliper, Vertical {F13.4}
DCAV .IN                                               :Density Caliper, Average {F13.4}
APRS_ARC.KPA                                           :ARC Annular Pressure {F13.4}
ECD_ARC.G/C3                                           :Equivalent Circulating Density {F13.4}
#-----------------------------------------------------------------------------
# 
#     DEPT        TDEP       ROP5_RM        AGTM        GR_ARC        A16H         A22H         A28H         A34H         A40H         A16L         A22L         A28L         A34L         A40L         P16H         P22H         P28H         P34H         P40H         P16L         P22L         P28L         P34L         P40L     TAB_ARC_RES      ATMP         RHOB         DRHO       TAB_DEN        TNPH       TAB_NEU        HORD         VERD         DCHO         DCVE         DCAV       APRS_ARC     ECD_ARC
#
~A  
# ...
 2863.7484 1127460.0000      14.2643    2270.0000      77.0710       0.6358       0.5973       0.5829       0.5860       0.5867       0.6234       0.6154       0.6140       0.6119       0.6045       0.6712       0.6479       0.6339       0.6222       0.6046       0.6537       0.6379       0.6357       0.6308       0.6114    2260.0000      79.0000       2.2793       0.0118    7210.0000      45.5402    7710.0000      15.0275      16.3417      12.8280      12.3718      12.5999   47766.8984       1.7026
 2863.9008 1127520.0000      14.4879    2280.0000      76.4325       0.6009       0.5990       0.6021       0.6090       0.6147       0.6144       0.6148       0.6191       0.6224       0.6213       0.6339       0.6208       0.6131       0.6080       0.6003       0.6352       0.6204       0.6198       0.6230       0.6165    2270.0000      79.0000       2.2636       0.0074    7230.0000      46.5150    7730.0000      15.9569      16.3524      12.7851      12.2895      12.5373   47760.0039       1.7023
 2864.0532 1127580.0000      14.3433    2350.0000      75.1554       0.5836       0.5935       0.6048       0.6121       0.6135       0.6030       0.6140       0.6236       0.6258       0.6210       0.5971       0.5903       0.5916       0.6051       0.6234       0.6069       0.6040       0.6073       0.6122       0.6125    2320.0000      79.0000       2.2724       0.0121    7260.0000      47.5543    7760.0000      15.6093      15.9551      12.5656      12.2457      12.4056   47755.9063       1.7021
 2864.2056 1127640.0000       9.1765    2360.0000      77.9932       0.5719       0.5947       0.5997       0.6042       0.6250       0.5948       0.6111       0.6199       0.6197       0.6157       0.6325       0.6341       0.6383       0.6495       0.6655       0.6171       0.6255       0.6352       0.6408       0.6409    2350.0000      79.0000       2.2882       0.0163    7260.0000      50.8317    7780.0000      16.6096      16.3222      12.3590      12.2484      12.3037   47766.8984       1.7024
 2864.3580 1127700.0000       6.5535    2380.0000      78.4507       0.5886       0.5913       0.5827       0.5739       0.5753       0.6009       0.6140       0.6200       0.6178       0.6125       0.6466       0.6402       0.6473       0.6733       0.7064       0.6249       0.6270       0.6338       0.6426       0.6486    2370.0000      79.0000       2.3205       0.0203    7280.0000      47.9438    7790.0000      16.6468      15.9675      12.6079      12.8391      12.7235   47773.7930       1.7025
 2864.5104 1127760.0000       5.9322    2410.0000      77.0778       0.5979       0.6070       0.6106       0.6049       0.5951       0.6019       0.6127       0.6199       0.6228       0.6232       0.6353       0.6285       0.6329       0.6511       0.6725       0.6234       0.6233       0.6260       0.6306       0.6344    2390.0000      79.0000       2.3502       0.0215    7320.0000      46.5476    7830.0000      15.8771      16.3843      12.7012      13.1042      12.9027   47787.5820       1.7029
 2864.6628 1127820.0000       5.8281    2410.0000      73.5046       0.6060       0.6041       0.6044       0.6107       0.6208       0.5944       0.6085       0.6132       0.6127       0.6139       0.6706       0.6745       0.6892       0.7050       0.7104       0.6337       0.6388       0.6426       0.6473       0.6544    2410.0000      80.0000       2.3416       0.0180    7330.0000      46.4658    7860.0000      15.0541      14.3624      12.8607      12.9198      12.8902   47795.8438       1.7031
 2864.8152 1127880.0000       5.8209    2420.0000      70.3014       0.6105       0.6127       0.6055       0.6055       0.6215       0.6000       0.6127       0.6166       0.6164       0.6184       0.6918       0.6992       0.7175       0.7414       0.7595       0.6493       0.6506       0.6521       0.6568       0.6646    2420.0000      80.0000       2.3288       0.0195    7360.0000      47.3463    7870.0000      14.4493      16.4198      12.9022      12.6542      12.7782   47794.4766       1.7030
 2864.9676 1127940.0000       6.0521    2440.0000      69.1361       0.6222       0.6201       0.6064       0.5961       0.5994       0.6063       0.6154       0.6159       0.6148       0.6184       0.7311       0.7388       0.7532       0.7706       0.7846       0.6681       0.6716       0.6728       0.6757       0.6827    2430.0000      80.0000       2.3307       0.0120    7390.0000      47.5602    7890.0000      16.3151      16.5847      12.9236      12.6903      12.8070   47801.3711       1.7031
 2865.1200 1128000.0000       5.9214    2460.0000      69.0445       0.6363       0.6352       0.6410       0.6497       0.6544       0.6123       0.6182       0.6192       0.6176       0.6171       0.8118       0.8317       0.8405       0.8498       0.8721       0.7157       0.7179       0.7139       0.7125       0.7196    2450.0000      80.0000       2.3527       0.0053    7410.0000      45.3554    7900.0000      15.4922      16.4907      12.7177      12.7033      12.7105   47808.2656       1.7033
 2865.2724 1128060.0000       5.9256    2510.0000      70.6408       0.6593       0.6616       0.6620       0.6533       0.6382       0.6229       0.6241       0.6227       0.6187       0.6145       0.8501       0.8826       0.9088       0.9334       0.9652       0.7422       0.7413       0.7387       0.7384       0.7418    2480.0000      80.0000       2.3628       0.0054    7440.0000      41.9936    7920.0000      16.1130      14.2241      12.4900      12.2849      12.3874   47812.4297       1.7033
 2865.4248 1128120.0000       5.8774    2910.0000      71.8062       0.6506       0.6524       0.6565       0.6537       0.6422       0.6219       0.6238       0.6206       0.6143       0.6092       0.8621       0.8948       0.9226       0.9544       0.9989       0.7456       0.7452       0.7444       0.7454       0.7487    2870.0000      80.0000       2.3382       0.0095    7470.0000      41.8682    7950.0000      16.0544      13.8694      12.3931      12.1148      12.2539   47828.9492       1.7038
 2865.5772 1128180.0000       5.8711    2920.0000      74.3308       0.6631       0.6478       0.6395       0.6273       0.6065       0.6297       0.6203       0.6144       0.6086       0.6012       0.8280       0.8603       0.8913       0.9281       0.9758       0.7394       0.7285       0.7272       0.7328       0.7360    2920.0000      80.0000       2.3237       0.0172    7500.0000      42.9353    7960.0000      15.8451      15.7671      12.3244      12.1937      12.2590   47828.9492       1.7038
 2865.7296 1128240.0000       7.5174    2930.0000      73.0821       0.6744       0.6524       0.6416       0.6344       0.6219       0.6265       0.6180       0.6128       0.6052       0.5942       0.7372       0.7430       0.7625       0.7873       0.8031       0.6937       0.6841       0.6833       0.6839       0.6777    2930.0000      80.0000       2.3102       0.0159    7530.0000      45.0572    7980.0000      15.4833      15.4018      12.4377      12.2769      12.3573   47835.8438       1.7039
 2865.8820 1128300.0000      12.1905    2960.0000      73.0821       0.6544       0.6523       0.6576       0.6752       0.6983       0.6081       0.6102       0.6107       0.6070       0.6007       0.6664       0.6542       0.6590       0.6670       0.6609       0.6558       0.6448       0.6421       0.6391       0.6286    2940.0000      80.0000       2.3126       0.0180    7560.0000      45.4252    8010.0000      15.3521      15.8611      12.4375      12.3725      12.4050   47842.7383       1.7041
 2866.0344 1128360.0000      13.2900    2980.0000      71.6229       0.6188       0.6164       0.6165       0.6251       0.6400       0.5924       0.5943       0.5936       0.5882       0.5806       0.6023       0.6114       0.6133       0.6170       0.6304       0.6132       0.6124       0.6122       0.6111       0.6085    2960.0000      80.0000       2.3138       0.0161    7590.0000      44.6175    8030.0000      15.7866      16.0863      12.3261      12.2587      12.2924   47849.6328       1.7042
