~VERSION INFORMATION
VERS.           2.0   :CWLS Log ASCII Standard - VERSION 2.0
WRAP.           NO    :One Line per depth step
PROD.  Company   :LAS Producer
PROG.  DLIS to ASCII 12C0-302                          :LAS Program name and version
CREA.        2006/12/30 10:30                          :LAS Creation date {YYYY/MM/DD hh:mm}
SOURCE.     KGIII6-B1_12in_DLIS_1430-3100m.dlis        :DLIS File Name
FILE-ID.     CDF_LWD003                                :File Identification Number
#--------------------------------------------------
~WELL INFORMATION
#MNEM.UNIT      DATA             DESCRIPTION
#---- ------ --------------   -----------------------------
STRT .M      1429.9692       :START DEPTH     
STOP .M      3099.9684       :STOP DEPTH     
STEP .M         0.1524       :STEP     
NULL .          -999.25      :NULL VALUE
COMP .        Company:COMPANY
WELL .        W2:WELL
FLD  .        Block                  :FIELD
LOC  .        Offshore                                 :LOCATION
CNTY .        Actinia                                  :COUNTY
STAT .        State                           :STATE
CTRY .                                                 :COUNTRY
API  .        06INM0159                                :API NUMBER
UWI  .                                                 :UNIQUE WELL ID
DATE .        25-Dec-2006                              :LOG DATE {DD-MMM-YYYY}
SRVC .        Company                             :SERVICE COMPANY
LATI .DEG     N 16.2763                                :LATITUDE
LONG .DEG     E 82.0962                                :LONGITUDE
GDAT .                                                 :GeoDetic Datum
SECT .        12.25 in.                                :Section
#-----------------------------------------------------------------------------
~PARAMETER INFORMATION
#MNEM.UNIT    VALUE                      DESCRIPTION
#---- -----   --------------------       ------------------------
RUN  .                                   :RUN NUMBER
PDAT .        Lowest Astronomical Tide   :Permanent Datum
EPD  .M           0.000000               :Elevation of Permanent Datum above Mean Sea Level
EPD  .M           0.000000               :Elevation of tool zero above Mean Sea Level
LMF  .          Drill Floor              :Logging Measured From (Name of Logging Elevation Reference)
APD  .                                   :Elevation of Depth Reference (LMF) above Permanent Datum
TN1 .        PowerPulse                  :Tool Number 1
TN2 .        ARC,SADN                    :Tool Number 2
OS3  .          N/A                      :Other Services Line 3
OS2  .          InterACT                 :Other Services Line 2
OS1  .          Directional Surveys      :Other Services Line 1
MST  .DEGC      66.00000                 :Mud Sample Temperature
BHT  .DEGC     99.00000                  :Bottom Hole Temperature
RMS.OHMM      1000.00000                 :Resistivity of Mud Sample (RM)
MST.DEGC        66.00000                 :Mud Sample temperature (RM)
MW.LB/G         13.60000                 :Mud Weight (RM)
SHT.DEGC        25.00000                 :Surface Hole Temperature (RM)
BSAL .PPM     64350.00000                :Mud Salinity
MRT  .DEGC     99.00000                  :Maximum Recorded Temperature
RMB  .OHMM    1000.00000                 :Resistivity of Mud - BHT
MCST .DEGC      66.00000                 :Mud Cake Sample Temperature
RMCS .OHMM    1000.00000                 :Resistivity of Mud Cake Sample
MFST .DEGC      66.00000                 :Mud Filtrate Sample Temperature
RMFS .OHMM    1000.00000                 :Resistivity of Mud Filtrate Sample
RMS  .OHMM    1000.00000                 :Resistivity of Mud Sample
MSS  .        Shakers                    :Mud Sample Source
MFSS  .       Shakers                    :Mud Filtrate Sample Source
MCSS  .       Shakers                    :Mud Cake Sample Source
TCS  .         03 00                     :End Log Time
DCS  .         22-Dec-2006               :End Log Date
DFT  .        SOBM                       :Drilling Fluid Type
DFPH .           N/A                     :Drilling Fluid PH
DFV  .S       79.00000                   :Drilling Fluid Viscosity
DFD  .LB/G    13.600000                  :Drilling Fluid Density
DOWR .        75/25                      :Oil/Water Ratio
DFTS .        25.57                      :Drilling Fluid Total Solids
DHGS .        242.31                     :Drilling Fluid High Gravity Solids
TLAB .        18 00                      :Begin Log Time
DLAB .        15-Dec-2006                :Begin Log Date
RUN  .        2                          :Run Number
BLI  .M       3100.00000                 :Bottom Log Interval
TLI  .M        1430.00000                :Top Log Interval
WITN .        Peter/Ismad                 :Witness's Name
ENGI .        Hatim/Harsh/Sidy           :Engineer's Name
LUL  .        Zone 2                     :Logging Unit Location
LUN  .        OLU-KC-0103                :Logging Unit Number
RR5  .        No  Potassium in mud       :Remark Line 5
RR4  .        SADN Neutron Porosity is corrected for bit size, mud Hydrogen Index, temperature, pressure and mud salinity :Remark Line 4
RR3  .        SADN Density is corrected for Stand off by Spine and Ribs Plot :Remark Line 3
RR2  .        ARC8 Resistivity is environmentally corrected for mud resistivity and bit size. :Remark Line 2
RR1  .        GR is corrected for bit size, tool size and mud weight               :Remark Line 1
PDAT .        Lowest Astronomical Tide   :Permanent Datum
EPD  .M          0.00000                 :Elevation of Permanent Datum
DMF  .        Driller's Depth            :Drilling Measured From
LMF  .        Rotary table               :Log Measured From
APD  .M         25.60000                 :Above Permanent Datum
EDF  .M         25.60000                 :Elevation of Derrick Floor
EGL  .M       -80.360000                 :Elevation of Ground Level
EKB  .M         25.60000                 :Elevation of Kelly Bushing
TDL  .M       3100.00000                 :Total Depth - Logger
TDD  .M       3100.00000                 :Total Depth - Driller
MHD  .DEG       1.54000                  :Maximum Hole Deviation
AMD  .DEG     97.370000                  :Azimuth of Maximum Hole Deviation
BS   .IN        12.25000                 :Bit Size
BSDT .M       3100.00000                 :Bit Size Depth To
BSDF .M       1444.00000                 :Bit Size Depth From
CWEI .LB/M     236.16000                 :Casing Weight
CSIZ .IN        13.37500                 :Current Casing Size
CASG .         P-110                     :Casing Grade
CADT .        1433.6300                  :Casing Depth To
CDF  .        105.86000                  :Casing Depth From
CBLO .M       1433.6300                  :Casing Bottom Logger
CBDR .M       1433.6300                  :Casing Bottom Driller
#-----------------------------------------------------------------------------
~CURVE INFORMATION
#MNEM.UNIT   API CODE                                  DESCRIPTION
#---- -----  --------                                  -----------------------
DEPT .M                                                :DEPTH (BOREHOLE) {F10.4}
TDEP ..1IN                                             :0.1-ft Frame Depth {F13.4}
ROP5_RM.M/HR                                           :Rate of Penetration, Averaged over Last 5ft {F13.4}
AGTM .S                                                :ARC Gamma Ray Time After Bit {F13.4}
GR_ARC.GAPI                                            :ARC Gamma Ray {F13.4}
A16H .OHMM                                             :ARC Attenuation Resistivity 16-in. at 2 MHz {F13.4}
A22H .OHMM                                             :ARC Attenuation Resistivity 22-in. at 2 MHz {F13.4}
A28H .OHMM                                             :ARC Attenuation Resistivity 28-in. at 2 MHz {F13.4}
A34H .OHMM                                             :ARC Attenuation Resistivity 34-in. at 2 MHz {F13.4}
A40H .OHMM                                             :ARC Attenuation Resistivity 40-in. at 2 MHz {F13.4}
A16L .OHMM                                             :ARC Attenuation Resistivity 16-in. at 400 KHz {F13.4}
A22L .OHMM                                             :ARC Attenuation Resistivity 22-in. at 400 KHz {F13.4}
A28L .OHMM                                             :ARC Attenuation Resistivity 28-in. at 400 KHz {F13.4}
A34L .OHMM                                             :ARC Attenuation Resistivity 34-in. at 400 KHz {F13.4}
A40L .OHMM                                             :ARC Attenuation Resistivity 40-in. at 400 KHz {F13.4}
P16H .OHMM                                             :ARC Phase-Shift Resistivity 16-in. at 2 MHz {F13.4}
P22H .OHMM                                             :ARC Phase-Shift Resistivity 22-in. at 2 MHz {F13.4}
P28H .OHMM                                             :ARC Phase-Shift Resistivity 28-in. at 2 MHz {F13.4}
P34H .OHMM                                             :ARC Phase-Shift Resistivity 34-in. at 2 MHz {F13.4}
P40H .OHMM                                             :ARC Phase-Shift Resistivity 40-in. at 2 MHz {F13.4}
P16L .OHMM                                             :ARC Phase-Shift Resistivity 16-in. at 400 KHz {F13.4}
P22L .OHMM                                             :ARC Phase-Shift Resistivity 22-in. at 400 KHz {F13.4}
P28L .OHMM                                             :ARC Phase-Shift Resistivity 28-in. at 400 KHz {F13.4}
P34L .OHMM                                             :ARC Phase-Shift Resistivity 34-in. at 400 KHz {F13.4}
P40L .OHMM                                             :ARC Phase-Shift Resistivity 40-in. at 400 KHz {F13.4}
TAB_ARC_RES.S                                          :ARC Resistivity Time After Bit {F13.4}
ATMP .DEGC                                             :ARC Annular Temperature {F13.4}
RHOB .G/C3                                             :Bulk Density {F13.4}
DRHO .G/C3                                             :Bulk Density Correction {F13.4}
TAB_DEN.S                                              :Density Time After Bit {F13.4}
TNPH .PU                                               :Thermal Neutron Porosity (Ratio Method) in Selected Lithology {F13.4}
TAB_NEU.S                                              :Neutron Time After Bit {F13.4}
HORD .IN                                               :Horizontal Hole Diameter {F13.4}
VERD .IN                                               :Vertical Hole Diameter {F13.4}
DCHO .IN                                               :Density Caliper, Horizontal {F13.4}
DCVE .IN                                               :Density Caliper, Vertical {F13.4}
DCAV .IN                                               :Density Caliper, Average {F13.4}
APRS_ARC.KPA                                           :ARC Annular Pressure {F13.4}
ECD_ARC.G/C3                                           :Equivalent Circulating Density {F13.4}
#-----------------------------------------------------------------------------
# 
#     DEPT        TDEP       ROP5_RM        AGTM        GR_ARC        A16H         A22H         A28H         A34H         A40H         A16L         A22L         A28L         A34L         A40L         P16H         P22H         P28H         P34H         P40H         P16L         P22L         P28L         P34L         P40L     TAB_ARC_RES      ATMP         RHOB         DRHO       TAB_DEN        TNPH       TAB_NEU        HORD         VERD         DCHO         DCVE         DCAV       APRS_ARC     ECD_ARC
#
~A  
# ...
 3083.2044 1213860.0000      11.9303    6130.0156      93.5118       0.5806       0.5930       0.6036       0.6106       0.6155       0.5769       0.5849       0.5896       0.5900       0.5882       0.5440       0.5440       0.5441       0.5499       0.5614       0.5771       0.5727       0.5699       0.5660       0.5598    6130.0156      98.0000    -999.2500    -999.2500    -999.2500    -999.2500    -999.2500    -999.2500    -999.2500    -999.2500    -999.2500    -999.2500   52255.3867       1.7300
 3083.3568 1213920.0000      14.1509    6170.0156      94.8070       0.5852       0.5988       0.6068       0.6060       0.6014       0.5781       0.5873       0.5942       0.5953       0.5918       0.5462       0.5466       0.5464       0.5513       0.5622       0.5827       0.5771       0.5732       0.5706       0.5675    6150.0156      98.0000    -999.2500    -999.2500    -999.2500    -999.2500    -999.2500    -999.2500    -999.2500    -999.2500    -999.2500    -999.2500   52262.2813       1.7301
 3083.5092 1213980.0000      14.9530    6200.0000      94.0727       0.5929       0.6026       0.6083       0.6139       0.6228       0.5774       0.5909       0.5977       0.5985       0.5979       0.5555       0.5518       0.5463       0.5437       0.5460       0.5858       0.5828       0.5788       0.5736       0.5684    6169.9688      98.0000    -999.2500    -999.2500    -999.2500    -999.2500    -999.2500    -999.2500    -999.2500    -999.2500    -999.2500    -999.2500   52241.5977       1.7293
 3083.6616 1214040.0000      17.4371    6220.0000      92.6008       0.5916       0.6041       0.6101       0.6137       0.6208       0.5813       0.5926       0.5994       0.6017       0.6024       0.5784       0.5739       0.5682       0.5696       0.5794       0.6009       0.5993       0.5975       0.5935       0.5876    6200.0000      98.0000    -999.2500    -999.2500    -999.2500    -999.2500    -999.2500    -999.2500    -999.2500    -999.2500    -999.2500    -999.2500   52255.3867       1.7297
 3083.8140 1214100.0000      18.2205    6260.0000      90.5713       0.6211       0.6273       0.6321       0.6371       0.6434       0.5887       0.5973       0.6014       0.6003       0.5974       0.5996       0.5987       0.5981       0.6024       0.6117       0.6236       0.6157       0.6107       0.6089       0.6080    6240.0000      98.0000    -999.2500    -999.2500    -999.2500    -999.2500    -999.2500    -999.2500    -999.2500    -999.2500    -999.2500    -999.2500   52255.3867       1.7296
 3083.9664 1214160.0000      19.1843    6259.9844      90.3478       0.6310       0.6367       0.6405       0.6467       0.6567       0.5996       0.6029       0.6063       0.6056       0.6006       0.6062       0.6035       0.6026       0.6069       0.6145       0.6250       0.6201       0.6175       0.6138       0.6068    6250.0156      98.0000    -999.2500    -999.2500    -999.2500    -999.2500    -999.2500    -999.2500    -999.2500    -999.2500    -999.2500    -999.2500   52262.2813       1.7298
 3084.1188 1214220.0000      22.3737    6299.9844      93.0648       0.6198       0.6225       0.6287       0.6348       0.6372       0.5982       0.6026       0.6090       0.6110       0.6067       0.6112       0.5998       0.5943       0.6009       0.6140       0.6323       0.6182       0.6129       0.6119       0.6073    6279.9844      98.0000    -999.2500    -999.2500    -999.2500    -999.2500    -999.2500    -999.2500    -999.2500    -999.2500    -999.2500    -999.2500   52262.2813       1.7297
 3084.2712 1214280.0000      23.3518    6320.0000      93.5756       0.6192       0.6144       0.6180       0.6247       0.6267       0.5978       0.6005       0.6074       0.6107       0.6066       0.5931       0.5897       0.5849       0.5850       0.5915       0.6187       0.6094       0.6056       0.6036       0.5984    6309.9688      98.0000    -999.2500    -999.2500    -999.2500    -999.2500    -999.2500    -999.2500    -999.2500    -999.2500    -999.2500    -999.2500   52263.6250       1.7296
 3084.4236 1214340.0000      22.2593    6339.9844      93.0648       0.5950       0.6025       0.6115       0.6152       0.6120       0.5901       0.5957       0.6037       0.6059       0.6001       0.5828       0.5768       0.5735       0.5754       0.5798       0.6107       0.5999       0.5937       0.5911       0.5881    6319.9844      98.0000    -999.2500    -999.2500    -999.2500    -999.2500    -999.2500    -999.2500    -999.2500    -999.2500    -999.2500    -999.2500   52262.2813       1.7295
 3084.5760 1214400.0000      21.9466    6340.0000      91.2769       0.6023       0.6046       0.6154       0.6263       0.6287       0.5891       0.5934       0.6011       0.6039       0.5988       0.5460       0.5430       0.5408       0.5423       0.5471       0.5829       0.5801       0.5790       0.5760       0.5697    6329.9688      98.0000    -999.2500    -999.2500    -999.2500    -999.2500    -999.2500    -999.2500    -999.2500    -999.2500    -999.2500    -999.2500   52263.6250       1.7295
 3084.7284 1214460.0000      21.3482    6360.0000      93.1475       0.5984       0.6057       0.6126       0.6148       0.6124       0.5878       0.5945       0.6012       0.6026       0.5982       0.5404       0.5392       0.5381       0.5387       0.5409       0.5800       0.5760       0.5743       0.5714       0.5654    6309.9688      98.0000    -999.2500    -999.2500    -999.2500    -999.2500    -999.2500    -999.2500    -999.2500    -999.2500    -999.2500    -999.2500   52255.3867       1.7291
 3084.8808 1214520.0000      20.9314    6350.0156      93.9776       0.5746       0.5916       0.6060       0.6135       0.6159       0.5697       0.5825       0.5940       0.6001       0.6005       0.5378       0.5358       0.5332       0.5356       0.5439       0.5703       0.5673       0.5651       0.5623       0.5581    6350.0156      98.0000    -999.2500    -999.2500    -999.2500    -999.2500    -999.2500    -999.2500    -999.2500    -999.2500    -999.2500    -999.2500   52269.1758       1.7295
 3085.0332 1214580.0000      20.2459    6380.0000    -999.2500       0.5798       0.5864       0.5998       0.6114       0.6137       0.5731       0.5841       0.5948       0.6022       0.6056       0.5510       0.5442       0.5437       0.5507       0.5591       0.5798       0.5722       0.5686       0.5656       0.5596    6369.9688      98.0000    -999.2500    -999.2500    -999.2500    -999.2500    -999.2500    -999.2500    -999.2500    -999.2500    -999.2500    -999.2500   52255.3867       1.7289
 3085.1856 1214640.0000      19.6582    -999.2500    -999.2500       0.5827       0.5910       0.6001       0.6069       0.6100       0.5705       0.5837       0.5940       0.5974       0.5951       0.5355       0.5282       0.5264       0.5333       0.5438       0.5693       0.5633       0.5630       0.5639       0.5606    6380.0000      98.0000    -999.2500    -999.2500    -999.2500    -999.2500    -999.2500    -999.2500    -999.2500    -999.2500    -999.2500    -999.2500   52269.1758       1.7293
 3085.3380 1214700.0000      19.3882    -999.2500    -999.2500    -999.2500    -999.2500    -999.2500    -999.2500    -999.2500    -999.2500    -999.2500    -999.2500    -999.2500    -999.2500    -999.2500    -999.2500    -999.2500    -999.2500    -999.2500    -999.2500    -999.2500    -999.2500    -999.2500    -999.2500    -999.2500      98.0000    -999.2500    -999.2500    -999.2500    -999.2500    -999.2500    -999.2500    -999.2500    -999.2500    -999.2500    -999.2500   52262.2813       1.7290
 3085.4904 1214760.0000      18.6853    -999.2500    -999.2500    -999.2500    -999.2500    -999.2500    -999.2500    -999.2500    -999.2500    -999.2500    -999.2500    -999.2500    -999.2500    -999.2500    -999.2500    -999.2500    -999.2500    -999.2500    -999.2500    -999.2500    -999.2500    -999.2500    -999.2500    -999.2500      98.0000    -999.2500    -999.2500    -999.2500    -999.2500    -999.2500    -999.2500    -999.2500    -999.2500    -999.2500    -999.2500   52262.2813       1.7289
