~VERSION INFORMATION
VERS.           2.0   :CWLS Log ASCII Standard - VERSION 2.0
WRAP.           NO    :One Line per depth step
PROD.  Company   :LAS Producer
PROG.  DLIS to ASCII 12C0-302                          :LAS Program name and version
CREA.        2006/12/30 10:30                          :LAS Creation date {YYYY/MM/DD hh:mm}
SOURCE.     KGIII6-B1_12in_DLIS_1430-3100m.dlis        :DLIS File Name
FILE-ID.     CDF_LWD003                                :File Identification Number
#--------------------------------------------------
~WELL INFORMATION
#MNEM.UNIT      DATA             DESCRIPTION
#---- ------ --------------   -----------------------------
STRT .M      1429.9692       :START DEPTH     
STOP .M      3099.9684       :STOP DEPTH     
STEP .M         0.1524       :STEP     
NULL .          -999.25      :NULL VALUE
COMP .        Company:COMPANY
WELL .        W2:WELL
FLD  .        Block                  :FIELD
LOC  .        Offshore                                 :LOCATION
CNTY .        Actinia                                  :COUNTY
STAT .        State                           :STATE
CTRY .                                                 :COUNTRY
API  .        06INM0159                                :API NUMBER
UWI  .                                                 :UNIQUE WELL ID
DATE .        25-Dec-2006                              :LOG DATE {DD-MMM-YYYY}
SRVC .        Company                             :SERVICE COMPANY
LATI .DEG     N 16.2763                                :LATITUDE
LONG .DEG     E 82.0962                                :LONGITUDE
GDAT .                                                 :GeoDetic Datum
SECT .        12.25 in.                                :Section
#-----------------------------------------------------------------------------
~PARAMETER INFORMATION
#MNEM.UNIT    VALUE                      DESCRIPTION
#---- -----   --------------------       ------------------------
RUN  .                                   :RUN NUMBER
PDAT .        Lowest Astronomical Tide   :Permanent Datum
EPD  .M           0.000000               :Elevation of Permanent Datum above Mean Sea Level
EPD  .M           0.000000               :Elevation of tool zero above Mean Sea Level
LMF  .          Drill Floor              :Logging Measured From (Name of Logging Elevation Reference)
APD  .                                   :Elevation of Depth Reference (LMF) above Permanent Datum
TN1 .        PowerPulse                  :Tool Number 1
TN2 .        ARC,SADN                    :Tool Number 2
OS3  .          N/A                      :Other Services Line 3
OS2  .          InterACT                 :Other Services Line 2
OS1  .          Directional Surveys      :Other Services Line 1
MST  .DEGC      66.00000                 :Mud Sample Temperature
BHT  .DEGC     99.00000                  :Bottom Hole Temperature
RMS.OHMM      1000.00000                 :Resistivity of Mud Sample (RM)
MST.DEGC        66.00000                 :Mud Sample temperature (RM)
MW.LB/G         13.60000                 :Mud Weight (RM)
SHT.DEGC        25.00000                 :Surface Hole Temperature (RM)
BSAL .PPM     64350.00000                :Mud Salinity
MRT  .DEGC     99.00000                  :Maximum Recorded Temperature
RMB  .OHMM    1000.00000                 :Resistivity of Mud - BHT
MCST .DEGC      66.00000                 :Mud Cake Sample Temperature
RMCS .OHMM    1000.00000                 :Resistivity of Mud Cake Sample
MFST .DEGC      66.00000                 :Mud Filtrate Sample Temperature
RMFS .OHMM    1000.00000                 :Resistivity of Mud Filtrate Sample
RMS  .OHMM    1000.00000                 :Resistivity of Mud Sample
MSS  .        Shakers                    :Mud Sample Source
MFSS  .       Shakers                    :Mud Filtrate Sample Source
MCSS  .       Shakers                    :Mud Cake Sample Source
TCS  .         03 00                     :End Log Time
DCS  .         22-Dec-2006               :End Log Date
DFT  .        SOBM                       :Drilling Fluid Type
DFPH .           N/A                     :Drilling Fluid PH
DFV  .S       79.00000                   :Drilling Fluid Viscosity
DFD  .LB/G    13.600000                  :Drilling Fluid Density
DOWR .        75/25                      :Oil/Water Ratio
DFTS .        25.57                      :Drilling Fluid Total Solids
DHGS .        242.31                     :Drilling Fluid High Gravity Solids
TLAB .        18 00                      :Begin Log Time
DLAB .        15-Dec-2006                :Begin Log Date
RUN  .        2                          :Run Number
BLI  .M       3100.00000                 :Bottom Log Interval
TLI  .M        1430.00000                :Top Log Interval
WITN .        Peter/Ismad                 :Witness's Name
ENGI .        Hatim/Harsh/Sidy           :Engineer's Name
LUL  .        Zone 2                     :Logging Unit Location
LUN  .        OLU-KC-0103                :Logging Unit Number
RR5  .        No  Potassium in mud       :Remark Line 5
RR4  .        SADN Neutron Porosity is corrected for bit size, mud Hydrogen Index, temperature, pressure and mud salinity :Remark Line 4
RR3  .        SADN Density is corrected for Stand off by Spine and Ribs Plot :Remark Line 3
RR2  .        ARC8 Resistivity is environmentally corrected for mud resistivity and bit size. :Remark Line 2
RR1  .        GR is corrected for bit size, tool size and mud weight               :Remark Line 1
PDAT .        Lowest Astronomical Tide   :Permanent Datum
EPD  .M          0.00000                 :Elevation of Permanent Datum
DMF  .        Driller's Depth            :Drilling Measured From
LMF  .        Rotary table               :Log Measured From
APD  .M         25.60000                 :Above Permanent Datum
EDF  .M         25.60000                 :Elevation of Derrick Floor
EGL  .M       -80.360000                 :Elevation of Ground Level
EKB  .M         25.60000                 :Elevation of Kelly Bushing
TDL  .M       3100.00000                 :Total Depth - Logger
TDD  .M       3100.00000                 :Total Depth - Driller
MHD  .DEG       1.54000                  :Maximum Hole Deviation
AMD  .DEG     97.370000                  :Azimuth of Maximum Hole Deviation
BS   .IN        12.25000                 :Bit Size
BSDT .M       3100.00000                 :Bit Size Depth To
BSDF .M       1444.00000                 :Bit Size Depth From
CWEI .LB/M     236.16000                 :Casing Weight
CSIZ .IN        13.37500                 :Current Casing Size
CASG .         P-110                     :Casing Grade
CADT .        1433.6300                  :Casing Depth To
CDF  .        105.86000                  :Casing Depth From
CBLO .M       1433.6300                  :Casing Bottom Logger
CBDR .M       1433.6300                  :Casing Bottom Driller
#-----------------------------------------------------------------------------
~CURVE INFORMATION
#MNEM.UNIT   API CODE                                  DESCRIPTION
#---- -----  --------                                  -----------------------
DEPT .M                                                :DEPTH (BOREHOLE) {F10.4}
TDEP ..1IN                                             :0.1-ft Frame Depth {F13.4}
ROP5_RM.M/HR                                           :Rate of Penetration, Averaged over Last 5ft {F13.4}
AGTM .S                                                :ARC Gamma Ray Time After Bit {F13.4}
GR_ARC.GAPI                                            :ARC Gamma Ray {F13.4}
A16H .OHMM                                             :ARC Attenuation Resistivity 16-in. at 2 MHz {F13.4}
A22H .OHMM                                             :ARC Attenuation Resistivity 22-in. at 2 MHz {F13.4}
A28H .OHMM                                             :ARC Attenuation Resistivity 28-in. at 2 MHz {F13.4}
A34H .OHMM                                             :ARC Attenuation Resistivity 34-in. at 2 MHz {F13.4}
A40H .OHMM                                             :ARC Attenuation Resistivity 40-in. at 2 MHz {F13.4}
A16L .OHMM                                             :ARC Attenuation Resistivity 16-in. at 400 KHz {F13.4}
A22L .OHMM                                             :ARC Attenuation Resistivity 22-in. at 400 KHz {F13.4}
A28L .OHMM                                             :ARC Attenuation Resistivity 28-in. at 400 KHz {F13.4}
A34L .OHMM                                             :ARC Attenuation Resistivity 34-in. at 400 KHz {F13.4}
A40L .OHMM                                             :ARC Attenuation Resistivity 40-in. at 400 KHz {F13.4}
P16H .OHMM                                             :ARC Phase-Shift Resistivity 16-in. at 2 MHz {F13.4}
P22H .OHMM                                             :ARC Phase-Shift Resistivity 22-in. at 2 MHz {F13.4}
P28H .OHMM                                             :ARC Phase-Shift Resistivity 28-in. at 2 MHz {F13.4}
P34H .OHMM                                             :ARC Phase-Shift Resistivity 34-in. at 2 MHz {F13.4}
P40H .OHMM                                             :ARC Phase-Shift Resistivity 40-in. at 2 MHz {F13.4}
P16L .OHMM                                             :ARC Phase-Shift Resistivity 16-in. at 400 KHz {F13.4}
P22L .OHMM                                             :ARC Phase-Shift Resistivity 22-in. at 400 KHz {F13.4}
P28L .OHMM                                             :ARC Phase-Shift Resistivity 28-in. at 400 KHz {F13.4}
P34L .OHMM                                             :ARC Phase-Shift Resistivity 34-in. at 400 KHz {F13.4}
P40L .OHMM                                             :ARC Phase-Shift Resistivity 40-in. at 400 KHz {F13.4}
TAB_ARC_RES.S                                          :ARC Resistivity Time After Bit {F13.4}
ATMP .DEGC                                             :ARC Annular Temperature {F13.4}
RHOB .G/C3                                             :Bulk Density {F13.4}
DRHO .G/C3                                             :Bulk Density Correction {F13.4}
TAB_DEN.S                                              :Density Time After Bit {F13.4}
TNPH .PU                                               :Thermal Neutron Porosity (Ratio Method) in Selected Lithology {F13.4}
TAB_NEU.S                                              :Neutron Time After Bit {F13.4}
HORD .IN                                               :Horizontal Hole Diameter {F13.4}
VERD .IN                                               :Vertical Hole Diameter {F13.4}
DCHO .IN                                               :Density Caliper, Horizontal {F13.4}
DCVE .IN                                               :Density Caliper, Vertical {F13.4}
DCAV .IN                                               :Density Caliper, Average {F13.4}
APRS_ARC.KPA                                           :ARC Annular Pressure {F13.4}
ECD_ARC.G/C3                                           :Equivalent Circulating Density {F13.4}
#-----------------------------------------------------------------------------
# 
#     DEPT        TDEP       ROP5_RM        AGTM        GR_ARC        A16H         A22H         A28H         A34H         A40H         A16L         A22L         A28L         A34L         A40L         P16H         P22H         P28H         P34H         P40H         P16L         P22L         P28L         P34L         P40L     TAB_ARC_RES      ATMP         RHOB         DRHO       TAB_DEN        TNPH       TAB_NEU        HORD         VERD         DCHO         DCVE         DCAV       APRS_ARC     ECD_ARC
#
~A  
# ...
 2200.5036  866340.0000       4.5994    3760.0000      62.7668       1.8405       1.7711       1.7189       1.6471       1.5563       1.3535       1.3467       1.3247       1.2849       1.2452       2.8009       2.6685       2.5793       2.4931       2.3822       2.1457       2.0579       2.0006       1.9089       1.7813    3750.0000      87.0000       2.4493       0.0534    7760.0000      18.3746    7990.0000      16.0810      15.9320      12.3761      12.3285      12.3523   35942.3828       1.6677
 2200.6560  866400.0000       4.4505    3700.0000      66.4459       1.4856       1.4757       1.4649       1.4421       1.4104       1.2040       1.2080       1.2035       1.1786       1.1445       2.0931       2.1046       2.0942       2.0201       1.9084       1.7189       1.7021       1.7055       1.6671       1.5778    3690.0000      87.0000       2.4079       0.0471    7720.0000      23.4378    7940.0000      15.0470      14.6444      12.2944      12.3089      12.3017   35935.4883       1.6672
 2200.8084  866460.0000       4.2791    3660.0000      76.5000       0.9940       0.9762       0.9715       0.9586       0.9277       0.8973       0.9177       0.9310       0.9253       0.9067       1.0509       1.0446       1.0493       1.0418       1.0114       0.9928       0.9843       0.9901       0.9789       0.9396    3660.0000      87.0000       2.3708       0.0467    7680.0000      31.2540    7910.0000      15.0843      14.4671      12.3004      12.6074      12.4539   35949.2773       1.6677
 2200.9608  866520.0000       4.2241    3650.0000      88.6473       0.8281       0.8196       0.8279       0.8298       0.8105       0.7887       0.8250       0.8508       0.8581       0.8531       0.7626       0.7429       0.7321       0.7225       0.7059       0.7895       0.7801       0.7801       0.7734       0.7518    3640.0000      87.0000       2.3330       0.0420    7660.0000      39.1037    7900.0000      14.5753      15.0772      12.2914      12.3877      12.3395   35949.2773       1.6676
 2201.1132  866580.0000       4.2208    3650.0000     100.3823       0.7324       0.7353       0.7427       0.7455       0.7397       0.7173       0.7588       0.7831       0.7974       0.8114       0.6297       0.6112       0.5998       0.5937       0.5865       0.6824       0.6845       0.6896       0.6866       0.6727    3640.0000      87.0000       2.3048       0.0327    7670.0000      45.8780    7920.0000      14.5753      15.0772      12.3520      12.2356      12.2938   35956.1719       1.6678
 2201.2656  866640.0000       4.2722    3640.0000     104.2834       0.5935       0.6044       0.6096       0.6230       0.6502       0.6051       0.6441       0.6601       0.6728       0.6989       0.5415       0.5499       0.5481       0.5436       0.5471       0.5722       0.5894       0.5974       0.5997       0.6055    3640.0000      87.0000       2.2834       0.0188    7660.0000      48.0187    7920.0000      14.6001      14.8253      12.2005      12.1145      12.1575   35969.9648       1.6684
 2201.4180  866700.0000       4.9711    3640.0000     108.4065       0.5645       0.6003       0.6164       0.6179       0.6239       0.5768       0.6173       0.6357       0.6479       0.6699       0.5437       0.5550       0.5554       0.5493       0.5479       0.5635       0.5804       0.5866       0.5870       0.5921    3640.0000      87.0000       2.2868       0.0144    7670.0000      50.3688    7930.0000      15.0470      14.6781      12.1537      12.1273      12.1405   35956.1719       1.6676
 2201.5704  866760.0000       5.3744    3640.0000     106.7256       0.5725       0.5943       0.6050       0.6208       0.6532       0.5677       0.6047       0.6160       0.6286       0.6615       0.5507       0.5520       0.5474       0.5484       0.5612       0.5668       0.5777       0.5824       0.5850       0.5918    3630.0000      87.0000       2.2931       0.0108    7660.0000      49.5664    7930.0000      15.2404      15.2297      12.1260      12.0765      12.1012   35963.0664       1.6678
 2201.7228  866820.0000       8.8563    3650.0000     105.0446       0.5780       0.5901       0.5946       0.6090       0.6410       0.5607       0.5879       0.5965       0.6088       0.6381       0.5631       0.5620       0.5582       0.5622       0.5773       0.5734       0.5779       0.5799       0.5812       0.5843    3640.0000      87.0000       2.2980       0.0127    7670.0000      49.5422    7940.0000      15.2404      15.2297      12.1189      12.1033      12.1111   35983.7539       1.6686
 2201.8752  866880.0000      10.9310    3640.0000     100.8264       0.5865       0.5882       0.5891       0.6006       0.6237       0.5676       0.5841       0.5879       0.5996       0.6277       0.5741       0.5711       0.5674       0.5676       0.5723       0.5838       0.5830       0.5840       0.5869       0.5897    3630.0000      87.0000       2.2991       0.0147    7670.0000      50.5148    7940.0000      14.0166      13.7523      12.1366      12.1166      12.1266   35983.7539       1.6685
 2202.0276  866940.0000      17.3376    3630.0000     102.7293       0.5887       0.5890       0.5892       0.5952       0.6071       0.5676       0.5802       0.5837       0.5919       0.6106       0.5698       0.5681       0.5631       0.5604       0.5632       0.5873       0.5832       0.5798       0.5780       0.5771    3630.0000      87.0000       2.3007       0.0227    7680.0000      53.4096    7950.0000      13.9492      13.9598      12.2770      12.1836      12.2303   35983.7539       1.6684
 2202.1800  867000.0000      23.9384    3640.0000     105.5838       0.5856       0.5876       0.5880       0.5851       0.5805       0.5712       0.5781       0.5792       0.5809       0.5867       0.5715       0.5701       0.5661       0.5639       0.5660       0.5881       0.5857       0.5868       0.5830       0.5710    3630.0000      87.0000       2.3007       0.0283    7700.0000      52.1626    7970.0000      15.2492      14.8821      12.3172      12.1642      12.2407   35990.6484       1.6686
 2202.3324  867060.0000      31.6074    3690.0000     106.0913       0.5839       0.5833       0.5839       0.5809       0.5734       0.5772       0.5812       0.5796       0.5798       0.5855       0.5600       0.5581       0.5559       0.5552       0.5565       0.5845       0.5808       0.5802       0.5784       0.5727    3660.0000      87.0000       2.2889       0.0294    7700.0000      53.1802    7980.0000      14.2667      15.3042      12.2974      12.1953      12.2463   35990.6484       1.6685
 2202.4848  867120.0000      39.5401    3980.0000     104.4103       0.5831       0.5835       0.5848       0.5875       0.5909       0.5769       0.5815       0.5795       0.5778       0.5810       0.5530       0.5527       0.5496       0.5495       0.5551       0.5782       0.5783       0.5784       0.5739       0.5648    3820.0000      87.0000       2.2756       0.0242    7710.0000      51.6701    7990.0000      14.2667      15.3042      12.2440      12.1847      12.2144   35997.5430       1.6687
 2202.6372  867180.0000      42.3338    4210.0000     104.2834       0.5822       0.5827       0.5836       0.5826       0.5796       0.5730       0.5775       0.5761       0.5752       0.5789       0.5557       0.5533       0.5492       0.5498       0.5569       0.5769       0.5761       0.5745       0.5707       0.5654    4100.0000      87.0000       2.2635       0.0188    7720.0000      53.4622    8000.0000      14.9442      14.9282      12.1867      12.1770      12.1819   35997.5430       1.6686
 2202.7896  867240.0000      46.1375    3120.0000     105.6789       0.5798       0.5842       0.5859       0.5871       0.5903       0.5718       0.5748       0.5746       0.5778       0.5859       0.5598       0.5629       0.5601       0.5556       0.5549       0.5796       0.5798       0.5788       0.5772       0.5762    3110.0000      87.0000       2.2608       0.0155    6620.0000      52.5942    6890.0000      15.0736      14.9708      12.1698      12.1574      12.1636   35997.5430       1.6685
