~VERSION INFORMATION
VERS.           2.0   :CWLS Log ASCII Standard - VERSION 2.0
WRAP.           NO    :One Line per depth step
PROD.  Company   :LAS Producer
PROG.  DLIS to ASCII 12C0-302                          :LAS Program name and version
CREA.        2006/12/30 10:30                          :LAS Creation date {YYYY/MM/DD hh:mm}
SOURCE.     KGIII6-B1_12in_DLIS_1430-3100m.dlis        :DLIS File Name
FILE-ID.     CDF_LWD003                                :File Identification Number
#--------------------------------------------------
~WELL INFORMATION
#MNEM.UNIT      DATA             DESCRIPTION
#---- ------ --------------   -----------------------------
STRT .M      1429.9692       :START DEPTH     
STOP .M      3099.9684       :STOP DEPTH     
STEP .M         0.1524       :STEP     
NULL .          -999.25      :NULL VALUE
COMP .        Company:COMPANY
WELL .        W2:WELL
FLD  .        Block                  :FIELD
LOC  .        Offshore                                 :LOCATION
CNTY .        Actinia                                  :COUNTY
STAT .        State                           :STATE
CTRY .                                                 :COUNTRY
API  .        06INM0159                                :API NUMBER
UWI  .                                                 :UNIQUE WELL ID
DATE .        25-Dec-2006                              :LOG DATE {DD-MMM-YYYY}
SRVC .        Company                             :SERVICE COMPANY
LATI .DEG     N 16.2763                                :LATITUDE
LONG .DEG     E 82.0962                                :LONGITUDE
GDAT .                                                 :GeoDetic Datum
SECT .        12.25 in.                                :Section
#-----------------------------------------------------------------------------
~PARAMETER INFORMATION
#MNEM.UNIT    VALUE                      DESCRIPTION
#---- -----   --------------------       ------------------------
RUN  .                                   :RUN NUMBER
PDAT .        Lowest Astronomical Tide   :Permanent Datum
EPD  .M           0.000000               :Elevation of Permanent Datum above Mean Sea Level
EPD  .M           0.000000               :Elevation of tool zero above Mean Sea Level
LMF  .          Drill Floor              :Logging Measured From (Name of Logging Elevation Reference)
APD  .                                   :Elevation of Depth Reference (LMF) above Permanent Datum
TN1 .        PowerPulse                  :Tool Number 1
TN2 .        ARC,SADN                    :Tool Number 2
OS3  .          N/A                      :Other Services Line 3
OS2  .          InterACT                 :Other Services Line 2
OS1  .          Directional Surveys      :Other Services Line 1
MST  .DEGC      66.00000                 :Mud Sample Temperature
BHT  .DEGC     99.00000                  :Bottom Hole Temperature
RMS.OHMM      1000.00000                 :Resistivity of Mud Sample (RM)
MST.DEGC        66.00000                 :Mud Sample temperature (RM)
MW.LB/G         13.60000                 :Mud Weight (RM)
SHT.DEGC        25.00000                 :Surface Hole Temperature (RM)
BSAL .PPM     64350.00000                :Mud Salinity
MRT  .DEGC     99.00000                  :Maximum Recorded Temperature
RMB  .OHMM    1000.00000                 :Resistivity of Mud - BHT
MCST .DEGC      66.00000                 :Mud Cake Sample Temperature
RMCS .OHMM    1000.00000                 :Resistivity of Mud Cake Sample
MFST .DEGC      66.00000                 :Mud Filtrate Sample Temperature
RMFS .OHMM    1000.00000                 :Resistivity of Mud Filtrate Sample
RMS  .OHMM    1000.00000                 :Resistivity of Mud Sample
MSS  .        Shakers                    :Mud Sample Source
MFSS  .       Shakers                    :Mud Filtrate Sample Source
MCSS  .       Shakers                    :Mud Cake Sample Source
TCS  .         03 00                     :End Log Time
DCS  .         22-Dec-2006               :End Log Date
DFT  .        SOBM                       :Drilling Fluid Type
DFPH .           N/A                     :Drilling Fluid PH
DFV  .S       79.00000                   :Drilling Fluid Viscosity
DFD  .LB/G    13.600000                  :Drilling Fluid Density
DOWR .        75/25                      :Oil/Water Ratio
DFTS .        25.57                      :Drilling Fluid Total Solids
DHGS .        242.31                     :Drilling Fluid High Gravity Solids
TLAB .        18 00                      :Begin Log Time
DLAB .        15-Dec-2006                :Begin Log Date
RUN  .        2                          :Run Number
BLI  .M       3100.00000                 :Bottom Log Interval
TLI  .M        1430.00000                :Top Log Interval
WITN .        Peter/Ismad                 :Witness's Name
ENGI .        Hatim/Harsh/Sidy           :Engineer's Name
LUL  .        Zone 2                     :Logging Unit Location
LUN  .        OLU-KC-0103                :Logging Unit Number
RR5  .        No  Potassium in mud       :Remark Line 5
RR4  .        SADN Neutron Porosity is corrected for bit size, mud Hydrogen Index, temperature, pressure and mud salinity :Remark Line 4
RR3  .        SADN Density is corrected for Stand off by Spine and Ribs Plot :Remark Line 3
RR2  .        ARC8 Resistivity is environmentally corrected for mud resistivity and bit size. :Remark Line 2
RR1  .        GR is corrected for bit size, tool size and mud weight               :Remark Line 1
PDAT .        Lowest Astronomical Tide   :Permanent Datum
EPD  .M          0.00000                 :Elevation of Permanent Datum
DMF  .        Driller's Depth            :Drilling Measured From
LMF  .        Rotary table               :Log Measured From
APD  .M         25.60000                 :Above Permanent Datum
EDF  .M         25.60000                 :Elevation of Derrick Floor
EGL  .M       -80.360000                 :Elevation of Ground Level
EKB  .M         25.60000                 :Elevation of Kelly Bushing
TDL  .M       3100.00000                 :Total Depth - Logger
TDD  .M       3100.00000                 :Total Depth - Driller
MHD  .DEG       1.54000                  :Maximum Hole Deviation
AMD  .DEG     97.370000                  :Azimuth of Maximum Hole Deviation
BS   .IN        12.25000                 :Bit Size
BSDT .M       3100.00000                 :Bit Size Depth To
BSDF .M       1444.00000                 :Bit Size Depth From
CWEI .LB/M     236.16000                 :Casing Weight
CSIZ .IN        13.37500                 :Current Casing Size
CASG .         P-110                     :Casing Grade
CADT .        1433.6300                  :Casing Depth To
CDF  .        105.86000                  :Casing Depth From
CBLO .M       1433.6300                  :Casing Bottom Logger
CBDR .M       1433.6300                  :Casing Bottom Driller
#-----------------------------------------------------------------------------
~CURVE INFORMATION
#MNEM.UNIT   API CODE                                  DESCRIPTION
#---- -----  --------                                  -----------------------
DEPT .M                                                :DEPTH (BOREHOLE) {F10.4}
TDEP ..1IN                                             :0.1-ft Frame Depth {F13.4}
ROP5_RM.M/HR                                           :Rate of Penetration, Averaged over Last 5ft {F13.4}
AGTM .S                                                :ARC Gamma Ray Time After Bit {F13.4}
GR_ARC.GAPI                                            :ARC Gamma Ray {F13.4}
A16H .OHMM                                             :ARC Attenuation Resistivity 16-in. at 2 MHz {F13.4}
A22H .OHMM                                             :ARC Attenuation Resistivity 22-in. at 2 MHz {F13.4}
A28H .OHMM                                             :ARC Attenuation Resistivity 28-in. at 2 MHz {F13.4}
A34H .OHMM                                             :ARC Attenuation Resistivity 34-in. at 2 MHz {F13.4}
A40H .OHMM                                             :ARC Attenuation Resistivity 40-in. at 2 MHz {F13.4}
A16L .OHMM                                             :ARC Attenuation Resistivity 16-in. at 400 KHz {F13.4}
A22L .OHMM                                             :ARC Attenuation Resistivity 22-in. at 400 KHz {F13.4}
A28L .OHMM                                             :ARC Attenuation Resistivity 28-in. at 400 KHz {F13.4}
A34L .OHMM                                             :ARC Attenuation Resistivity 34-in. at 400 KHz {F13.4}
A40L .OHMM                                             :ARC Attenuation Resistivity 40-in. at 400 KHz {F13.4}
P16H .OHMM                                             :ARC Phase-Shift Resistivity 16-in. at 2 MHz {F13.4}
P22H .OHMM                                             :ARC Phase-Shift Resistivity 22-in. at 2 MHz {F13.4}
P28H .OHMM                                             :ARC Phase-Shift Resistivity 28-in. at 2 MHz {F13.4}
P34H .OHMM                                             :ARC Phase-Shift Resistivity 34-in. at 2 MHz {F13.4}
P40H .OHMM                                             :ARC Phase-Shift Resistivity 40-in. at 2 MHz {F13.4}
P16L .OHMM                                             :ARC Phase-Shift Resistivity 16-in. at 400 KHz {F13.4}
P22L .OHMM                                             :ARC Phase-Shift Resistivity 22-in. at 400 KHz {F13.4}
P28L .OHMM                                             :ARC Phase-Shift Resistivity 28-in. at 400 KHz {F13.4}
P34L .OHMM                                             :ARC Phase-Shift Resistivity 34-in. at 400 KHz {F13.4}
P40L .OHMM                                             :ARC Phase-Shift Resistivity 40-in. at 400 KHz {F13.4}
TAB_ARC_RES.S                                          :ARC Resistivity Time After Bit {F13.4}
ATMP .DEGC                                             :ARC Annular Temperature {F13.4}
RHOB .G/C3                                             :Bulk Density {F13.4}
DRHO .G/C3                                             :Bulk Density Correction {F13.4}
TAB_DEN.S                                              :Density Time After Bit {F13.4}
TNPH .PU                                               :Thermal Neutron Porosity (Ratio Method) in Selected Lithology {F13.4}
TAB_NEU.S                                              :Neutron Time After Bit {F13.4}
HORD .IN                                               :Horizontal Hole Diameter {F13.4}
VERD .IN                                               :Vertical Hole Diameter {F13.4}
DCHO .IN                                               :Density Caliper, Horizontal {F13.4}
DCVE .IN                                               :Density Caliper, Vertical {F13.4}
DCAV .IN                                               :Density Caliper, Average {F13.4}
APRS_ARC.KPA                                           :ARC Annular Pressure {F13.4}
ECD_ARC.G/C3                                           :Equivalent Circulating Density {F13.4}
#-----------------------------------------------------------------------------
# 
#     DEPT        TDEP       ROP5_RM        AGTM        GR_ARC        A16H         A22H         A28H         A34H         A40H         A16L         A22L         A28L         A34L         A40L         P16H         P22H         P28H         P34H         P40H         P16L         P22L         P28L         P34L         P40L     TAB_ARC_RES      ATMP         RHOB         DRHO       TAB_DEN        TNPH       TAB_NEU        HORD         VERD         DCHO         DCVE         DCAV       APRS_ARC     ECD_ARC
#
~A  
# ...
 2973.4764 1170660.0000      12.0185    4320.0000      76.5181       0.4518       0.4242       0.4044       0.3949       0.3900       0.4295       0.4211       0.4184       0.4172       0.4134       0.3871       0.4093       0.4249       0.4293       0.4307       0.4124       0.4187       0.4217       0.4130       0.3966    4309.9688      95.0000       2.3094      -0.0210    8749.9688      43.5216    9200.0000      12.5144      12.5303      12.1784      12.2117      12.1951   49042.4297       1.6835
 2973.6288 1170720.0000      15.5946    4319.9844      78.3379       0.4329       0.4271       0.4190       0.3853       0.3365       0.4180       0.4194       0.4194       0.4128       0.4013       0.3766       0.4053       0.4280       0.4429       0.4588       0.3987       0.4066       0.4101       0.4064       0.4004    4319.9844      95.0000       2.3156      -0.0194    8739.9844      42.0702    9210.0156      12.5250      12.5108      12.1368      12.1789      12.1578   49049.3242       1.6837
 2973.7812 1170780.0000      15.9903    4310.0156      81.1793       0.4342       0.4189       0.4128       0.3951       0.3614       0.4176       0.4200       0.4195       0.4135       0.4048       0.3624       0.3927       0.4109       0.4258       0.4550       0.3934       0.4017       0.4049       0.4019       0.3980    4299.9844      95.0000       2.3310      -0.0143    8730.0156      40.4282    9190.0156      12.5250      12.5800      12.1280      12.1212      12.1246   49028.6367       1.6829
 2973.9336 1170840.0000      16.5258    4279.9844      81.4337       0.4412       0.4336       0.4280       0.3994       0.3531       0.4176       0.4217       0.4217       0.4125       0.3986       0.4126       0.4484       0.4724       0.5021       0.5594       0.4210       0.4291       0.4307       0.4303       0.4344    4270.0156      95.0000       2.3377      -0.0107    8690.0156      40.7901    9179.9844      12.5392      12.5463      12.1325      12.0912      12.1118   49043.7891       1.6833
 2974.0860 1170900.0000      15.2653    4289.9688      80.7952       0.4646       0.4675       0.4818       0.4859       0.4683       0.4304       0.4332       0.4379       0.4408       0.4400       0.4305       0.4329       0.4398       0.4556       0.4765       0.4446       0.4375       0.4351       0.4337       0.4290    4280.0000      95.0000       2.3328      -0.0104    8700.0000      41.8660    9189.9688      12.5640      12.5020      12.1497      12.0953      12.1225   49042.4297       1.6832
 2974.2384 1170960.0000      15.1181    4279.9844      77.6345       0.4589       0.4593       0.4697       0.4711       0.4538       0.4369       0.4371       0.4405       0.4444       0.4456       0.3880       0.3922       0.3967       0.4015       0.4066       0.4281       0.4230       0.4216       0.4196       0.4135    4279.9844      95.0000       2.3158      -0.0131    8690.0156      41.9615    9319.9844      12.5552      12.5232      12.1445      12.1097      12.1271   49028.6367       1.6826
 2974.3908 1171020.0000      14.7842    4279.9844      75.5373       0.4387       0.4391       0.4472       0.4466       0.4303       0.4410       0.4380       0.4397       0.4428       0.4430       0.3727       0.3816       0.3850       0.3914       0.4075       0.4178       0.4117       0.4092       0.4067       0.4011    4270.0156      95.0000       2.3051      -0.0136    8690.0156      41.2844    9310.0156      12.5392      12.4966      12.1306      12.1329      12.1317   49052.0469       1.6834
 2974.5432 1171080.0000      14.9429    4270.0156      73.7175       0.4244       0.4267       0.4305       0.4280       0.4180       0.4398       0.4372       0.4376       0.4381       0.4361       0.3854       0.3954       0.3991       0.4051       0.4209       0.4162       0.4136       0.4101       0.4031       0.3938    4259.9844      95.0000       2.3047      -0.0136    8679.9844      40.3676    9299.9844      12.5357      12.4949      12.1236      12.1364      12.1300   49049.3242       1.6832
 2974.6956 1171140.0000      15.4209    4269.9688      77.5636       0.4137       0.4276       0.4343       0.4275       0.4147       0.4348       0.4373       0.4387       0.4381       0.4362       0.3908       0.3984       0.4011       0.4042       0.4130       0.4140       0.4130       0.4116       0.4059       0.3963    4260.0000      95.0000       2.3127      -0.0143    8700.0000      41.6981    9309.9688      12.6527      12.4966      12.1223      12.1685      12.1454   49042.4297       1.6829
 2974.8480 1171200.0000      15.5858    4270.0156      81.6182       0.4224       0.4373       0.4444       0.4399       0.4315       0.4327       0.4397       0.4439       0.4449       0.4447       0.3989       0.3990       0.3983       0.4042       0.4181       0.4147       0.4173       0.4164       0.4106       0.4033    4259.9844      95.0000       2.3242      -0.0161    8730.0156      43.0938    9299.9844      12.5960      12.5037      12.1304      12.1422      12.1363   49058.9414       1.6833
 2975.0004 1171260.0000      15.3969    4270.0156      83.5338       0.4459       0.4597       0.4646       0.4628       0.4632       0.4400       0.4474       0.4505       0.4492       0.4470       0.4394       0.4313       0.4170       0.4139       0.4282       0.4418       0.4395       0.4343       0.4287       0.4254    4259.9844      95.0000       2.3332      -0.0159    8719.9844      43.1703    9290.0156      12.5623      12.5161      12.1453      12.1113      12.1283   49056.2188       1.6832
 2975.1528 1171320.0000      15.1301    4269.9688      76.8193       0.4653       0.4645       0.4651       0.4703       0.4789       0.4437       0.4483       0.4513       0.4541       0.4575       0.4478       0.4441       0.4399       0.4423       0.4522       0.4535       0.4463       0.4394       0.4339       0.4293    4260.0000      95.0000       2.3387      -0.0096    8740.0000      42.8499    9280.0000      12.5818      12.4949      12.2601      12.0795      12.1698   49063.1133       1.6833
 2975.3052 1171380.0000      15.1135    4260.0000      73.3074       0.4625       0.4564       0.4512       0.4490       0.4494       0.4503       0.4524       0.4559       0.4579       0.4567       0.4274       0.4161       0.3971       0.3854       0.3878       0.4416       0.4338       0.4268       0.4220       0.4190    4260.0000      95.0000       2.3489      -0.0039    8729.9688      43.3269    9269.9688      12.6279      12.5569      12.4633      12.0749      12.2691   49063.1133       1.6832
 2975.4576 1171440.0000      15.9626    4300.0000      71.9346       0.4284       0.4287       0.4381       0.4439       0.4369       0.4457       0.4484       0.4536       0.4573       0.4570       0.4303       0.4240       0.4119       0.4035       0.4043       0.4468       0.4383       0.4303       0.4257       0.4243    4280.0000      95.0000       2.3753      -0.0048    8740.0000      42.3763    9280.0000      12.8425      12.5197      12.2013      12.0979      12.1496   49049.3242       1.6827
 2975.6100 1171500.0000      13.2025    4179.9844      74.4838       0.4581       0.4799       0.4812       0.4469       0.4024       0.4467       0.4529       0.4556       0.4529       0.4478       0.4848       0.4822       0.4760       0.4581       0.4335       0.4775       0.4615       0.4507       0.4468       0.4454    4170.0156      95.0000       2.3873      -0.0159    8630.0156      42.2900    9150.0156      12.7804      12.5995      12.1180      12.1433      12.1306   49072.6953       1.6834
 2975.7624 1171560.0000      11.8015    4169.9688      73.0790       0.4459       0.4454       0.4382       0.4280       0.4212       0.4444       0.4511       0.4539       0.4530       0.4516       0.5710       0.5520       0.5422       0.5429       0.5455       0.5115       0.4923       0.4819       0.4754       0.4651    4160.0000      95.0000       2.3888      -0.0188    8600.0000      40.7201    9120.0000      12.7804      12.5623      12.1289      12.1804      12.1547   49049.3242       1.6825
