~VERSION INFORMATION
VERS.           2.0   :CWLS Log ASCII Standard - VERSION 2.0
WRAP.           NO    :One Line per depth step
PROD.  Company   :LAS Producer
PROG.  DLIS to ASCII 12C0-302                          :LAS Program name and version
CREA.        2006/12/30 10:30                          :LAS Creation date {YYYY/MM/DD hh:mm}
SOURCE.     KGIII6-B1_12in_DLIS_1430-3100m.dlis        :DLIS File Name
FILE-ID.     CDF_LWD003                                :File Identification Number
#--------------------------------------------------
~WELL INFORMATION
#MNEM.UNIT      DATA             DESCRIPTION
#---- ------ --------------   -----------------------------
STRT .M      1429.9692       :START DEPTH     
STOP .M      3099.9684       :STOP DEPTH     
STEP .M         0.1524       :STEP     
NULL .          -999.25      :NULL VALUE
COMP .        Company:COMPANY
WELL .        W2:WELL
FLD  .        Block                  :FIELD
LOC  .        Offshore                                 :LOCATION
CNTY .        Actinia                                  :COUNTY
STAT .        State                           :STATE
CTRY .                                                 :COUNTRY
API  .        06INM0159                                :API NUMBER
UWI  .                                                 :UNIQUE WELL ID
DATE .        25-Dec-2006                              :LOG DATE {DD-MMM-YYYY}
SRVC .        Company                             :SERVICE COMPANY
LATI .DEG     N 16.2763                                :LATITUDE
LONG .DEG     E 82.0962                                :LONGITUDE
GDAT .                                                 :GeoDetic Datum
SECT .        12.25 in.                                :Section
#-----------------------------------------------------------------------------
~PARAMETER INFORMATION
#MNEM.UNIT    VALUE                      DESCRIPTION
#---- -----   --------------------       ------------------------
RUN  .                                   :RUN NUMBER
PDAT .        Lowest Astronomical Tide   :Permanent Datum
EPD  .M           0.000000               :Elevation of Permanent Datum above Mean Sea Level
EPD  .M           0.000000               :Elevation of tool zero above Mean Sea Level
LMF  .          Drill Floor              :Logging Measured From (Name of Logging Elevation Reference)
APD  .                                   :Elevation of Depth Reference (LMF) above Permanent Datum
TN1 .        PowerPulse                  :Tool Number 1
TN2 .        ARC,SADN                    :Tool Number 2
OS3  .          N/A                      :Other Services Line 3
OS2  .          InterACT                 :Other Services Line 2
OS1  .          Directional Surveys      :Other Services Line 1
MST  .DEGC      66.00000                 :Mud Sample Temperature
BHT  .DEGC     99.00000                  :Bottom Hole Temperature
RMS.OHMM      1000.00000                 :Resistivity of Mud Sample (RM)
MST.DEGC        66.00000                 :Mud Sample temperature (RM)
MW.LB/G         13.60000                 :Mud Weight (RM)
SHT.DEGC        25.00000                 :Surface Hole Temperature (RM)
BSAL .PPM     64350.00000                :Mud Salinity
MRT  .DEGC     99.00000                  :Maximum Recorded Temperature
RMB  .OHMM    1000.00000                 :Resistivity of Mud - BHT
MCST .DEGC      66.00000                 :Mud Cake Sample Temperature
RMCS .OHMM    1000.00000                 :Resistivity of Mud Cake Sample
MFST .DEGC      66.00000                 :Mud Filtrate Sample Temperature
RMFS .OHMM    1000.00000                 :Resistivity of Mud Filtrate Sample
RMS  .OHMM    1000.00000                 :Resistivity of Mud Sample
MSS  .        Shakers                    :Mud Sample Source
MFSS  .       Shakers                    :Mud Filtrate Sample Source
MCSS  .       Shakers                    :Mud Cake Sample Source
TCS  .         03 00                     :End Log Time
DCS  .         22-Dec-2006               :End Log Date
DFT  .        SOBM                       :Drilling Fluid Type
DFPH .           N/A                     :Drilling Fluid PH
DFV  .S       79.00000                   :Drilling Fluid Viscosity
DFD  .LB/G    13.600000                  :Drilling Fluid Density
DOWR .        75/25                      :Oil/Water Ratio
DFTS .        25.57                      :Drilling Fluid Total Solids
DHGS .        242.31                     :Drilling Fluid High Gravity Solids
TLAB .        18 00                      :Begin Log Time
DLAB .        15-Dec-2006                :Begin Log Date
RUN  .        2                          :Run Number
BLI  .M       3100.00000                 :Bottom Log Interval
TLI  .M        1430.00000                :Top Log Interval
WITN .        Peter/Ismad                 :Witness's Name
ENGI .        Hatim/Harsh/Sidy           :Engineer's Name
LUL  .        Zone 2                     :Logging Unit Location
LUN  .        OLU-KC-0103                :Logging Unit Number
RR5  .        No  Potassium in mud       :Remark Line 5
RR4  .        SADN Neutron Porosity is corrected for bit size, mud Hydrogen Index, temperature, pressure and mud salinity :Remark Line 4
RR3  .        SADN Density is corrected for Stand off by Spine and Ribs Plot :Remark Line 3
RR2  .        ARC8 Resistivity is environmentally corrected for mud resistivity and bit size. :Remark Line 2
RR1  .        GR is corrected for bit size, tool size and mud weight               :Remark Line 1
PDAT .        Lowest Astronomical Tide   :Permanent Datum
EPD  .M          0.00000                 :Elevation of Permanent Datum
DMF  .        Driller's Depth            :Drilling Measured From
LMF  .        Rotary table               :Log Measured From
APD  .M         25.60000                 :Above Permanent Datum
EDF  .M         25.60000                 :Elevation of Derrick Floor
EGL  .M       -80.360000                 :Elevation of Ground Level
EKB  .M         25.60000                 :Elevation of Kelly Bushing
TDL  .M       3100.00000                 :Total Depth - Logger
TDD  .M       3100.00000                 :Total Depth - Driller
MHD  .DEG       1.54000                  :Maximum Hole Deviation
AMD  .DEG     97.370000                  :Azimuth of Maximum Hole Deviation
BS   .IN        12.25000                 :Bit Size
BSDT .M       3100.00000                 :Bit Size Depth To
BSDF .M       1444.00000                 :Bit Size Depth From
CWEI .LB/M     236.16000                 :Casing Weight
CSIZ .IN        13.37500                 :Current Casing Size
CASG .         P-110                     :Casing Grade
CADT .        1433.6300                  :Casing Depth To
CDF  .        105.86000                  :Casing Depth From
CBLO .M       1433.6300                  :Casing Bottom Logger
CBDR .M       1433.6300                  :Casing Bottom Driller
#-----------------------------------------------------------------------------
~CURVE INFORMATION
#MNEM.UNIT   API CODE                                  DESCRIPTION
#---- -----  --------                                  -----------------------
DEPT .M                                                :DEPTH (BOREHOLE) {F10.4}
TDEP ..1IN                                             :0.1-ft Frame Depth {F13.4}
ROP5_RM.M/HR                                           :Rate of Penetration, Averaged over Last 5ft {F13.4}
AGTM .S                                                :ARC Gamma Ray Time After Bit {F13.4}
GR_ARC.GAPI                                            :ARC Gamma Ray {F13.4}
A16H .OHMM                                             :ARC Attenuation Resistivity 16-in. at 2 MHz {F13.4}
A22H .OHMM                                             :ARC Attenuation Resistivity 22-in. at 2 MHz {F13.4}
A28H .OHMM                                             :ARC Attenuation Resistivity 28-in. at 2 MHz {F13.4}
A34H .OHMM                                             :ARC Attenuation Resistivity 34-in. at 2 MHz {F13.4}
A40H .OHMM                                             :ARC Attenuation Resistivity 40-in. at 2 MHz {F13.4}
A16L .OHMM                                             :ARC Attenuation Resistivity 16-in. at 400 KHz {F13.4}
A22L .OHMM                                             :ARC Attenuation Resistivity 22-in. at 400 KHz {F13.4}
A28L .OHMM                                             :ARC Attenuation Resistivity 28-in. at 400 KHz {F13.4}
A34L .OHMM                                             :ARC Attenuation Resistivity 34-in. at 400 KHz {F13.4}
A40L .OHMM                                             :ARC Attenuation Resistivity 40-in. at 400 KHz {F13.4}
P16H .OHMM                                             :ARC Phase-Shift Resistivity 16-in. at 2 MHz {F13.4}
P22H .OHMM                                             :ARC Phase-Shift Resistivity 22-in. at 2 MHz {F13.4}
P28H .OHMM                                             :ARC Phase-Shift Resistivity 28-in. at 2 MHz {F13.4}
P34H .OHMM                                             :ARC Phase-Shift Resistivity 34-in. at 2 MHz {F13.4}
P40H .OHMM                                             :ARC Phase-Shift Resistivity 40-in. at 2 MHz {F13.4}
P16L .OHMM                                             :ARC Phase-Shift Resistivity 16-in. at 400 KHz {F13.4}
P22L .OHMM                                             :ARC Phase-Shift Resistivity 22-in. at 400 KHz {F13.4}
P28L .OHMM                                             :ARC Phase-Shift Resistivity 28-in. at 400 KHz {F13.4}
P34L .OHMM                                             :ARC Phase-Shift Resistivity 34-in. at 400 KHz {F13.4}
P40L .OHMM                                             :ARC Phase-Shift Resistivity 40-in. at 400 KHz {F13.4}
TAB_ARC_RES.S                                          :ARC Resistivity Time After Bit {F13.4}
ATMP .DEGC                                             :ARC Annular Temperature {F13.4}
RHOB .G/C3                                             :Bulk Density {F13.4}
DRHO .G/C3                                             :Bulk Density Correction {F13.4}
TAB_DEN.S                                              :Density Time After Bit {F13.4}
TNPH .PU                                               :Thermal Neutron Porosity (Ratio Method) in Selected Lithology {F13.4}
TAB_NEU.S                                              :Neutron Time After Bit {F13.4}
HORD .IN                                               :Horizontal Hole Diameter {F13.4}
VERD .IN                                               :Vertical Hole Diameter {F13.4}
DCHO .IN                                               :Density Caliper, Horizontal {F13.4}
DCVE .IN                                               :Density Caliper, Vertical {F13.4}
DCAV .IN                                               :Density Caliper, Average {F13.4}
APRS_ARC.KPA                                           :ARC Annular Pressure {F13.4}
ECD_ARC.G/C3                                           :Equivalent Circulating Density {F13.4}
#-----------------------------------------------------------------------------
# 
#     DEPT        TDEP       ROP5_RM        AGTM        GR_ARC        A16H         A22H         A28H         A34H         A40H         A16L         A22L         A28L         A34L         A40L         P16H         P22H         P28H         P34H         P40H         P16L         P22L         P28L         P34L         P40L     TAB_ARC_RES      ATMP         RHOB         DRHO       TAB_DEN        TNPH       TAB_NEU        HORD         VERD         DCHO         DCVE         DCAV       APRS_ARC     ECD_ARC
#
~A  
 1429.9692  562980.0000      40.3689    1990.0000      52.7125       0.8186       0.4460       0.2961       0.1000       0.1000       0.2046       0.0912       0.0788       0.1295       0.3508    5000.0000    5000.0000      32.1107       2.1822       0.5580    5000.0000    5000.0000    5000.0000       0.3722       0.0500    1990.0000      64.0000       2.2514      -0.4298   15510.0000      56.9911   15840.0000      13.3799      13.2841      14.3513      14.5490      14.4501   22173.5488       1.5840
 1430.1216  563040.0000      40.6121    1980.0000      49.0334       0.8186       0.4460       0.2961       0.1000       0.1000       0.2046       0.0912       0.0788       0.1295       0.3508    5000.0000    5000.0000      32.1107       2.1822       0.5580    5000.0000    5000.0000    5000.0000       0.3722       0.0500    1970.0000      64.0000       2.2593      -0.4329   15510.0000      55.0080   15860.0000      12.5711      12.5676      14.4935      14.6956      14.5945   22187.3379       1.5848
 1430.2740  563100.0000      38.8514    1960.0000      47.5745       1.3393       0.4515       0.4840       0.2823       0.1000       0.1008       0.0610       0.0544       0.0521       0.0500    5000.0000    5000.0000       1.7284       0.2968       0.1578    5000.0000    5000.0000       7.2820       1.9929       1.3781    1960.0000      64.0000       2.2661      -0.4295   15510.0000      54.5939   15850.0000      12.5711      12.5676      15.3489      15.2404      15.2947   22201.1270       1.5856
 1430.4264  563160.0000      37.1435    1970.0000      49.7629       2.8244       0.7156       0.3277       0.1471       0.1000       0.1188       0.0744       0.0721       0.0791       0.0690    5000.0000    5000.0000       4.5996       0.8580       0.6114    5000.0000    5000.0000    5000.0000    5000.0000    5000.0000    1960.0000      64.0000       2.2532      -0.4412   15510.0000      54.1091   15880.0000      12.6048      12.6048      15.9104      15.6261      15.7683   22221.8105       1.5869
 1430.5788  563220.0000      36.8337    1960.0000      54.3935       0.7060       0.4394       0.3049       0.5962     700.0000       0.1353       0.0741       0.0794       0.0570       0.0500    5000.0000    5000.0000      20.0424       0.1999       0.1000    5000.0000    5000.0000      10.3159       7.4590      32.2163    1960.0000      64.0000       2.2587      -0.4415   15520.0000      58.2310   15880.0000      12.6048      12.6048      16.5908      16.1506      16.3707   22221.8105       1.5867
 1430.7312  563280.0000      35.9756    1960.0000      60.8319       0.7060       0.4394       0.3049       0.5962     700.0000       0.1353       0.0741       0.0794       0.0570       0.0500    5000.0000    5000.0000      20.0424       0.1999       0.1000    5000.0000    5000.0000      10.3159       7.4590      32.2163    1950.0000      64.0000       2.2476      -0.4435   15530.0000      59.9034   15990.0000      12.6829      12.6172      16.7028      16.2089      16.4559   22201.1270       1.5851
 1430.8836  563340.0000      35.6970    1950.0000      65.3990       0.9138       0.4858       1.1748     500.0000     700.0000       0.1496       0.0728       0.0647       0.0772       0.0814    5000.0000    5000.0000       0.6053       0.9804    5000.0000    5000.0000      56.0404       7.2954       0.4168       0.0615    1940.0000      64.0000       2.2576      -0.4354   15530.0000      59.1755   16010.0000      12.6208      12.6474      16.1342      16.0718      16.1030   22194.2324       1.5844
 1431.0360  563400.0000      35.2145    1950.0000      67.1117       0.7317       0.4337       0.2980       0.2079       0.1447       0.3022       0.0855       0.0660       0.0739       0.0719    5000.0000    5000.0000     447.5172      15.0170       7.4418    5000.0000       2.1750       0.8884       2.9585    5000.0000    1940.0000      64.0000       2.2574      -0.4269   15550.0000      57.7455   16050.0000      12.7041      12.6332      15.4258      15.5512      15.4885   22194.2324       1.5842
 1431.1884  563460.0000      35.3130    1940.0000      64.0352       1.6523       0.5804       0.3591       0.2358       0.1499       0.0907       0.0500       0.0604       0.0500       0.0500    5000.0000    5000.0000      74.4954       4.1940       2.3376    5000.0000    5000.0000    5000.0000       0.1182       0.0500    1930.0000      64.0000       2.2715      -0.4258   15560.0000      56.3269   16070.0000      12.6545      12.6119      15.1581      15.4711      15.3146   22180.4434       1.5831
 1431.3408  563520.0000      34.8172    1940.0000      60.6416       1.5230       0.5509       1.1672       0.8915       0.1556       0.0633       0.0500       0.1392       0.1686       0.0500    5000.0000    5000.0000       1.8077       0.4669       0.3713    5000.0000    5000.0000    5000.0000       0.1041       0.0500    1930.0000      64.0000       2.2567      -0.4296   15600.0000      57.1814   16090.0000      12.8354      12.6314      15.1415      15.3249      15.2332   22208.0215       1.5849
 1431.4932  563580.0000      35.1292    1930.0000      57.1528       1.4993       0.5725       0.3710       0.1958       0.1000       0.1763       0.0649       0.0954     700.0000     700.0000    5000.0000    5000.0000       2.8277       0.7634       0.6513    5000.0000    5000.0000    5000.0000    5000.0000    5000.0000    1930.0000      64.0000       2.2529      -0.4269   15630.0000      58.0267   16100.0000      12.8177      12.6261      15.2594      15.2135      15.2364   22194.2324       1.5837
 1431.6456  563640.0000      35.4366    1920.0000      58.0091       1.1865       0.5571       0.3633       0.2858       0.2464       0.1000       0.0511       0.0894       0.7176     700.0000    5000.0000    5000.0000      41.0904       8.0064       4.6339    5000.0000       1.7316       0.3541       0.3039       0.1686    1920.0000      64.0000       2.2548      -0.4283   15620.0000      59.0158   16120.0000      12.7769      12.6704      14.8697      14.8676      14.8686   22201.1270       1.5841
 1431.7980  563700.0000      37.1350    1930.0000      58.9606       0.9296       0.5354       0.3832       0.2975       0.2386       0.1678       0.0888       0.0888       0.4179     700.0000    5000.0000    5000.0000    3024.6626       8.0047       3.9076    5000.0000    5000.0000       0.1006       0.0500       0.0500    1920.0000      64.0000       2.2753      -0.4285   15640.0000      61.7528   16270.0000      12.6953      12.6634      14.7776      14.7946      14.7861   22208.0215       1.5844
 1431.9504  563760.0000      38.0984    1920.0000      59.2778      10.7840       0.6255       0.6622     500.0000     700.0000       0.1348       0.0500       0.0791     700.0000     700.0000    5000.0000    5000.0000       2.7771       2.7388    5000.0000       9.5983    5000.0000    5000.0000    5000.0000       0.1044    1910.0000      64.0000       2.2893      -0.4321   15640.0000      63.2228   16280.0000      12.6758      12.6864      14.4642      14.5678      14.5160   22208.0215       1.5842
 1432.1028  563820.0000      38.6047    1920.0000      58.2312       1.3929       0.4785       0.3409       0.2843       0.2109       0.2061       0.0815       0.0673       0.0922       0.1408    5000.0000    5000.0000    5000.0000       5.7404       4.7337      13.6521    5000.0000       9.3952       0.0663       0.0500    1920.0000      64.0000       2.2898      -0.4332   15670.0000      60.1121   16310.0000      12.8815      12.7485      13.9540      14.2156      14.0848   22214.9160       1.5845
 1432.2552  563880.0000      39.1864    1920.0000      55.6938       1.4029       0.5813       0.3901       0.2574       0.1568       0.0955       0.0511       0.0681       0.1725       0.2814    5000.0000    5000.0000       6.2116       1.4751       1.0745    5000.0000    5000.0000    5000.0000    5000.0000       0.0616    1920.0000      64.0000       2.2763      -0.4339   15670.0000      58.4924   16330.0000      12.6935      12.6740      14.3576      14.5049      14.4312   22214.9160       1.5844
