~VERSION INFORMATION
VERS.           2.0   :CWLS Log ASCII Standard - VERSION 2.0
WRAP.           NO    :One Line per depth step
PROD.  Company   :LAS Producer
PROG.  DLIS to ASCII 12C0-302                          :LAS Program name and version
CREA.        2006/12/30 10:30                          :LAS Creation date {YYYY/MM/DD hh:mm}
SOURCE.     KGIII6-B1_12in_DLIS_1430-3100m.dlis        :DLIS File Name
FILE-ID.     CDF_LWD003                                :File Identification Number
#--------------------------------------------------
~WELL INFORMATION
#MNEM.UNIT      DATA             DESCRIPTION
#---- ------ --------------   -----------------------------
STRT .M      1429.9692       :START DEPTH     
STOP .M      3099.9684       :STOP DEPTH     
STEP .M         0.1524       :STEP     
NULL .          -999.25      :NULL VALUE
COMP .        Company:COMPANY
WELL .        W2:WELL
FLD  .        Block                  :FIELD
LOC  .        Offshore                                 :LOCATION
CNTY .        Actinia                                  :COUNTY
STAT .        State                           :STATE
CTRY .                                                 :COUNTRY
API  .        06INM0159                                :API NUMBER
UWI  .                                                 :UNIQUE WELL ID
DATE .        25-Dec-2006                              :LOG DATE {DD-MMM-YYYY}
SRVC .        Company                             :SERVICE COMPANY
LATI .DEG     N 16.2763                                :LATITUDE
LONG .DEG     E 82.0962                                :LONGITUDE
GDAT .                                                 :GeoDetic Datum
SECT .        12.25 in.                                :Section
#-----------------------------------------------------------------------------
~PARAMETER INFORMATION
#MNEM.UNIT    VALUE                      DESCRIPTION
#---- -----   --------------------       ------------------------
RUN  .                                   :RUN NUMBER
PDAT .        Lowest Astronomical Tide   :Permanent Datum
EPD  .M           0.000000               :Elevation of Permanent Datum above Mean Sea Level
EPD  .M           0.000000               :Elevation of tool zero above Mean Sea Level
LMF  .          Drill Floor              :Logging Measured From (Name of Logging Elevation Reference)
APD  .                                   :Elevation of Depth Reference (LMF) above Permanent Datum
TN1 .        PowerPulse                  :Tool Number 1
TN2 .        ARC,SADN                    :Tool Number 2
OS3  .          N/A                      :Other Services Line 3
OS2  .          InterACT                 :Other Services Line 2
OS1  .          Directional Surveys      :Other Services Line 1
MST  .DEGC      66.00000                 :Mud Sample Temperature
BHT  .DEGC     99.00000                  :Bottom Hole Temperature
RMS.OHMM      1000.00000                 :Resistivity of Mud Sample (RM)
MST.DEGC        66.00000                 :Mud Sample temperature (RM)
MW.LB/G         13.60000                 :Mud Weight (RM)
SHT.DEGC        25.00000                 :Surface Hole Temperature (RM)
BSAL .PPM     64350.00000                :Mud Salinity
MRT  .DEGC     99.00000                  :Maximum Recorded Temperature
RMB  .OHMM    1000.00000                 :Resistivity of Mud - BHT
MCST .DEGC      66.00000                 :Mud Cake Sample Temperature
RMCS .OHMM    1000.00000                 :Resistivity of Mud Cake Sample
MFST .DEGC      66.00000                 :Mud Filtrate Sample Temperature
RMFS .OHMM    1000.00000                 :Resistivity of Mud Filtrate Sample
RMS  .OHMM    1000.00000                 :Resistivity of Mud Sample
MSS  .        Shakers                    :Mud Sample Source
MFSS  .       Shakers                    :Mud Filtrate Sample Source
MCSS  .       Shakers                    :Mud Cake Sample Source
TCS  .         03 00                     :End Log Time
DCS  .         22-Dec-2006               :End Log Date
DFT  .        SOBM                       :Drilling Fluid Type
DFPH .           N/A                     :Drilling Fluid PH
DFV  .S       79.00000                   :Drilling Fluid Viscosity
DFD  .LB/G    13.600000                  :Drilling Fluid Density
DOWR .        75/25                      :Oil/Water Ratio
DFTS .        25.57                      :Drilling Fluid Total Solids
DHGS .        242.31                     :Drilling Fluid High Gravity Solids
TLAB .        18 00                      :Begin Log Time
DLAB .        15-Dec-2006                :Begin Log Date
RUN  .        2                          :Run Number
BLI  .M       3100.00000                 :Bottom Log Interval
TLI  .M        1430.00000                :Top Log Interval
WITN .        Peter/Ismad                 :Witness's Name
ENGI .        Hatim/Harsh/Sidy           :Engineer's Name
LUL  .        Zone 2                     :Logging Unit Location
LUN  .        OLU-KC-0103                :Logging Unit Number
RR5  .        No  Potassium in mud       :Remark Line 5
RR4  .        SADN Neutron Porosity is corrected for bit size, mud Hydrogen Index, temperature, pressure and mud salinity :Remark Line 4
RR3  .        SADN Density is corrected for Stand off by Spine and Ribs Plot :Remark Line 3
RR2  .        ARC8 Resistivity is environmentally corrected for mud resistivity and bit size. :Remark Line 2
RR1  .        GR is corrected for bit size, tool size and mud weight               :Remark Line 1
PDAT .        Lowest Astronomical Tide   :Permanent Datum
EPD  .M          0.00000                 :Elevation of Permanent Datum
DMF  .        Driller's Depth            :Drilling Measured From
LMF  .        Rotary table               :Log Measured From
APD  .M         25.60000                 :Above Permanent Datum
EDF  .M         25.60000                 :Elevation of Derrick Floor
EGL  .M       -80.360000                 :Elevation of Ground Level
EKB  .M         25.60000                 :Elevation of Kelly Bushing
TDL  .M       3100.00000                 :Total Depth - Logger
TDD  .M       3100.00000                 :Total Depth - Driller
MHD  .DEG       1.54000                  :Maximum Hole Deviation
AMD  .DEG     97.370000                  :Azimuth of Maximum Hole Deviation
BS   .IN        12.25000                 :Bit Size
BSDT .M       3100.00000                 :Bit Size Depth To
BSDF .M       1444.00000                 :Bit Size Depth From
CWEI .LB/M     236.16000                 :Casing Weight
CSIZ .IN        13.37500                 :Current Casing Size
CASG .         P-110                     :Casing Grade
CADT .        1433.6300                  :Casing Depth To
CDF  .        105.86000                  :Casing Depth From
CBLO .M       1433.6300                  :Casing Bottom Logger
CBDR .M       1433.6300                  :Casing Bottom Driller
#-----------------------------------------------------------------------------
~CURVE INFORMATION
#MNEM.UNIT   API CODE                                  DESCRIPTION
#---- -----  --------                                  -----------------------
DEPT .M                                                :DEPTH (BOREHOLE) {F10.4}
TDEP ..1IN                                             :0.1-ft Frame Depth {F13.4}
ROP5_RM.M/HR                                           :Rate of Penetration, Averaged over Last 5ft {F13.4}
AGTM .S                                                :ARC Gamma Ray Time After Bit {F13.4}
GR_ARC.GAPI                                            :ARC Gamma Ray {F13.4}
A16H .OHMM                                             :ARC Attenuation Resistivity 16-in. at 2 MHz {F13.4}
A22H .OHMM                                             :ARC Attenuation Resistivity 22-in. at 2 MHz {F13.4}
A28H .OHMM                                             :ARC Attenuation Resistivity 28-in. at 2 MHz {F13.4}
A34H .OHMM                                             :ARC Attenuation Resistivity 34-in. at 2 MHz {F13.4}
A40H .OHMM                                             :ARC Attenuation Resistivity 40-in. at 2 MHz {F13.4}
A16L .OHMM                                             :ARC Attenuation Resistivity 16-in. at 400 KHz {F13.4}
A22L .OHMM                                             :ARC Attenuation Resistivity 22-in. at 400 KHz {F13.4}
A28L .OHMM                                             :ARC Attenuation Resistivity 28-in. at 400 KHz {F13.4}
A34L .OHMM                                             :ARC Attenuation Resistivity 34-in. at 400 KHz {F13.4}
A40L .OHMM                                             :ARC Attenuation Resistivity 40-in. at 400 KHz {F13.4}
P16H .OHMM                                             :ARC Phase-Shift Resistivity 16-in. at 2 MHz {F13.4}
P22H .OHMM                                             :ARC Phase-Shift Resistivity 22-in. at 2 MHz {F13.4}
P28H .OHMM                                             :ARC Phase-Shift Resistivity 28-in. at 2 MHz {F13.4}
P34H .OHMM                                             :ARC Phase-Shift Resistivity 34-in. at 2 MHz {F13.4}
P40H .OHMM                                             :ARC Phase-Shift Resistivity 40-in. at 2 MHz {F13.4}
P16L .OHMM                                             :ARC Phase-Shift Resistivity 16-in. at 400 KHz {F13.4}
P22L .OHMM                                             :ARC Phase-Shift Resistivity 22-in. at 400 KHz {F13.4}
P28L .OHMM                                             :ARC Phase-Shift Resistivity 28-in. at 400 KHz {F13.4}
P34L .OHMM                                             :ARC Phase-Shift Resistivity 34-in. at 400 KHz {F13.4}
P40L .OHMM                                             :ARC Phase-Shift Resistivity 40-in. at 400 KHz {F13.4}
TAB_ARC_RES.S                                          :ARC Resistivity Time After Bit {F13.4}
ATMP .DEGC                                             :ARC Annular Temperature {F13.4}
RHOB .G/C3                                             :Bulk Density {F13.4}
DRHO .G/C3                                             :Bulk Density Correction {F13.4}
TAB_DEN.S                                              :Density Time After Bit {F13.4}
TNPH .PU                                               :Thermal Neutron Porosity (Ratio Method) in Selected Lithology {F13.4}
TAB_NEU.S                                              :Neutron Time After Bit {F13.4}
HORD .IN                                               :Horizontal Hole Diameter {F13.4}
VERD .IN                                               :Vertical Hole Diameter {F13.4}
DCHO .IN                                               :Density Caliper, Horizontal {F13.4}
DCVE .IN                                               :Density Caliper, Vertical {F13.4}
DCAV .IN                                               :Density Caliper, Average {F13.4}
APRS_ARC.KPA                                           :ARC Annular Pressure {F13.4}
ECD_ARC.G/C3                                           :Equivalent Circulating Density {F13.4}
#-----------------------------------------------------------------------------
# 
#     DEPT        TDEP       ROP5_RM        AGTM        GR_ARC        A16H         A22H         A28H         A34H         A40H         A16L         A22L         A28L         A34L         A40L         P16H         P22H         P28H         P34H         P40H         P16L         P22L         P28L         P34L         P40L     TAB_ARC_RES      ATMP         RHOB         DRHO       TAB_DEN        TNPH       TAB_NEU        HORD         VERD         DCHO         DCVE         DCAV       APRS_ARC     ECD_ARC
#
~A  
# ...
 2751.5820 1083300.0000      11.8745    7280.0000      63.2743       0.4537       0.4486       0.4451       0.4468       0.4521       0.4566       0.4630       0.4644       0.4675       0.4759       0.4435       0.4301       0.4134       0.4040       0.4050       0.4503       0.4465       0.4432       0.4394       0.4345    7260.0000      96.0000       2.3439       0.0299   12460.0000      50.5132   12900.0000      12.7396      14.4990      12.1987      12.2387      12.2187   45270.9961       1.6795
 2751.7344 1083360.0000      10.4772    7250.0000      61.3713       0.4415       0.4501       0.4617       0.4665       0.4612       0.4482       0.4571       0.4620       0.4657       0.4709       0.4584       0.4506       0.4397       0.4354       0.4407       0.4571       0.4546       0.4500       0.4445       0.4400    7230.0000      96.0000       2.3439       0.0320   12410.0000      53.3570   12840.0000      13.3905      14.3287      12.2243      12.2845      12.2544   45270.9961       1.6794
 2751.8868 1083420.0000      10.4106    9240.0000      64.5429       0.4563       0.4632       0.4720       0.4764       0.4744       0.4542       0.4600       0.4619       0.4646       0.4709       0.4784       0.4692       0.4546       0.4480       0.4545       0.4672       0.4627       0.4581       0.4531       0.4478    7220.0000      96.0000       2.3482       0.0339   12420.0000      52.8246   12830.0000      13.2877      14.7313      12.2962      12.2602      12.2782   45277.8906       1.6796
 2752.0392 1083480.0000      10.9731    9240.0000      64.3526       0.4675       0.4636       0.4603       0.4622       0.4687       0.4603       0.4645       0.4650       0.4661       0.4703       0.4949       0.4819       0.4683       0.4646       0.4717       0.4815       0.4736       0.4666       0.4620       0.4593    9220.0000      96.0000       2.3395       0.0356   12400.0000      50.5970   12810.0000      15.2900      15.4496      12.3711      12.3041      12.3376   45284.7852       1.6797
 2752.1916 1083540.0000      10.4094    9190.0000      66.2556       0.4817       0.4757       0.4788       0.4866       0.4899       0.4702       0.4695       0.4700       0.4730       0.4769       0.4909       0.4737       0.4571       0.4499       0.4519       0.4845       0.4723       0.4650       0.4614       0.4571    9180.0000      96.0000       2.3326       0.0322   12350.0000      48.9075   12770.0000      15.2758      15.4869      12.2641      12.3374      12.3008   45284.7852       1.6796
 2752.3440 1083600.0000      10.2223    9180.0000      64.0355       0.4865       0.4706       0.4663       0.4733       0.4811       0.4676       0.4716       0.4725       0.4736       0.4772       0.5040       0.4858       0.4678       0.4608       0.4649       0.4944       0.4815       0.4723       0.4655       0.4582    9170.0000      96.0000       2.3233       0.0325   12350.0000      49.4199   12770.0000      14.0769      15.7458      12.2310      12.3479      12.2894   45284.7852       1.6795
 2752.4964 1083660.0000      11.1516    9170.0000      65.4944       0.4899       0.4844       0.4769       0.4701       0.4660       0.4741       0.4767       0.4774       0.4781       0.4801       0.4952       0.4761       0.4605       0.4529       0.4502       0.4921       0.4791       0.4712       0.4657       0.4584    9150.0000      96.0000       2.3329       0.0303   12330.0000      51.6936   12740.0000      14.8679      14.8981      12.2424      12.1812      12.2118   45305.4688       1.6802
 2752.6488 1083720.0000       9.3777    9040.0000      67.4925       0.4937       0.5008       0.4988       0.4922       0.4896       0.4779       0.4827       0.4858       0.4887       0.4923       0.5108       0.4897       0.4714       0.4699       0.4828       0.5050       0.4933       0.4849       0.4777       0.4688    9040.0000      94.0000       2.3381       0.0282   12210.0000      51.5668   12630.0000      15.9764      15.9924      12.2517      12.1681      12.2099   45360.6250       1.6822
 2752.8012 1083780.0000       9.2863    9030.0000      70.2519       0.5169       0.5248       0.5284       0.5273       0.5254       0.4929       0.4975       0.4967       0.4951       0.4972       0.5723       0.5437       0.5280       0.5268       0.5288       0.5477       0.5303       0.5211       0.5159       0.5079    9030.0000      94.0000       2.3428       0.0234   12190.0000      49.8754   12610.0000      13.9013      14.7686      12.2379      12.1403      12.1891   45346.8359       1.6816
 2752.9536 1083840.0000       8.8978    9010.0000      74.6921       0.5369       0.5490       0.5517       0.5524       0.5597       0.4978       0.5038       0.5069       0.5069       0.5063       0.5923       0.5592       0.5381       0.5362       0.5432       0.5662       0.5448       0.5340       0.5299       0.5234    9010.0000      94.0000       2.3336       0.0203   12200.0000      48.5473   12600.0000      13.4384      13.9439      12.1598      12.1656      12.1627   45346.8359       1.6815
 2753.1060 1083900.0000       8.5985    8980.0000      75.2313       0.5589       0.5467       0.5418       0.5449       0.5496       0.5134       0.5140       0.5146       0.5130       0.5097       0.6257       0.5950       0.5704       0.5630       0.5680       0.5912       0.5671       0.5533       0.5463       0.5376    8970.0000      94.0000       2.3312       0.0188   12170.0000      48.4514   12560.0000      13.1174      13.5555      12.1221      12.1927      12.1574   45346.8359       1.6814
 2753.2584 1083960.0000       9.2978    8930.0000      75.2313       0.5687       0.5478       0.5347       0.5241       0.5104       0.5292       0.5206       0.5183       0.5183       0.5163       0.6022       0.5765       0.5545       0.5412       0.5336       0.5825       0.5618       0.5494       0.5416       0.5317    8920.0000      94.0000       2.3396       0.0235   12130.0000      49.6809   12520.0000      13.5324      13.4065      12.1595      12.2166      12.1881   45339.9414       1.6810
 2753.4108 1084020.0000       8.9927    8890.0000      75.8656       0.5503       0.5369       0.5288       0.5198       0.5063       0.5358       0.5308       0.5271       0.5230       0.5182       0.5831       0.5628       0.5431       0.5281       0.5174       0.5757       0.5577       0.5458       0.5373       0.5275    8880.0000      94.0000       2.3581       0.0301   12100.0000      48.8291   12490.0000      13.2309      14.6072      12.2237      12.2248      12.2242   45346.8359       1.6812
 2753.5632 1084080.0000       8.7028    8870.0000      78.6250       0.5633       0.5554       0.5505       0.5450       0.5366       0.5424       0.5401       0.5411       0.5401       0.5349       0.6113       0.5999       0.5821       0.5706       0.5716       0.5906       0.5800       0.5713       0.5614       0.5489    8860.0000      94.0000       2.3661       0.0311   12080.0000      48.0001   12470.0000      13.4916      13.5076      12.2265      12.2291      12.2278   45346.8359       1.6811
 2753.7156 1084140.0000       8.4990    8820.0000      80.4011       0.5769       0.5721       0.5691       0.5640       0.5558       0.5481       0.5439       0.5408       0.5362       0.5298       0.6413       0.6291       0.6127       0.6066       0.6152       0.6104       0.5970       0.5878       0.5799       0.5698    8800.0000      95.0000       2.3563       0.0316   12030.0000      45.7125   12450.0000      13.2238      13.4987      12.2252      12.2450      12.2351   45353.7305       1.6813
 2753.8680 1084200.0000       8.5851    8780.0000      78.7201       0.5991       0.5737       0.5619       0.5582       0.5515       0.5530       0.5491       0.5461       0.5435       0.5411       0.6436       0.6230       0.6059       0.5950       0.5872       0.6115       0.5942       0.5840       0.5747       0.5610    8780.0000      95.0000       2.3434       0.0323   12010.0000      47.5454   12450.0000      14.9247      13.6832      12.2426      12.2729      12.2578   45339.9414       1.6807
