~VERSION INFORMATION
VERS.           2.0   :CWLS Log ASCII Standard - VERSION 2.0
WRAP.           NO    :One Line per depth step
PROD.  Company   :LAS Producer
PROG.  DLIS to ASCII 12C0-302                          :LAS Program name and version
CREA.        2006/12/30 10:30                          :LAS Creation date {YYYY/MM/DD hh:mm}
SOURCE.     KGIII6-B1_12in_DLIS_1430-3100m.dlis        :DLIS File Name
FILE-ID.     CDF_LWD003                                :File Identification Number
#--------------------------------------------------
~WELL INFORMATION
#MNEM.UNIT      DATA             DESCRIPTION
#---- ------ --------------   -----------------------------
STRT .M      1429.9692       :START DEPTH     
STOP .M      3099.9684       :STOP DEPTH     
STEP .M         0.1524       :STEP     
NULL .          -999.25      :NULL VALUE
COMP .        Company:COMPANY
WELL .        W2:WELL
FLD  .        Block                  :FIELD
LOC  .        Offshore                                 :LOCATION
CNTY .        Actinia                                  :COUNTY
STAT .        State                           :STATE
CTRY .                                                 :COUNTRY
API  .        06INM0159                                :API NUMBER
UWI  .                                                 :UNIQUE WELL ID
DATE .        25-Dec-2006                              :LOG DATE {DD-MMM-YYYY}
SRVC .        Company                             :SERVICE COMPANY
LATI .DEG     N 16.2763                                :LATITUDE
LONG .DEG     E 82.0962                                :LONGITUDE
GDAT .                                                 :GeoDetic Datum
SECT .        12.25 in.                                :Section
#-----------------------------------------------------------------------------
~PARAMETER INFORMATION
#MNEM.UNIT    VALUE                      DESCRIPTION
#---- -----   --------------------       ------------------------
RUN  .                                   :RUN NUMBER
PDAT .        Lowest Astronomical Tide   :Permanent Datum
EPD  .M           0.000000               :Elevation of Permanent Datum above Mean Sea Level
EPD  .M           0.000000               :Elevation of tool zero above Mean Sea Level
LMF  .          Drill Floor              :Logging Measured From (Name of Logging Elevation Reference)
APD  .                                   :Elevation of Depth Reference (LMF) above Permanent Datum
TN1 .        PowerPulse                  :Tool Number 1
TN2 .        ARC,SADN                    :Tool Number 2
OS3  .          N/A                      :Other Services Line 3
OS2  .          InterACT                 :Other Services Line 2
OS1  .          Directional Surveys      :Other Services Line 1
MST  .DEGC      66.00000                 :Mud Sample Temperature
BHT  .DEGC     99.00000                  :Bottom Hole Temperature
RMS.OHMM      1000.00000                 :Resistivity of Mud Sample (RM)
MST.DEGC        66.00000                 :Mud Sample temperature (RM)
MW.LB/G         13.60000                 :Mud Weight (RM)
SHT.DEGC        25.00000                 :Surface Hole Temperature (RM)
BSAL .PPM     64350.00000                :Mud Salinity
MRT  .DEGC     99.00000                  :Maximum Recorded Temperature
RMB  .OHMM    1000.00000                 :Resistivity of Mud - BHT
MCST .DEGC      66.00000                 :Mud Cake Sample Temperature
RMCS .OHMM    1000.00000                 :Resistivity of Mud Cake Sample
MFST .DEGC      66.00000                 :Mud Filtrate Sample Temperature
RMFS .OHMM    1000.00000                 :Resistivity of Mud Filtrate Sample
RMS  .OHMM    1000.00000                 :Resistivity of Mud Sample
MSS  .        Shakers                    :Mud Sample Source
MFSS  .       Shakers                    :Mud Filtrate Sample Source
MCSS  .       Shakers                    :Mud Cake Sample Source
TCS  .         03 00                     :End Log Time
DCS  .         22-Dec-2006               :End Log Date
DFT  .        SOBM                       :Drilling Fluid Type
DFPH .           N/A                     :Drilling Fluid PH
DFV  .S       79.00000                   :Drilling Fluid Viscosity
DFD  .LB/G    13.600000                  :Drilling Fluid Density
DOWR .        75/25                      :Oil/Water Ratio
DFTS .        25.57                      :Drilling Fluid Total Solids
DHGS .        242.31                     :Drilling Fluid High Gravity Solids
TLAB .        18 00                      :Begin Log Time
DLAB .        15-Dec-2006                :Begin Log Date
RUN  .        2                          :Run Number
BLI  .M       3100.00000                 :Bottom Log Interval
TLI  .M        1430.00000                :Top Log Interval
WITN .        Peter/Ismad                 :Witness's Name
ENGI .        Hatim/Harsh/Sidy           :Engineer's Name
LUL  .        Zone 2                     :Logging Unit Location
LUN  .        OLU-KC-0103                :Logging Unit Number
RR5  .        No  Potassium in mud       :Remark Line 5
RR4  .        SADN Neutron Porosity is corrected for bit size, mud Hydrogen Index, temperature, pressure and mud salinity :Remark Line 4
RR3  .        SADN Density is corrected for Stand off by Spine and Ribs Plot :Remark Line 3
RR2  .        ARC8 Resistivity is environmentally corrected for mud resistivity and bit size. :Remark Line 2
RR1  .        GR is corrected for bit size, tool size and mud weight               :Remark Line 1
PDAT .        Lowest Astronomical Tide   :Permanent Datum
EPD  .M          0.00000                 :Elevation of Permanent Datum
DMF  .        Driller's Depth            :Drilling Measured From
LMF  .        Rotary table               :Log Measured From
APD  .M         25.60000                 :Above Permanent Datum
EDF  .M         25.60000                 :Elevation of Derrick Floor
EGL  .M       -80.360000                 :Elevation of Ground Level
EKB  .M         25.60000                 :Elevation of Kelly Bushing
TDL  .M       3100.00000                 :Total Depth - Logger
TDD  .M       3100.00000                 :Total Depth - Driller
MHD  .DEG       1.54000                  :Maximum Hole Deviation
AMD  .DEG     97.370000                  :Azimuth of Maximum Hole Deviation
BS   .IN        12.25000                 :Bit Size
BSDT .M       3100.00000                 :Bit Size Depth To
BSDF .M       1444.00000                 :Bit Size Depth From
CWEI .LB/M     236.16000                 :Casing Weight
CSIZ .IN        13.37500                 :Current Casing Size
CASG .         P-110                     :Casing Grade
CADT .        1433.6300                  :Casing Depth To
CDF  .        105.86000                  :Casing Depth From
CBLO .M       1433.6300                  :Casing Bottom Logger
CBDR .M       1433.6300                  :Casing Bottom Driller
#-----------------------------------------------------------------------------
~CURVE INFORMATION
#MNEM.UNIT   API CODE                                  DESCRIPTION
#---- -----  --------                                  -----------------------
DEPT .M                                                :DEPTH (BOREHOLE) {F10.4}
TDEP ..1IN                                             :0.1-ft Frame Depth {F13.4}
ROP5_RM.M/HR                                           :Rate of Penetration, Averaged over Last 5ft {F13.4}
AGTM .S                                                :ARC Gamma Ray Time After Bit {F13.4}
GR_ARC.GAPI                                            :ARC Gamma Ray {F13.4}
A16H .OHMM                                             :ARC Attenuation Resistivity 16-in. at 2 MHz {F13.4}
A22H .OHMM                                             :ARC Attenuation Resistivity 22-in. at 2 MHz {F13.4}
A28H .OHMM                                             :ARC Attenuation Resistivity 28-in. at 2 MHz {F13.4}
A34H .OHMM                                             :ARC Attenuation Resistivity 34-in. at 2 MHz {F13.4}
A40H .OHMM                                             :ARC Attenuation Resistivity 40-in. at 2 MHz {F13.4}
A16L .OHMM                                             :ARC Attenuation Resistivity 16-in. at 400 KHz {F13.4}
A22L .OHMM                                             :ARC Attenuation Resistivity 22-in. at 400 KHz {F13.4}
A28L .OHMM                                             :ARC Attenuation Resistivity 28-in. at 400 KHz {F13.4}
A34L .OHMM                                             :ARC Attenuation Resistivity 34-in. at 400 KHz {F13.4}
A40L .OHMM                                             :ARC Attenuation Resistivity 40-in. at 400 KHz {F13.4}
P16H .OHMM                                             :ARC Phase-Shift Resistivity 16-in. at 2 MHz {F13.4}
P22H .OHMM                                             :ARC Phase-Shift Resistivity 22-in. at 2 MHz {F13.4}
P28H .OHMM                                             :ARC Phase-Shift Resistivity 28-in. at 2 MHz {F13.4}
P34H .OHMM                                             :ARC Phase-Shift Resistivity 34-in. at 2 MHz {F13.4}
P40H .OHMM                                             :ARC Phase-Shift Resistivity 40-in. at 2 MHz {F13.4}
P16L .OHMM                                             :ARC Phase-Shift Resistivity 16-in. at 400 KHz {F13.4}
P22L .OHMM                                             :ARC Phase-Shift Resistivity 22-in. at 400 KHz {F13.4}
P28L .OHMM                                             :ARC Phase-Shift Resistivity 28-in. at 400 KHz {F13.4}
P34L .OHMM                                             :ARC Phase-Shift Resistivity 34-in. at 400 KHz {F13.4}
P40L .OHMM                                             :ARC Phase-Shift Resistivity 40-in. at 400 KHz {F13.4}
TAB_ARC_RES.S                                          :ARC Resistivity Time After Bit {F13.4}
ATMP .DEGC                                             :ARC Annular Temperature {F13.4}
RHOB .G/C3                                             :Bulk Density {F13.4}
DRHO .G/C3                                             :Bulk Density Correction {F13.4}
TAB_DEN.S                                              :Density Time After Bit {F13.4}
TNPH .PU                                               :Thermal Neutron Porosity (Ratio Method) in Selected Lithology {F13.4}
TAB_NEU.S                                              :Neutron Time After Bit {F13.4}
HORD .IN                                               :Horizontal Hole Diameter {F13.4}
VERD .IN                                               :Vertical Hole Diameter {F13.4}
DCHO .IN                                               :Density Caliper, Horizontal {F13.4}
DCVE .IN                                               :Density Caliper, Vertical {F13.4}
DCAV .IN                                               :Density Caliper, Average {F13.4}
APRS_ARC.KPA                                           :ARC Annular Pressure {F13.4}
ECD_ARC.G/C3                                           :Equivalent Circulating Density {F13.4}
#-----------------------------------------------------------------------------
# 
#     DEPT        TDEP       ROP5_RM        AGTM        GR_ARC        A16H         A22H         A28H         A34H         A40H         A16L         A22L         A28L         A34L         A40L         P16H         P22H         P28H         P34H         P40H         P16L         P22L         P28L         P34L         P40L     TAB_ARC_RES      ATMP         RHOB         DRHO       TAB_DEN        TNPH       TAB_NEU        HORD         VERD         DCHO         DCVE         DCAV       APRS_ARC     ECD_ARC
#
~A  
# ...
 1981.0476  779940.0000      31.7483    1810.0000      89.8208       0.5857       0.5936       0.5967       0.5952       0.5934       0.5805       0.5960       0.6044       0.6039       0.5996       0.5674       0.5668       0.5635       0.5620       0.5654       0.5866       0.5895       0.5907       0.5893       0.5871    1800.0000      84.0000       2.2180       0.0250    4670.0000      52.4394    4860.0000      15.9569      15.2049      12.1992      12.3262      12.2627   32432.9512       1.6717
 1981.2000  780000.0000      31.9219    1810.0000      91.9141       0.5841       0.5903       0.5925       0.5934       0.5962       0.5750       0.5920       0.5995       0.5992       0.5978       0.5775       0.5747       0.5711       0.5754       0.5886       0.5875       0.5875       0.5877       0.5883       0.5891    1800.0000      84.0000       2.2310       0.0355    4660.0000      51.0366    4850.0000      15.9569      15.2049      12.2771      12.3021      12.2896   32432.9512       1.6716
 1981.3524  780060.0000      29.9299    1820.0000      92.1361       0.5836       0.5886       0.5907       0.5933       0.5988       0.5746       0.5877       0.5941       0.5964       0.5989       0.5713       0.5711       0.5690       0.5698       0.5754       0.5910       0.5844       0.5818       0.5830       0.5845    1810.0000      84.0000       2.2272       0.0386    4660.0000      50.1179    4850.0000      15.4230      15.7848      12.4415      12.2249      12.3332   32446.7402       1.6722
 1981.5048  780120.0000      29.1496    1820.0000      91.9141       0.5885       0.5866       0.5879       0.5905       0.5916       0.5744       0.5861       0.5929       0.5963       0.5990       0.5771       0.5791       0.5801       0.5827       0.5882       0.5927       0.5885       0.5853       0.5830       0.5809    1810.0000      84.0000       2.2222       0.0388    4660.0000      50.4637    4850.0000      15.4230      15.7848      12.4932      12.1725      12.3328   32453.6348       1.6724
 1981.6572  780180.0000      28.9716    1820.0000      87.9178       0.5887       0.5854       0.5818       0.5802       0.5807       0.5766       0.5859       0.5904       0.5923       0.5945       0.5884       0.5893       0.5857       0.5841       0.5890       0.5979       0.5947       0.5936       0.5909       0.5846    1810.0000      84.0000       2.2236       0.0315    4650.0000      53.6191    4840.0000      15.6199      15.1836      12.4475      12.2333      12.3404   32453.6348       1.6722
 1981.8096  780240.0000      28.8956    1840.0000      88.2350       0.5893       0.5839       0.5847       0.5932       0.6034       0.5790       0.5898       0.5960       0.5985       0.6003       0.5897       0.5902       0.5885       0.5870       0.5879       0.5995       0.5940       0.5911       0.5890       0.5855    1820.0000      84.0000       2.2298       0.0258    4650.0000      53.5655    4840.0000      15.3007      15.7724      12.3878      12.2001      12.2940   32439.8457       1.6714
 1981.9620  780300.0000      28.8889    1830.0000      87.1883       0.5899       0.5872       0.5914       0.5996       0.6049       0.5892       0.5985       0.6043       0.6046       0.6017       0.5686       0.5712       0.5722       0.5730       0.5754       0.5885       0.5886       0.5888       0.5870       0.5832    1820.0000      84.0000       2.2287       0.0235    4640.0000      53.8073    4830.0000      15.3007      15.7724      12.2590      12.3963      12.3277   32453.6348       1.6720
 1982.1144  780360.0000      29.0768    1840.0000      89.5036       0.6157       0.6089       0.6085       0.6102       0.6082       0.5972       0.6046       0.6084       0.6087       0.6081       0.5755       0.5818       0.5892       0.5948       0.5975       0.5983       0.5964       0.5972       0.5973       0.5942    1840.0000      84.0000       2.2226       0.0271    4670.0000      56.4644    4830.0000      16.0207      15.2758      12.2964      12.5371      12.4168   32460.5293       1.6722
 1982.2668  780420.0000      30.1036    1850.0000      90.0428       0.6165       0.6123       0.6119       0.6135       0.6132       0.6020       0.6115       0.6167       0.6182       0.6190       0.5856       0.5876       0.5924       0.5966       0.5970       0.6050       0.6036       0.6039       0.6016       0.5953    1840.0000      84.0000       2.2295       0.0253    4660.0000      56.0477    4820.0000      14.7526      15.7955      12.2729      12.2217      12.2473   32460.5293       1.6721
 1982.4192  780480.0000      30.6582    1840.0000      94.0390       0.6251       0.6229       0.6155       0.6058       0.5990       0.6117       0.6186       0.6204       0.6188       0.6177       0.5923       0.5923       0.5917       0.5864       0.5771       0.6092       0.6082       0.6101       0.6100       0.6052    1830.0000      84.0000       2.2441       0.0233    4640.0000      56.6808    4810.0000      14.7881      15.9711      12.2421      12.1920      12.2170   32460.5293       1.6720
 1982.5716  780540.0000      28.7656    1830.0000      95.9420       0.6160       0.6124       0.6039       0.6013       0.6089       0.6175       0.6240       0.6250       0.6224       0.6204       0.6000       0.5952       0.5919       0.5922       0.5947       0.6154       0.6139       0.6169       0.6180       0.6127    1820.0000      84.0000       2.2536       0.0222    4620.0000      53.3122    4790.0000      14.7881      15.9711      12.1828      12.2261      12.2045   32474.3203       1.6725
 1982.7240  780600.0000      27.9279    1840.0000      93.1827       0.6091       0.6298       0.6386       0.6387       0.6415       0.6151       0.6275       0.6317       0.6313       0.6320       0.5785       0.5811       0.5841       0.5901       0.5989       0.6160       0.6121       0.6135       0.6176       0.6194    1830.0000      84.0000       2.2462       0.0216    4630.0000      51.1125    4790.0000      15.4816      14.7562      12.1674      12.3543      12.2608   32474.3203       1.6724
 1982.8764  780660.0000      28.9364    1850.0000      94.3562       0.6235       0.6504       0.6672       0.6760       0.6860       0.6209       0.6357       0.6416       0.6408       0.6396       0.5828       0.5837       0.5871       0.5998       0.6203       0.6216       0.6218       0.6225       0.6223       0.6204    1850.0000      84.0000       2.2467       0.0290    4630.0000      51.0477    4800.0000      14.8218      15.4372      12.2651      12.2828      12.2740   32481.2148       1.6726
 1983.0288  780720.0000      29.0394    1860.0000      92.3581       0.6451       0.6529       0.6615       0.6661       0.6657       0.6244       0.6396       0.6452       0.6396       0.6308       0.6078       0.6148       0.6163       0.6203       0.6325       0.6381       0.6376       0.6371       0.6386       0.6422    1850.0000      84.0000       2.2432       0.0299    4620.0000      51.3517    4790.0000      14.8218      15.4372      12.2828      12.2262      12.2545   32481.2148       1.6725
 1983.1812  780780.0000      30.4486    1880.0000      92.3581       0.6517       0.6470       0.6349       0.6172       0.6015       0.6362       0.6440       0.6468       0.6430       0.6367       0.6169       0.6247       0.6245       0.6205       0.6207       0.6482       0.6498       0.6484       0.6480       0.6513    1870.0000      84.0000       2.2400       0.0288    4620.0000      51.9210    4790.0000      15.4816      15.3947      12.2199      12.2256      12.2228   32495.0039       1.6731
 1983.3336  780840.0000      30.4244    1870.0000      90.8991       0.6629       0.6417       0.6268       0.6130       0.5964       0.6413       0.6451       0.6466       0.6438       0.6384       0.6317       0.6389       0.6395       0.6346       0.6312       0.6552       0.6590       0.6584       0.6568       0.6585    1870.0000      84.0000       2.2396       0.0331    4610.0000      48.5339    4790.0000      15.4816      15.3947      12.2612      12.2522      12.2567   32488.1094       1.6726
