~VERSION INFORMATION
VERS.           2.0   :CWLS Log ASCII Standard - VERSION 2.0
WRAP.           NO    :One Line per depth step
PROD.  Company   :LAS Producer
PROG.  DLIS to ASCII 12C0-302                          :LAS Program name and version
CREA.        2006/12/30 10:30                          :LAS Creation date {YYYY/MM/DD hh:mm}
SOURCE.     KGIII6-B1_12in_DLIS_1430-3100m.dlis        :DLIS File Name
FILE-ID.     CDF_LWD003                                :File Identification Number
#--------------------------------------------------
~WELL INFORMATION
#MNEM.UNIT      DATA             DESCRIPTION
#---- ------ --------------   -----------------------------
STRT .M      1429.9692       :START DEPTH     
STOP .M      3099.9684       :STOP DEPTH     
STEP .M         0.1524       :STEP     
NULL .          -999.25      :NULL VALUE
COMP .        Company:COMPANY
WELL .        W2:WELL
FLD  .        Block                  :FIELD
LOC  .        Offshore                                 :LOCATION
CNTY .        Actinia                                  :COUNTY
STAT .        State                           :STATE
CTRY .                                                 :COUNTRY
API  .        06INM0159                                :API NUMBER
UWI  .                                                 :UNIQUE WELL ID
DATE .        25-Dec-2006                              :LOG DATE {DD-MMM-YYYY}
SRVC .        Company                             :SERVICE COMPANY
LATI .DEG     N 16.2763                                :LATITUDE
LONG .DEG     E 82.0962                                :LONGITUDE
GDAT .                                                 :GeoDetic Datum
SECT .        12.25 in.                                :Section
#-----------------------------------------------------------------------------
~PARAMETER INFORMATION
#MNEM.UNIT    VALUE                      DESCRIPTION
#---- -----   --------------------       ------------------------
RUN  .                                   :RUN NUMBER
PDAT .        Lowest Astronomical Tide   :Permanent Datum
EPD  .M           0.000000               :Elevation of Permanent Datum above Mean Sea Level
EPD  .M           0.000000               :Elevation of tool zero above Mean Sea Level
LMF  .          Drill Floor              :Logging Measured From (Name of Logging Elevation Reference)
APD  .                                   :Elevation of Depth Reference (LMF) above Permanent Datum
TN1 .        PowerPulse                  :Tool Number 1
TN2 .        ARC,SADN                    :Tool Number 2
OS3  .          N/A                      :Other Services Line 3
OS2  .          InterACT                 :Other Services Line 2
OS1  .          Directional Surveys      :Other Services Line 1
MST  .DEGC      66.00000                 :Mud Sample Temperature
BHT  .DEGC     99.00000                  :Bottom Hole Temperature
RMS.OHMM      1000.00000                 :Resistivity of Mud Sample (RM)
MST.DEGC        66.00000                 :Mud Sample temperature (RM)
MW.LB/G         13.60000                 :Mud Weight (RM)
SHT.DEGC        25.00000                 :Surface Hole Temperature (RM)
BSAL .PPM     64350.00000                :Mud Salinity
MRT  .DEGC     99.00000                  :Maximum Recorded Temperature
RMB  .OHMM    1000.00000                 :Resistivity of Mud - BHT
MCST .DEGC      66.00000                 :Mud Cake Sample Temperature
RMCS .OHMM    1000.00000                 :Resistivity of Mud Cake Sample
MFST .DEGC      66.00000                 :Mud Filtrate Sample Temperature
RMFS .OHMM    1000.00000                 :Resistivity of Mud Filtrate Sample
RMS  .OHMM    1000.00000                 :Resistivity of Mud Sample
MSS  .        Shakers                    :Mud Sample Source
MFSS  .       Shakers                    :Mud Filtrate Sample Source
MCSS  .       Shakers                    :Mud Cake Sample Source
TCS  .         03 00                     :End Log Time
DCS  .         22-Dec-2006               :End Log Date
DFT  .        SOBM                       :Drilling Fluid Type
DFPH .           N/A                     :Drilling Fluid PH
DFV  .S       79.00000                   :Drilling Fluid Viscosity
DFD  .LB/G    13.600000                  :Drilling Fluid Density
DOWR .        75/25                      :Oil/Water Ratio
DFTS .        25.57                      :Drilling Fluid Total Solids
DHGS .        242.31                     :Drilling Fluid High Gravity Solids
TLAB .        18 00                      :Begin Log Time
DLAB .        15-Dec-2006                :Begin Log Date
RUN  .        2                          :Run Number
BLI  .M       3100.00000                 :Bottom Log Interval
TLI  .M        1430.00000                :Top Log Interval
WITN .        Peter/Ismad                 :Witness's Name
ENGI .        Hatim/Harsh/Sidy           :Engineer's Name
LUL  .        Zone 2                     :Logging Unit Location
LUN  .        OLU-KC-0103                :Logging Unit Number
RR5  .        No  Potassium in mud       :Remark Line 5
RR4  .        SADN Neutron Porosity is corrected for bit size, mud Hydrogen Index, temperature, pressure and mud salinity :Remark Line 4
RR3  .        SADN Density is corrected for Stand off by Spine and Ribs Plot :Remark Line 3
RR2  .        ARC8 Resistivity is environmentally corrected for mud resistivity and bit size. :Remark Line 2
RR1  .        GR is corrected for bit size, tool size and mud weight               :Remark Line 1
PDAT .        Lowest Astronomical Tide   :Permanent Datum
EPD  .M          0.00000                 :Elevation of Permanent Datum
DMF  .        Driller's Depth            :Drilling Measured From
LMF  .        Rotary table               :Log Measured From
APD  .M         25.60000                 :Above Permanent Datum
EDF  .M         25.60000                 :Elevation of Derrick Floor
EGL  .M       -80.360000                 :Elevation of Ground Level
EKB  .M         25.60000                 :Elevation of Kelly Bushing
TDL  .M       3100.00000                 :Total Depth - Logger
TDD  .M       3100.00000                 :Total Depth - Driller
MHD  .DEG       1.54000                  :Maximum Hole Deviation
AMD  .DEG     97.370000                  :Azimuth of Maximum Hole Deviation
BS   .IN        12.25000                 :Bit Size
BSDT .M       3100.00000                 :Bit Size Depth To
BSDF .M       1444.00000                 :Bit Size Depth From
CWEI .LB/M     236.16000                 :Casing Weight
CSIZ .IN        13.37500                 :Current Casing Size
CASG .         P-110                     :Casing Grade
CADT .        1433.6300                  :Casing Depth To
CDF  .        105.86000                  :Casing Depth From
CBLO .M       1433.6300                  :Casing Bottom Logger
CBDR .M       1433.6300                  :Casing Bottom Driller
#-----------------------------------------------------------------------------
~CURVE INFORMATION
#MNEM.UNIT   API CODE                                  DESCRIPTION
#---- -----  --------                                  -----------------------
DEPT .M                                                :DEPTH (BOREHOLE) {F10.4}
TDEP ..1IN                                             :0.1-ft Frame Depth {F13.4}
ROP5_RM.M/HR                                           :Rate of Penetration, Averaged over Last 5ft {F13.4}
AGTM .S                                                :ARC Gamma Ray Time After Bit {F13.4}
GR_ARC.GAPI                                            :ARC Gamma Ray {F13.4}
A16H .OHMM                                             :ARC Attenuation Resistivity 16-in. at 2 MHz {F13.4}
A22H .OHMM                                             :ARC Attenuation Resistivity 22-in. at 2 MHz {F13.4}
A28H .OHMM                                             :ARC Attenuation Resistivity 28-in. at 2 MHz {F13.4}
A34H .OHMM                                             :ARC Attenuation Resistivity 34-in. at 2 MHz {F13.4}
A40H .OHMM                                             :ARC Attenuation Resistivity 40-in. at 2 MHz {F13.4}
A16L .OHMM                                             :ARC Attenuation Resistivity 16-in. at 400 KHz {F13.4}
A22L .OHMM                                             :ARC Attenuation Resistivity 22-in. at 400 KHz {F13.4}
A28L .OHMM                                             :ARC Attenuation Resistivity 28-in. at 400 KHz {F13.4}
A34L .OHMM                                             :ARC Attenuation Resistivity 34-in. at 400 KHz {F13.4}
A40L .OHMM                                             :ARC Attenuation Resistivity 40-in. at 400 KHz {F13.4}
P16H .OHMM                                             :ARC Phase-Shift Resistivity 16-in. at 2 MHz {F13.4}
P22H .OHMM                                             :ARC Phase-Shift Resistivity 22-in. at 2 MHz {F13.4}
P28H .OHMM                                             :ARC Phase-Shift Resistivity 28-in. at 2 MHz {F13.4}
P34H .OHMM                                             :ARC Phase-Shift Resistivity 34-in. at 2 MHz {F13.4}
P40H .OHMM                                             :ARC Phase-Shift Resistivity 40-in. at 2 MHz {F13.4}
P16L .OHMM                                             :ARC Phase-Shift Resistivity 16-in. at 400 KHz {F13.4}
P22L .OHMM                                             :ARC Phase-Shift Resistivity 22-in. at 400 KHz {F13.4}
P28L .OHMM                                             :ARC Phase-Shift Resistivity 28-in. at 400 KHz {F13.4}
P34L .OHMM                                             :ARC Phase-Shift Resistivity 34-in. at 400 KHz {F13.4}
P40L .OHMM                                             :ARC Phase-Shift Resistivity 40-in. at 400 KHz {F13.4}
TAB_ARC_RES.S                                          :ARC Resistivity Time After Bit {F13.4}
ATMP .DEGC                                             :ARC Annular Temperature {F13.4}
RHOB .G/C3                                             :Bulk Density {F13.4}
DRHO .G/C3                                             :Bulk Density Correction {F13.4}
TAB_DEN.S                                              :Density Time After Bit {F13.4}
TNPH .PU                                               :Thermal Neutron Porosity (Ratio Method) in Selected Lithology {F13.4}
TAB_NEU.S                                              :Neutron Time After Bit {F13.4}
HORD .IN                                               :Horizontal Hole Diameter {F13.4}
VERD .IN                                               :Vertical Hole Diameter {F13.4}
DCHO .IN                                               :Density Caliper, Horizontal {F13.4}
DCVE .IN                                               :Density Caliper, Vertical {F13.4}
DCAV .IN                                               :Density Caliper, Average {F13.4}
APRS_ARC.KPA                                           :ARC Annular Pressure {F13.4}
ECD_ARC.G/C3                                           :Equivalent Circulating Density {F13.4}
#-----------------------------------------------------------------------------
# 
#     DEPT        TDEP       ROP5_RM        AGTM        GR_ARC        A16H         A22H         A28H         A34H         A40H         A16L         A22L         A28L         A34L         A40L         P16H         P22H         P28H         P34H         P40H         P16L         P22L         P28L         P34L         P40L     TAB_ARC_RES      ATMP         RHOB         DRHO       TAB_DEN        TNPH       TAB_NEU        HORD         VERD         DCHO         DCVE         DCAV       APRS_ARC     ECD_ARC
#
~A  
# ...
 1761.5916  693540.0000      28.1619   24930.0156      89.5035       0.4697       0.4791       0.4880       0.4969       0.5069       0.4572       0.4634       0.4645       0.4628       0.4621       0.4479       0.4480       0.4512       0.4635       0.4825       0.4554       0.4559       0.4546       0.4509       0.4468   24919.9844      69.0000       2.0823       0.0194  165940.0000      64.3092  166160.0000      16.1874      16.2070      12.6567      12.3380      12.4974   27827.2520       1.6132
 1761.7440  693600.0000      28.1392   24940.0000      82.9382       0.4876       0.4972       0.5076       0.5134       0.5145       0.4658       0.4700       0.4726       0.4712       0.4670       0.4648       0.4641       0.4682       0.4821       0.5016       0.4679       0.4675       0.4664       0.4620       0.4550   24929.9688      70.0000       2.0725       0.0136  165939.9844      65.6522  166169.9844      16.1857      16.2016      12.7797      12.2326      12.5061   27834.1465       1.6135
 1761.8964  693660.0000      28.5258   24950.0156      79.7666       0.4934       0.5002       0.5154       0.5225       0.5142       0.4694       0.4727       0.4725       0.4709       0.4706       0.4665       0.4666       0.4717       0.4852       0.5027       0.4800       0.4732       0.4704       0.4703       0.4692   24950.0156      70.0000       2.0785       0.0122  165950.0000      66.0710  166180.0000      16.1910      16.2052      12.7885      12.2431      12.5158   27841.0410       1.6137
 1762.0488  693720.0000      28.8799   24950.0156      77.4513       0.4969       0.5036       0.5152       0.5214       0.5176       0.4734       0.4748       0.4750       0.4728       0.4692       0.4700       0.4687       0.4720       0.4861       0.5073       0.4813       0.4767       0.4732       0.4688       0.4629   24939.9844      70.0000       2.0690       0.0082  165950.0000      70.6302  166180.0000      16.1963      16.1963      12.9793      12.2420      12.6107   27847.9355       1.6140
 1762.2012  693780.0000      29.6626   24949.9688      80.2106       0.4977       0.5013       0.5067       0.5078       0.5033       0.4789       0.4766       0.4766       0.4750       0.4701       0.4735       0.4708       0.4745       0.4902       0.5122       0.4858       0.4788       0.4776       0.4761       0.4685   24940.0000      70.0000       2.0547       0.0079  165959.9844      74.2918  166209.9844      16.1981      16.2016      12.7301      12.3194      12.5247   27889.3047       1.6162
 1762.3536  693840.0000      30.6546   24959.9844      81.0352       0.4885       0.4950       0.5046       0.5081       0.5022       0.4796       0.4767       0.4764       0.4750       0.4709       0.4587       0.4588       0.4612       0.4706       0.4850       0.4750       0.4672       0.4647       0.4622       0.4550   24950.0156      70.0000       2.0365       0.0086  165970.0000      72.7316  166220.0000      16.1981      16.2123      12.5755      12.3521      12.4638   27889.3047       1.6161
 1762.5060  693900.0000      31.6998   24960.0000      79.1322       0.4759       0.4859       0.4975       0.5028       0.4993       0.4701       0.4746       0.4780       0.4770       0.4726       0.4390       0.4412       0.4443       0.4504       0.4585       0.4603       0.4554       0.4542       0.4528       0.4475   24960.0000      70.0000       2.0458       0.0099  165979.9844      74.3800  166239.9844      16.1963      16.2070      12.5344      12.2950      12.4147   27903.0938       1.6168
 1762.6584  693960.0000      36.3996   25690.0156      75.8654       0.4757       0.4821       0.4881       0.4905       0.4897       0.4687       0.4722       0.4763       0.4749       0.4674       0.4450       0.4458       0.4492       0.4603       0.4772       0.4591       0.4567       0.4562       0.4539       0.4480   24959.9844      70.0000       2.0662       0.0085  165980.0000      68.4323  166250.0000      16.1928      16.2052      12.5689      12.3104      12.4397   27896.1992       1.6162
 1762.8108  694020.0000      35.8643   25689.9688      77.9904       0.4747       0.4814       0.4856       0.4877       0.4901       0.4634       0.4687       0.4721       0.4713       0.4681       0.4509       0.4511       0.4512       0.4566       0.4677       0.4558       0.4552       0.4557       0.4535       0.4478   25669.9688      70.0000       2.0766       0.0079  165969.9844      69.6274  166259.9844      16.2087      16.2105      12.5221      12.1747      12.3484   27909.9883       1.6169
 1762.9632  694080.0000      38.6441   25700.0000      79.8934       0.4685       0.4801       0.4888       0.4911       0.4896       0.4629       0.4695       0.4723       0.4707       0.4680       0.4384       0.4379       0.4367       0.4437       0.4605       0.4545       0.4508       0.4490       0.4474       0.4443   25689.9688      70.0000       2.0754       0.0093  165959.9844      70.1764  166349.9844      16.1945      16.2087      12.2528      12.2478      12.2503   27916.8828       1.6171
 1763.1156  694140.0000      37.9403   25719.9844      81.6695       0.4639       0.4727       0.4838       0.4869       0.4794       0.4604       0.4663       0.4707       0.4734       0.4753       0.4341       0.4338       0.4346       0.4448       0.4643       0.4514       0.4505       0.4502       0.4507       0.4513   25699.9844      70.0000       2.0590       0.0105  165960.0000      71.6113  166360.0000      16.1945      16.2087      12.1822      12.2395      12.2109   27923.7773       1.6174
 1763.2680  694200.0000      36.8892   25719.9844      79.4494       0.4638       0.4739       0.4867       0.4935       0.4915       0.4631       0.4676       0.4710       0.4717       0.4703       0.4327       0.4344       0.4383       0.4479       0.4613       0.4520       0.4513       0.4510       0.4506       0.4495   25710.0156      71.0000       2.0465       0.0051  165960.0000      76.1462  166400.0000      16.1803      16.2123      12.3865      12.2236      12.3050   27923.7773       1.6173
 1763.4204  694260.0000      33.8765   25699.9844      81.4792       0.4686       0.4758       0.4861       0.4903       0.4852       0.4662       0.4684       0.4709       0.4715       0.4695       0.4400       0.4414       0.4443       0.4521       0.4635       0.4543       0.4537       0.4560       0.4574       0.4548   25690.0156      71.0000       2.0716       0.0104  165940.0000      70.1826  166380.0000      16.2016      16.2034      12.4913      12.2427      12.3670   27985.8301       1.6207
 1763.5728  694320.0000      31.8554   25690.0156      83.3822       0.4667       0.4707       0.4830       0.4910       0.4861       0.4653       0.4674       0.4696       0.4695       0.4672       0.4517       0.4520       0.4550       0.4629       0.4733       0.4606       0.4580       0.4594       0.4601       0.4563   25690.0156      71.0000       2.1046       0.0177  165940.0000      65.4590  166390.0000      16.2016      16.2034      12.2766      12.1169      12.1967   27999.6211       1.6214
 1763.7252  694380.0000      31.5409   25709.9688      81.1621       0.4665       0.4709       0.4728       0.4741       0.4774       0.4653       0.4702       0.4727       0.4720       0.4700       0.4503       0.4469       0.4466       0.4556       0.4717       0.4564       0.4539       0.4560       0.4561       0.4498   25700.0000      71.0000       2.1356       0.0260  165949.9844      58.9972  166389.9844      16.1963      16.2123      12.3636      12.2317      12.2977   28006.5156       1.6216
 1763.8776  694440.0000      31.5409   25720.0000      78.6248       0.4672       0.4733       0.4806       0.4867       0.4904       0.4694       0.4753       0.4781       0.4780       0.4775       0.4312       0.4260       0.4250       0.4303       0.4379       0.4541       0.4505       0.4497       0.4487       0.4448   25709.9688      71.0000       2.1319       0.0181  165949.9844      59.2406  166399.9844      16.1963      16.2123      12.3585      12.1726      12.2656   28020.3047       1.6223
