~VERSION INFORMATION
VERS.           2.0   :CWLS Log ASCII Standard - VERSION 2.0
WRAP.           NO    :One Line per depth step
PROD.  Company   :LAS Producer
PROG.  DLIS to ASCII 12C0-302                          :LAS Program name and version
CREA.        2006/12/30 10:30                          :LAS Creation date {YYYY/MM/DD hh:mm}
SOURCE.     KGIII6-B1_12in_DLIS_1430-3100m.dlis        :DLIS File Name
FILE-ID.     CDF_LWD003                                :File Identification Number
#--------------------------------------------------
~WELL INFORMATION
#MNEM.UNIT      DATA             DESCRIPTION
#---- ------ --------------   -----------------------------
STRT .M      1429.9692       :START DEPTH     
STOP .M      3099.9684       :STOP DEPTH     
STEP .M         0.1524       :STEP     
NULL .          -999.25      :NULL VALUE
COMP .        Company:COMPANY
WELL .        W2:WELL
FLD  .        Block                  :FIELD
LOC  .        Offshore                                 :LOCATION
CNTY .        Actinia                                  :COUNTY
STAT .        State                           :STATE
CTRY .                                                 :COUNTRY
API  .        06INM0159                                :API NUMBER
UWI  .                                                 :UNIQUE WELL ID
DATE .        25-Dec-2006                              :LOG DATE {DD-MMM-YYYY}
SRVC .        Company                             :SERVICE COMPANY
LATI .DEG     N 16.2763                                :LATITUDE
LONG .DEG     E 82.0962                                :LONGITUDE
GDAT .                                                 :GeoDetic Datum
SECT .        12.25 in.                                :Section
#-----------------------------------------------------------------------------
~PARAMETER INFORMATION
#MNEM.UNIT    VALUE                      DESCRIPTION
#---- -----   --------------------       ------------------------
RUN  .                                   :RUN NUMBER
PDAT .        Lowest Astronomical Tide   :Permanent Datum
EPD  .M           0.000000               :Elevation of Permanent Datum above Mean Sea Level
EPD  .M           0.000000               :Elevation of tool zero above Mean Sea Level
LMF  .          Drill Floor              :Logging Measured From (Name of Logging Elevation Reference)
APD  .                                   :Elevation of Depth Reference (LMF) above Permanent Datum
TN1 .        PowerPulse                  :Tool Number 1
TN2 .        ARC,SADN                    :Tool Number 2
OS3  .          N/A                      :Other Services Line 3
OS2  .          InterACT                 :Other Services Line 2
OS1  .          Directional Surveys      :Other Services Line 1
MST  .DEGC      66.00000                 :Mud Sample Temperature
BHT  .DEGC     99.00000                  :Bottom Hole Temperature
RMS.OHMM      1000.00000                 :Resistivity of Mud Sample (RM)
MST.DEGC        66.00000                 :Mud Sample temperature (RM)
MW.LB/G         13.60000                 :Mud Weight (RM)
SHT.DEGC        25.00000                 :Surface Hole Temperature (RM)
BSAL .PPM     64350.00000                :Mud Salinity
MRT  .DEGC     99.00000                  :Maximum Recorded Temperature
RMB  .OHMM    1000.00000                 :Resistivity of Mud - BHT
MCST .DEGC      66.00000                 :Mud Cake Sample Temperature
RMCS .OHMM    1000.00000                 :Resistivity of Mud Cake Sample
MFST .DEGC      66.00000                 :Mud Filtrate Sample Temperature
RMFS .OHMM    1000.00000                 :Resistivity of Mud Filtrate Sample
RMS  .OHMM    1000.00000                 :Resistivity of Mud Sample
MSS  .        Shakers                    :Mud Sample Source
MFSS  .       Shakers                    :Mud Filtrate Sample Source
MCSS  .       Shakers                    :Mud Cake Sample Source
TCS  .         03 00                     :End Log Time
DCS  .         22-Dec-2006               :End Log Date
DFT  .        SOBM                       :Drilling Fluid Type
DFPH .           N/A                     :Drilling Fluid PH
DFV  .S       79.00000                   :Drilling Fluid Viscosity
DFD  .LB/G    13.600000                  :Drilling Fluid Density
DOWR .        75/25                      :Oil/Water Ratio
DFTS .        25.57                      :Drilling Fluid Total Solids
DHGS .        242.31                     :Drilling Fluid High Gravity Solids
TLAB .        18 00                      :Begin Log Time
DLAB .        15-Dec-2006                :Begin Log Date
RUN  .        2                          :Run Number
BLI  .M       3100.00000                 :Bottom Log Interval
TLI  .M        1430.00000                :Top Log Interval
WITN .        Peter/Ismad                 :Witness's Name
ENGI .        Hatim/Harsh/Sidy           :Engineer's Name
LUL  .        Zone 2                     :Logging Unit Location
LUN  .        OLU-KC-0103                :Logging Unit Number
RR5  .        No  Potassium in mud       :Remark Line 5
RR4  .        SADN Neutron Porosity is corrected for bit size, mud Hydrogen Index, temperature, pressure and mud salinity :Remark Line 4
RR3  .        SADN Density is corrected for Stand off by Spine and Ribs Plot :Remark Line 3
RR2  .        ARC8 Resistivity is environmentally corrected for mud resistivity and bit size. :Remark Line 2
RR1  .        GR is corrected for bit size, tool size and mud weight               :Remark Line 1
PDAT .        Lowest Astronomical Tide   :Permanent Datum
EPD  .M          0.00000                 :Elevation of Permanent Datum
DMF  .        Driller's Depth            :Drilling Measured From
LMF  .        Rotary table               :Log Measured From
APD  .M         25.60000                 :Above Permanent Datum
EDF  .M         25.60000                 :Elevation of Derrick Floor
EGL  .M       -80.360000                 :Elevation of Ground Level
EKB  .M         25.60000                 :Elevation of Kelly Bushing
TDL  .M       3100.00000                 :Total Depth - Logger
TDD  .M       3100.00000                 :Total Depth - Driller
MHD  .DEG       1.54000                  :Maximum Hole Deviation
AMD  .DEG     97.370000                  :Azimuth of Maximum Hole Deviation
BS   .IN        12.25000                 :Bit Size
BSDT .M       3100.00000                 :Bit Size Depth To
BSDF .M       1444.00000                 :Bit Size Depth From
CWEI .LB/M     236.16000                 :Casing Weight
CSIZ .IN        13.37500                 :Current Casing Size
CASG .         P-110                     :Casing Grade
CADT .        1433.6300                  :Casing Depth To
CDF  .        105.86000                  :Casing Depth From
CBLO .M       1433.6300                  :Casing Bottom Logger
CBDR .M       1433.6300                  :Casing Bottom Driller
#-----------------------------------------------------------------------------
~CURVE INFORMATION
#MNEM.UNIT   API CODE                                  DESCRIPTION
#---- -----  --------                                  -----------------------
DEPT .M                                                :DEPTH (BOREHOLE) {F10.4}
TDEP ..1IN                                             :0.1-ft Frame Depth {F13.4}
ROP5_RM.M/HR                                           :Rate of Penetration, Averaged over Last 5ft {F13.4}
AGTM .S                                                :ARC Gamma Ray Time After Bit {F13.4}
GR_ARC.GAPI                                            :ARC Gamma Ray {F13.4}
A16H .OHMM                                             :ARC Attenuation Resistivity 16-in. at 2 MHz {F13.4}
A22H .OHMM                                             :ARC Attenuation Resistivity 22-in. at 2 MHz {F13.4}
A28H .OHMM                                             :ARC Attenuation Resistivity 28-in. at 2 MHz {F13.4}
A34H .OHMM                                             :ARC Attenuation Resistivity 34-in. at 2 MHz {F13.4}
A40H .OHMM                                             :ARC Attenuation Resistivity 40-in. at 2 MHz {F13.4}
A16L .OHMM                                             :ARC Attenuation Resistivity 16-in. at 400 KHz {F13.4}
A22L .OHMM                                             :ARC Attenuation Resistivity 22-in. at 400 KHz {F13.4}
A28L .OHMM                                             :ARC Attenuation Resistivity 28-in. at 400 KHz {F13.4}
A34L .OHMM                                             :ARC Attenuation Resistivity 34-in. at 400 KHz {F13.4}
A40L .OHMM                                             :ARC Attenuation Resistivity 40-in. at 400 KHz {F13.4}
P16H .OHMM                                             :ARC Phase-Shift Resistivity 16-in. at 2 MHz {F13.4}
P22H .OHMM                                             :ARC Phase-Shift Resistivity 22-in. at 2 MHz {F13.4}
P28H .OHMM                                             :ARC Phase-Shift Resistivity 28-in. at 2 MHz {F13.4}
P34H .OHMM                                             :ARC Phase-Shift Resistivity 34-in. at 2 MHz {F13.4}
P40H .OHMM                                             :ARC Phase-Shift Resistivity 40-in. at 2 MHz {F13.4}
P16L .OHMM                                             :ARC Phase-Shift Resistivity 16-in. at 400 KHz {F13.4}
P22L .OHMM                                             :ARC Phase-Shift Resistivity 22-in. at 400 KHz {F13.4}
P28L .OHMM                                             :ARC Phase-Shift Resistivity 28-in. at 400 KHz {F13.4}
P34L .OHMM                                             :ARC Phase-Shift Resistivity 34-in. at 400 KHz {F13.4}
P40L .OHMM                                             :ARC Phase-Shift Resistivity 40-in. at 400 KHz {F13.4}
TAB_ARC_RES.S                                          :ARC Resistivity Time After Bit {F13.4}
ATMP .DEGC                                             :ARC Annular Temperature {F13.4}
RHOB .G/C3                                             :Bulk Density {F13.4}
DRHO .G/C3                                             :Bulk Density Correction {F13.4}
TAB_DEN.S                                              :Density Time After Bit {F13.4}
TNPH .PU                                               :Thermal Neutron Porosity (Ratio Method) in Selected Lithology {F13.4}
TAB_NEU.S                                              :Neutron Time After Bit {F13.4}
HORD .IN                                               :Horizontal Hole Diameter {F13.4}
VERD .IN                                               :Vertical Hole Diameter {F13.4}
DCHO .IN                                               :Density Caliper, Horizontal {F13.4}
DCVE .IN                                               :Density Caliper, Vertical {F13.4}
DCAV .IN                                               :Density Caliper, Average {F13.4}
APRS_ARC.KPA                                           :ARC Annular Pressure {F13.4}
ECD_ARC.G/C3                                           :Equivalent Circulating Density {F13.4}
#-----------------------------------------------------------------------------
# 
#     DEPT        TDEP       ROP5_RM        AGTM        GR_ARC        A16H         A22H         A28H         A34H         A40H         A16L         A22L         A28L         A34L         A40L         P16H         P22H         P28H         P34H         P40H         P16L         P22L         P28L         P34L         P40L     TAB_ARC_RES      ATMP         RHOB         DRHO       TAB_DEN        TNPH       TAB_NEU        HORD         VERD         DCHO         DCVE         DCAV       APRS_ARC     ECD_ARC
#
~A  
# ...
 2641.8540 1040100.0000      13.3383    7480.0000      97.9402       0.5848       0.5836       0.5849       0.5942       0.6088       0.5744       0.5788       0.5812       0.5832       0.5859       0.5659       0.5553       0.5475       0.5459       0.5479       0.5847       0.5754       0.5691       0.5637       0.5565    7470.0000      97.0000       2.3302       0.0421   11500.0000      51.8026   11780.0000      15.6944      15.1215      12.3988      12.2962      12.3475   43112.9336       1.6659
 2642.0064 1040160.0000      13.2527    7470.0000      97.6231       0.5781       0.5822       0.5846       0.5843       0.5828       0.5749       0.5826       0.5878       0.5917       0.5955       0.5421       0.5344       0.5238       0.5173       0.5179       0.5762       0.5679       0.5628       0.5596       0.5556    7450.0000      97.0000       2.3377       0.0438   11470.0000      55.2098   11750.0000      15.9959      14.3216      12.3187      12.3607      12.3397   43126.7227       1.6664
 2642.1588 1040220.0000      12.8168    7450.0000      93.6268       0.5768       0.5785       0.5808       0.5834       0.5854       0.5743       0.5842       0.5890       0.5896       0.5896       0.5498       0.5486       0.5429       0.5395       0.5427       0.5793       0.5747       0.5711       0.5671       0.5621    7440.0000      97.0000       2.3436       0.0432   11460.0000      52.9950   11730.0000      15.2457      15.3610      12.3601      12.4111      12.3856   43126.7227       1.6663
 2642.3112 1040280.0000      12.9683    7470.0000      93.2145       0.5788       0.5812       0.5813       0.5770       0.5706       0.5766       0.5874       0.5931       0.5913       0.5857       0.5631       0.5635       0.5571       0.5522       0.5554       0.5836       0.5826       0.5809       0.5781       0.5749    7460.0000      97.0000       2.3470       0.0444   11430.0000      52.1397   11710.0000      14.0929      15.7050      12.2751      12.3186      12.2968   43140.5117       1.6667
 2642.4636 1040340.0000      12.9248    7490.0000     100.3824       0.5796       0.5823       0.5820       0.5814       0.5834       0.5744       0.5865       0.5931       0.5933       0.5908       0.5726       0.5675       0.5590       0.5556       0.5606       0.5897       0.5864       0.5841       0.5811       0.5767    7480.0000      97.0000       2.3400       0.0444   11430.0000      51.7389   11710.0000      15.0488      15.1517      12.3033      12.2116      12.2575   43140.5117       1.6666
 2642.6160 1040400.0000      12.8770    7540.0000     101.3339       0.5829       0.5855       0.5849       0.5894       0.6018       0.5796       0.5901       0.5952       0.5966       0.5981       0.5713       0.5646       0.5550       0.5483       0.5475       0.5897       0.5841       0.5803       0.5774       0.5739    7490.0000      97.0000       2.3545       0.0585   11410.0000      52.6505   11690.0000      15.4195      14.3961      12.3979      12.3640      12.3810   43147.4063       1.6668
 2642.7684 1040460.0000      13.1406    7510.0000     101.4607       0.5854       0.5904       0.5936       0.5992       0.6087       0.5842       0.5932       0.6010       0.6062       0.6087       0.5637       0.5572       0.5466       0.5408       0.5438       0.5872       0.5826       0.5792       0.5751       0.5695    7500.0000      97.0000       2.3575       0.0516   11390.0000      53.0024   11660.0000      14.2968      16.1041      12.3462      12.3440      12.3451   43174.9883       1.6677
 2642.9208 1040520.0000      13.2817    7500.0000      93.4365       0.5840       0.5879       0.5894       0.5897       0.5907       0.5843       0.5942       0.6031       0.6081       0.6093       0.5675       0.5634       0.5505       0.5417       0.5452       0.5917       0.5850       0.5830       0.5839       0.5833    7490.0000      97.0000       2.3803       0.0506   11370.0000      51.0820   11640.0000      14.8502      16.0704      12.3043      12.3666      12.3355   43154.3047       1.6668
 2643.0732 1040580.0000      13.5807    7520.0000      89.5037       0.5863       0.5862       0.5925       0.6000       0.6025       0.5989       0.6051       0.6087       0.6098       0.6102       0.5825       0.5787       0.5775       0.5765       0.5733       0.5990       0.5934       0.5916       0.5921       0.5913    7500.0000      97.0000       2.3628       0.0349   11350.0000      50.1791   11630.0000      16.0385      15.4621      12.2470      12.2505      12.2488   43168.0938       1.6673
 2643.2256 1040640.0000      13.8529    7530.0000      90.7406       0.6000       0.6001       0.5980       0.5938       0.5896       0.6052       0.6108       0.6157       0.6200       0.6237       0.5712       0.5673       0.5606       0.5552       0.5538       0.5988       0.5905       0.5863       0.5841       0.5802    7510.0000      97.0000       2.3463       0.0375   11330.0000      52.5306   11610.0000      13.8836      15.8292      12.2343      12.2566      12.2455   43174.9883       1.6674
 2643.3780 1040700.0000      12.7581    7480.0000      95.0858       0.5994       0.5976       0.5942       0.5904       0.5878       0.6094       0.6224       0.6303       0.6336       0.6355       0.5700       0.5640       0.5497       0.5343       0.5255       0.5973       0.5908       0.5848       0.5796       0.5750    7460.0000      97.0000       2.3455       0.0472   11260.0000      52.1811   11540.0000      15.4142      14.7916      12.2913      12.1734      12.2324   43174.9883       1.6673
 2643.5304 1040760.0000      11.8221    7470.0000      99.9701       0.5959       0.5940       0.5844       0.5777       0.5810       0.6154       0.6320       0.6401       0.6455       0.6537       0.5621       0.5508       0.5338       0.5214       0.5189       0.5997       0.5933       0.5909       0.5901       0.5873    7450.0000      97.0000       2.3840       0.0651   11230.0000      53.0415   11530.0000      15.7565      13.9669      12.3731      12.3791      12.3761   43174.9883       1.6673
 2643.6828 1040820.0000      11.3588    7440.0000     101.3656       0.6150       0.6284       0.6355       0.6516       0.6832       0.6385       0.6568       0.6658       0.6735       0.6860       0.5766       0.5747       0.5683       0.5619       0.5598       0.6207       0.6258       0.6287       0.6301       0.6321    7440.0000      97.0000       2.4413       0.0570   11200.0000      46.5955   11520.0000      13.8109      16.3453      12.4870      12.4663      12.4766   43181.8828       1.6674
 2643.8352 1040880.0000      11.0594    7400.0000      96.7033       0.6764       0.6894       0.6992       0.7115       0.7283       0.6566       0.6729       0.6813       0.6851       0.6896       0.6964       0.7067       0.7083       0.7110       0.7243       0.6939       0.7041       0.7106       0.7156       0.7223    7380.0000      97.0000       2.4582       0.0534   11140.0000      45.9772   11510.0000      14.4742      15.0931      12.5725      12.5133      12.5429   43181.8828       1.6673
 2643.9876 1040940.0000      10.2638    7390.0000      90.1380       0.7409       0.7165       0.7179       0.7243       0.7135       0.6848       0.6885       0.6915       0.6909       0.6873       0.9208       0.9034       0.9256       0.9505       0.9356       0.8145       0.7945       0.7998       0.8111       0.8042    7350.0000      97.0000       2.4289       0.0426   11100.0000      45.8962   11520.0000      16.0296      14.5416      12.4737      12.4095      12.4416   43188.7773       1.6675
 2644.1400 1041000.0000       9.2982    7290.0000      86.7444       0.7250       0.7060       0.7155       0.7346       0.7371       0.7267       0.7274       0.7316       0.7370       0.7401       0.5892       0.5641       0.5627       0.5688       0.5590       0.6819       0.6669       0.6704       0.6781       0.6722    7280.0000      97.0000       2.3753       0.0482   10980.0000      49.8854   11420.0000      15.2652      15.7529      12.3282      12.4281      12.3782   43195.6719       1.6677
