~VERSION INFORMATION
VERS.           2.0   :CWLS Log ASCII Standard - VERSION 2.0
WRAP.           NO    :One Line per depth step
PROD.  Company   :LAS Producer
PROG.  DLIS to ASCII 12C0-302                          :LAS Program name and version
CREA.        2006/12/30 10:30                          :LAS Creation date {YYYY/MM/DD hh:mm}
SOURCE.     KGIII6-B1_12in_DLIS_1430-3100m.dlis        :DLIS File Name
FILE-ID.     CDF_LWD003                                :File Identification Number
#--------------------------------------------------
~WELL INFORMATION
#MNEM.UNIT      DATA             DESCRIPTION
#---- ------ --------------   -----------------------------
STRT .M      1429.9692       :START DEPTH     
STOP .M      3099.9684       :STOP DEPTH     
STEP .M         0.1524       :STEP     
NULL .          -999.25      :NULL VALUE
COMP .        Company:COMPANY
WELL .        W2:WELL
FLD  .        Block                  :FIELD
LOC  .        Offshore                                 :LOCATION
CNTY .        Actinia                                  :COUNTY
STAT .        State                           :STATE
CTRY .                                                 :COUNTRY
API  .        06INM0159                                :API NUMBER
UWI  .                                                 :UNIQUE WELL ID
DATE .        25-Dec-2006                              :LOG DATE {DD-MMM-YYYY}
SRVC .        Company                             :SERVICE COMPANY
LATI .DEG     N 16.2763                                :LATITUDE
LONG .DEG     E 82.0962                                :LONGITUDE
GDAT .                                                 :GeoDetic Datum
SECT .        12.25 in.                                :Section
#-----------------------------------------------------------------------------
~PARAMETER INFORMATION
#MNEM.UNIT    VALUE                      DESCRIPTION
#---- -----   --------------------       ------------------------
RUN  .                                   :RUN NUMBER
PDAT .        Lowest Astronomical Tide   :Permanent Datum
EPD  .M           0.000000               :Elevation of Permanent Datum above Mean Sea Level
EPD  .M           0.000000               :Elevation of tool zero above Mean Sea Level
LMF  .          Drill Floor              :Logging Measured From (Name of Logging Elevation Reference)
APD  .                                   :Elevation of Depth Reference (LMF) above Permanent Datum
TN1 .        PowerPulse                  :Tool Number 1
TN2 .        ARC,SADN                    :Tool Number 2
OS3  .          N/A                      :Other Services Line 3
OS2  .          InterACT                 :Other Services Line 2
OS1  .          Directional Surveys      :Other Services Line 1
MST  .DEGC      66.00000                 :Mud Sample Temperature
BHT  .DEGC     99.00000                  :Bottom Hole Temperature
RMS.OHMM      1000.00000                 :Resistivity of Mud Sample (RM)
MST.DEGC        66.00000                 :Mud Sample temperature (RM)
MW.LB/G         13.60000                 :Mud Weight (RM)
SHT.DEGC        25.00000                 :Surface Hole Temperature (RM)
BSAL .PPM     64350.00000                :Mud Salinity
MRT  .DEGC     99.00000                  :Maximum Recorded Temperature
RMB  .OHMM    1000.00000                 :Resistivity of Mud - BHT
MCST .DEGC      66.00000                 :Mud Cake Sample Temperature
RMCS .OHMM    1000.00000                 :Resistivity of Mud Cake Sample
MFST .DEGC      66.00000                 :Mud Filtrate Sample Temperature
RMFS .OHMM    1000.00000                 :Resistivity of Mud Filtrate Sample
RMS  .OHMM    1000.00000                 :Resistivity of Mud Sample
MSS  .        Shakers                    :Mud Sample Source
MFSS  .       Shakers                    :Mud Filtrate Sample Source
MCSS  .       Shakers                    :Mud Cake Sample Source
TCS  .         03 00                     :End Log Time
DCS  .         22-Dec-2006               :End Log Date
DFT  .        SOBM                       :Drilling Fluid Type
DFPH .           N/A                     :Drilling Fluid PH
DFV  .S       79.00000                   :Drilling Fluid Viscosity
DFD  .LB/G    13.600000                  :Drilling Fluid Density
DOWR .        75/25                      :Oil/Water Ratio
DFTS .        25.57                      :Drilling Fluid Total Solids
DHGS .        242.31                     :Drilling Fluid High Gravity Solids
TLAB .        18 00                      :Begin Log Time
DLAB .        15-Dec-2006                :Begin Log Date
RUN  .        2                          :Run Number
BLI  .M       3100.00000                 :Bottom Log Interval
TLI  .M        1430.00000                :Top Log Interval
WITN .        Peter/Ismad                 :Witness's Name
ENGI .        Hatim/Harsh/Sidy           :Engineer's Name
LUL  .        Zone 2                     :Logging Unit Location
LUN  .        OLU-KC-0103                :Logging Unit Number
RR5  .        No  Potassium in mud       :Remark Line 5
RR4  .        SADN Neutron Porosity is corrected for bit size, mud Hydrogen Index, temperature, pressure and mud salinity :Remark Line 4
RR3  .        SADN Density is corrected for Stand off by Spine and Ribs Plot :Remark Line 3
RR2  .        ARC8 Resistivity is environmentally corrected for mud resistivity and bit size. :Remark Line 2
RR1  .        GR is corrected for bit size, tool size and mud weight               :Remark Line 1
PDAT .        Lowest Astronomical Tide   :Permanent Datum
EPD  .M          0.00000                 :Elevation of Permanent Datum
DMF  .        Driller's Depth            :Drilling Measured From
LMF  .        Rotary table               :Log Measured From
APD  .M         25.60000                 :Above Permanent Datum
EDF  .M         25.60000                 :Elevation of Derrick Floor
EGL  .M       -80.360000                 :Elevation of Ground Level
EKB  .M         25.60000                 :Elevation of Kelly Bushing
TDL  .M       3100.00000                 :Total Depth - Logger
TDD  .M       3100.00000                 :Total Depth - Driller
MHD  .DEG       1.54000                  :Maximum Hole Deviation
AMD  .DEG     97.370000                  :Azimuth of Maximum Hole Deviation
BS   .IN        12.25000                 :Bit Size
BSDT .M       3100.00000                 :Bit Size Depth To
BSDF .M       1444.00000                 :Bit Size Depth From
CWEI .LB/M     236.16000                 :Casing Weight
CSIZ .IN        13.37500                 :Current Casing Size
CASG .         P-110                     :Casing Grade
CADT .        1433.6300                  :Casing Depth To
CDF  .        105.86000                  :Casing Depth From
CBLO .M       1433.6300                  :Casing Bottom Logger
CBDR .M       1433.6300                  :Casing Bottom Driller
#-----------------------------------------------------------------------------
~CURVE INFORMATION
#MNEM.UNIT   API CODE                                  DESCRIPTION
#---- -----  --------                                  -----------------------
DEPT .M                                                :DEPTH (BOREHOLE) {F10.4}
TDEP ..1IN                                             :0.1-ft Frame Depth {F13.4}
ROP5_RM.M/HR                                           :Rate of Penetration, Averaged over Last 5ft {F13.4}
AGTM .S                                                :ARC Gamma Ray Time After Bit {F13.4}
GR_ARC.GAPI                                            :ARC Gamma Ray {F13.4}
A16H .OHMM                                             :ARC Attenuation Resistivity 16-in. at 2 MHz {F13.4}
A22H .OHMM                                             :ARC Attenuation Resistivity 22-in. at 2 MHz {F13.4}
A28H .OHMM                                             :ARC Attenuation Resistivity 28-in. at 2 MHz {F13.4}
A34H .OHMM                                             :ARC Attenuation Resistivity 34-in. at 2 MHz {F13.4}
A40H .OHMM                                             :ARC Attenuation Resistivity 40-in. at 2 MHz {F13.4}
A16L .OHMM                                             :ARC Attenuation Resistivity 16-in. at 400 KHz {F13.4}
A22L .OHMM                                             :ARC Attenuation Resistivity 22-in. at 400 KHz {F13.4}
A28L .OHMM                                             :ARC Attenuation Resistivity 28-in. at 400 KHz {F13.4}
A34L .OHMM                                             :ARC Attenuation Resistivity 34-in. at 400 KHz {F13.4}
A40L .OHMM                                             :ARC Attenuation Resistivity 40-in. at 400 KHz {F13.4}
P16H .OHMM                                             :ARC Phase-Shift Resistivity 16-in. at 2 MHz {F13.4}
P22H .OHMM                                             :ARC Phase-Shift Resistivity 22-in. at 2 MHz {F13.4}
P28H .OHMM                                             :ARC Phase-Shift Resistivity 28-in. at 2 MHz {F13.4}
P34H .OHMM                                             :ARC Phase-Shift Resistivity 34-in. at 2 MHz {F13.4}
P40H .OHMM                                             :ARC Phase-Shift Resistivity 40-in. at 2 MHz {F13.4}
P16L .OHMM                                             :ARC Phase-Shift Resistivity 16-in. at 400 KHz {F13.4}
P22L .OHMM                                             :ARC Phase-Shift Resistivity 22-in. at 400 KHz {F13.4}
P28L .OHMM                                             :ARC Phase-Shift Resistivity 28-in. at 400 KHz {F13.4}
P34L .OHMM                                             :ARC Phase-Shift Resistivity 34-in. at 400 KHz {F13.4}
P40L .OHMM                                             :ARC Phase-Shift Resistivity 40-in. at 400 KHz {F13.4}
TAB_ARC_RES.S                                          :ARC Resistivity Time After Bit {F13.4}
ATMP .DEGC                                             :ARC Annular Temperature {F13.4}
RHOB .G/C3                                             :Bulk Density {F13.4}
DRHO .G/C3                                             :Bulk Density Correction {F13.4}
TAB_DEN.S                                              :Density Time After Bit {F13.4}
TNPH .PU                                               :Thermal Neutron Porosity (Ratio Method) in Selected Lithology {F13.4}
TAB_NEU.S                                              :Neutron Time After Bit {F13.4}
HORD .IN                                               :Horizontal Hole Diameter {F13.4}
VERD .IN                                               :Vertical Hole Diameter {F13.4}
DCHO .IN                                               :Density Caliper, Horizontal {F13.4}
DCVE .IN                                               :Density Caliper, Vertical {F13.4}
DCAV .IN                                               :Density Caliper, Average {F13.4}
APRS_ARC.KPA                                           :ARC Annular Pressure {F13.4}
ECD_ARC.G/C3                                           :Equivalent Circulating Density {F13.4}
#-----------------------------------------------------------------------------
# 
#     DEPT        TDEP       ROP5_RM        AGTM        GR_ARC        A16H         A22H         A28H         A34H         A40H         A16L         A22L         A28L         A34L         A40L         P16H         P22H         P28H         P34H         P40H         P16L         P22L         P28L         P34L         P40L     TAB_ARC_RES      ATMP         RHOB         DRHO       TAB_DEN        TNPH       TAB_NEU        HORD         VERD         DCHO         DCVE         DCAV       APRS_ARC     ECD_ARC
#
~A  
# ...
 1871.3196  736740.0000      35.5538    2360.0000      96.7983       0.4239       0.4313       0.4401       0.4443       0.4425       0.4320       0.4389       0.4456       0.4481       0.4462       0.3683       0.3665       0.3686       0.3766       0.3866       0.3944       0.3961       0.3993       0.3991       0.3940    2360.0000      77.0000       2.1856       0.0246    5520.0000      50.0124    5750.0000      16.0172      15.7139      12.2611      12.2563      12.2587   30440.3652       1.6611
 1871.4720  736800.0000      35.9306    2370.0000      95.9420       0.4139       0.4233       0.4320       0.4371       0.4392       0.4303       0.4383       0.4434       0.4441       0.4427       0.3595       0.3597       0.3609       0.3673       0.3780       0.3898       0.3910       0.3938       0.3956       0.3947    2360.0000      77.0000       2.1829       0.0173    5530.0000      55.5515    5760.0000      15.7121      15.7955      12.1797      12.2010      12.1904   30433.4707       1.6606
 1871.6244  736860.0000      34.7378    2360.0000      96.4812       0.4180       0.4299       0.4386       0.4406       0.4387       0.4301       0.4411       0.4463       0.4471       0.4479       0.3748       0.3782       0.3818       0.3887       0.3992       0.3983       0.4032       0.4069       0.4079       0.4073    2350.0000      77.0000       2.1765       0.0093    5510.0000      57.1547    5750.0000      15.7121      15.7955      12.2219      12.1586      12.1902   30447.2598       1.6612
 1871.7768  736920.0000      34.3873    2360.0000     100.3823       0.4366       0.4476       0.4562       0.4601       0.4614       0.4419       0.4525       0.4572       0.4578       0.4589       0.4042       0.4090       0.4126       0.4200       0.4329       0.4237       0.4286       0.4317       0.4342       0.4381    2360.0000      77.0000       2.1822       0.0060    5510.0000      60.1972    5760.0000      16.0615      15.6908      12.1749      12.1370      12.1560   30447.2598       1.6611
 1871.9292  736980.0000      33.7047    2360.0000     103.3636       0.4470       0.4609       0.4708       0.4724       0.4694       0.4504       0.4617       0.4667       0.4664       0.4656       0.4191       0.4182       0.4179       0.4240       0.4366       0.4387       0.4410       0.4437       0.4460       0.4476    2350.0000      77.0000       2.1788       0.0091    5510.0000      58.1965    5750.0000      15.5951      15.8239      12.1610      12.1312      12.1461   30447.2598       1.6609
 1872.0816  737040.0000      32.9906    2360.0000     103.4587       0.4737       0.4778       0.4844       0.4911       0.4953       0.4706       0.4743       0.4754       0.4736       0.4710       0.4399       0.4412       0.4429       0.4508       0.4651       0.4650       0.4645       0.4661       0.4677       0.4672    2360.0000      77.0000       2.1959       0.0149    5520.0000      57.9017    5760.0000      15.1020      15.6962      12.1875      12.1787      12.1831   30447.2598       1.6608
 1872.2340  737100.0000      32.2551    2360.0000     101.3338       0.4832       0.4868       0.4908       0.4957       0.5009       0.4722       0.4783       0.4831       0.4829       0.4785       0.4537       0.4549       0.4570       0.4622       0.4697       0.4740       0.4743       0.4755       0.4766       0.4767    2350.0000      77.0000       2.1881       0.0139    5520.0000      60.8229    5760.0000      15.5294      15.6004      12.2450      12.1381      12.1915   30454.1543       1.6610
 1872.3864  737160.0000      31.5956    2340.0000      99.2088       0.4956       0.4977       0.5044       0.5144       0.5226       0.4873       0.4868       0.4876       0.4876       0.4858       0.4736       0.4707       0.4711       0.4778       0.4876       0.4908       0.4869       0.4861       0.4852       0.4812    2340.0000      77.0000       2.1893       0.0135    5510.0000      61.7500    5750.0000      15.5294      15.6004      12.3023      12.1823      12.2423   30454.1543       1.6609
 1872.5388  737220.0000      30.9268    2350.0000      96.5763       0.4945       0.4994       0.5082       0.5142       0.5141       0.4872       0.4915       0.4933       0.4892       0.4818       0.4698       0.4702       0.4710       0.4767       0.4870       0.4895       0.4874       0.4882       0.4864       0.4795    2340.0000      77.0000       2.1748       0.0049    5520.0000      62.3351    5750.0000      15.8735      15.4940      12.1941      12.1793      12.1867   30454.1543       1.6608
 1872.6912  737280.0000      30.1357    2340.0000      94.1659       0.4943       0.4983       0.5062       0.5101       0.5063       0.4890       0.4929       0.4957       0.4930       0.4860       0.4622       0.4606       0.4621       0.4673       0.4732       0.4854       0.4835       0.4856       0.4858       0.4799    2340.0000      77.0000       2.1662       0.0066    5520.0000      59.9987    5750.0000      15.9817      15.5312      12.2132      12.1349      12.1740   30461.0488       1.6610
 1872.8436  737340.0000      29.8999    2340.0000      94.7050       0.4911       0.4944       0.5011       0.5085       0.5123       0.4900       0.4942       0.4970       0.4952       0.4901       0.4538       0.4528       0.4544       0.4620       0.4731       0.4817       0.4778       0.4769       0.4764       0.4732    2330.0000      77.0000       2.1637       0.0110    5510.0000      53.7908    5750.0000      15.9817      15.5312      12.2927      12.1354      12.2140   30461.0488       1.6609
 1872.9960  737400.0000      29.9526    2350.0000      95.9737       0.4936       0.4973       0.5024       0.5053       0.5047       0.4877       0.4943       0.4976       0.4939       0.4861       0.4637       0.4637       0.4661       0.4751       0.4885       0.4840       0.4840       0.4843       0.4818       0.4764    2340.0000      77.0000       2.1681       0.0179    5530.0000      56.4151    5760.0000      15.9551      15.6944      12.2323      12.2023      12.2173   30467.9453       1.6611
 1873.1484  737460.0000      30.5110    2340.0000      98.8281       0.4915       0.4974       0.5036       0.5054       0.5029       0.4882       0.4930       0.4955       0.4940       0.4905       0.4654       0.4659       0.4665       0.4733       0.4868       0.4830       0.4830       0.4843       0.4858       0.4861    2330.0000      77.0000       2.1802       0.0235    5520.0000      53.7231    5750.0000      15.9941      15.8114      12.2579      12.2725      12.2652   30474.8398       1.6614
 1873.3008  737520.0000      30.3672    2350.0000      99.0184       0.4953       0.5036       0.5107       0.5153       0.5187       0.4863       0.4929       0.4965       0.4958       0.4934       0.4700       0.4685       0.4685       0.4742       0.4845       0.4839       0.4861       0.4876       0.4860       0.4821    2350.0000      77.0000       2.1863       0.0255    5520.0000      57.5577    5750.0000      15.9445      15.5827      12.3149      12.3005      12.3077   30481.7344       1.6616
 1873.4532  737580.0000      28.4408    2330.0000      99.8748       0.4984       0.5033       0.5058       0.5077       0.5113       0.4890       0.4942       0.4956       0.4915       0.4854       0.4798       0.4812       0.4812       0.4852       0.4949       0.4928       0.4917       0.4918       0.4911       0.4882    2330.0000      77.0000       2.1821       0.0155    5500.0000      50.9213    5720.0000      15.9480      15.7228      12.2917      12.1771      12.2344   30474.8398       1.6611
 1873.6056  737640.0000      27.0960    2320.0000      98.7013       0.4976       0.4993       0.5058       0.5131       0.5168       0.4864       0.4918       0.4963       0.4966       0.4931       0.4764       0.4751       0.4753       0.4818       0.4936       0.4908       0.4871       0.4876       0.4876       0.4831    2320.0000      77.0000       2.1836       0.0072    5500.0000      50.8787    5720.0000      15.7139      16.0934      12.2020      12.1679      12.1849   30474.8398       1.6609
