~VERSION INFORMATION
VERS.           2.0   :CWLS Log ASCII Standard - VERSION 2.0
WRAP.           NO    :One Line per depth step
PROD.  Company   :LAS Producer
PROG.  DLIS to ASCII 12C0-302                          :LAS Program name and version
CREA.        2006/12/30 10:30                          :LAS Creation date {YYYY/MM/DD hh:mm}
SOURCE.     KGIII6-B1_12in_DLIS_1430-3100m.dlis        :DLIS File Name
FILE-ID.     CDF_LWD003                                :File Identification Number
#--------------------------------------------------
~WELL INFORMATION
#MNEM.UNIT      DATA             DESCRIPTION
#---- ------ --------------   -----------------------------
STRT .M      1429.9692       :START DEPTH     
STOP .M      3099.9684       :STOP DEPTH     
STEP .M         0.1524       :STEP     
NULL .          -999.25      :NULL VALUE
COMP .        Company:COMPANY
WELL .        W2:WELL
FLD  .        Block                  :FIELD
LOC  .        Offshore                                 :LOCATION
CNTY .        Actinia                                  :COUNTY
STAT .        State                           :STATE
CTRY .                                                 :COUNTRY
API  .        06INM0159                                :API NUMBER
UWI  .                                                 :UNIQUE WELL ID
DATE .        25-Dec-2006                              :LOG DATE {DD-MMM-YYYY}
SRVC .        Company                             :SERVICE COMPANY
LATI .DEG     N 16.2763                                :LATITUDE
LONG .DEG     E 82.0962                                :LONGITUDE
GDAT .                                                 :GeoDetic Datum
SECT .        12.25 in.                                :Section
#-----------------------------------------------------------------------------
~PARAMETER INFORMATION
#MNEM.UNIT    VALUE                      DESCRIPTION
#---- -----   --------------------       ------------------------
RUN  .                                   :RUN NUMBER
PDAT .        Lowest Astronomical Tide   :Permanent Datum
EPD  .M           0.000000               :Elevation of Permanent Datum above Mean Sea Level
EPD  .M           0.000000               :Elevation of tool zero above Mean Sea Level
LMF  .          Drill Floor              :Logging Measured From (Name of Logging Elevation Reference)
APD  .                                   :Elevation of Depth Reference (LMF) above Permanent Datum
TN1 .        PowerPulse                  :Tool Number 1
TN2 .        ARC,SADN                    :Tool Number 2
OS3  .          N/A                      :Other Services Line 3
OS2  .          InterACT                 :Other Services Line 2
OS1  .          Directional Surveys      :Other Services Line 1
MST  .DEGC      66.00000                 :Mud Sample Temperature
BHT  .DEGC     99.00000                  :Bottom Hole Temperature
RMS.OHMM      1000.00000                 :Resistivity of Mud Sample (RM)
MST.DEGC        66.00000                 :Mud Sample temperature (RM)
MW.LB/G         13.60000                 :Mud Weight (RM)
SHT.DEGC        25.00000                 :Surface Hole Temperature (RM)
BSAL .PPM     64350.00000                :Mud Salinity
MRT  .DEGC     99.00000                  :Maximum Recorded Temperature
RMB  .OHMM    1000.00000                 :Resistivity of Mud - BHT
MCST .DEGC      66.00000                 :Mud Cake Sample Temperature
RMCS .OHMM    1000.00000                 :Resistivity of Mud Cake Sample
MFST .DEGC      66.00000                 :Mud Filtrate Sample Temperature
RMFS .OHMM    1000.00000                 :Resistivity of Mud Filtrate Sample
RMS  .OHMM    1000.00000                 :Resistivity of Mud Sample
MSS  .        Shakers                    :Mud Sample Source
MFSS  .       Shakers                    :Mud Filtrate Sample Source
MCSS  .       Shakers                    :Mud Cake Sample Source
TCS  .         03 00                     :End Log Time
DCS  .         22-Dec-2006               :End Log Date
DFT  .        SOBM                       :Drilling Fluid Type
DFPH .           N/A                     :Drilling Fluid PH
DFV  .S       79.00000                   :Drilling Fluid Viscosity
DFD  .LB/G    13.600000                  :Drilling Fluid Density
DOWR .        75/25                      :Oil/Water Ratio
DFTS .        25.57                      :Drilling Fluid Total Solids
DHGS .        242.31                     :Drilling Fluid High Gravity Solids
TLAB .        18 00                      :Begin Log Time
DLAB .        15-Dec-2006                :Begin Log Date
RUN  .        2                          :Run Number
BLI  .M       3100.00000                 :Bottom Log Interval
TLI  .M        1430.00000                :Top Log Interval
WITN .        Peter/Ismad                 :Witness's Name
ENGI .        Hatim/Harsh/Sidy           :Engineer's Name
LUL  .        Zone 2                     :Logging Unit Location
LUN  .        OLU-KC-0103                :Logging Unit Number
RR5  .        No  Potassium in mud       :Remark Line 5
RR4  .        SADN Neutron Porosity is corrected for bit size, mud Hydrogen Index, temperature, pressure and mud salinity :Remark Line 4
RR3  .        SADN Density is corrected for Stand off by Spine and Ribs Plot :Remark Line 3
RR2  .        ARC8 Resistivity is environmentally corrected for mud resistivity and bit size. :Remark Line 2
RR1  .        GR is corrected for bit size, tool size and mud weight               :Remark Line 1
PDAT .        Lowest Astronomical Tide   :Permanent Datum
EPD  .M          0.00000                 :Elevation of Permanent Datum
DMF  .        Driller's Depth            :Drilling Measured From
LMF  .        Rotary table               :Log Measured From
APD  .M         25.60000                 :Above Permanent Datum
EDF  .M         25.60000                 :Elevation of Derrick Floor
EGL  .M       -80.360000                 :Elevation of Ground Level
EKB  .M         25.60000                 :Elevation of Kelly Bushing
TDL  .M       3100.00000                 :Total Depth - Logger
TDD  .M       3100.00000                 :Total Depth - Driller
MHD  .DEG       1.54000                  :Maximum Hole Deviation
AMD  .DEG     97.370000                  :Azimuth of Maximum Hole Deviation
BS   .IN        12.25000                 :Bit Size
BSDT .M       3100.00000                 :Bit Size Depth To
BSDF .M       1444.00000                 :Bit Size Depth From
CWEI .LB/M     236.16000                 :Casing Weight
CSIZ .IN        13.37500                 :Current Casing Size
CASG .         P-110                     :Casing Grade
CADT .        1433.6300                  :Casing Depth To
CDF  .        105.86000                  :Casing Depth From
CBLO .M       1433.6300                  :Casing Bottom Logger
CBDR .M       1433.6300                  :Casing Bottom Driller
#-----------------------------------------------------------------------------
~CURVE INFORMATION
#MNEM.UNIT   API CODE                                  DESCRIPTION
#---- -----  --------                                  -----------------------
DEPT .M                                                :DEPTH (BOREHOLE) {F10.4}
TDEP ..1IN                                             :0.1-ft Frame Depth {F13.4}
ROP5_RM.M/HR                                           :Rate of Penetration, Averaged over Last 5ft {F13.4}
AGTM .S                                                :ARC Gamma Ray Time After Bit {F13.4}
GR_ARC.GAPI                                            :ARC Gamma Ray {F13.4}
A16H .OHMM                                             :ARC Attenuation Resistivity 16-in. at 2 MHz {F13.4}
A22H .OHMM                                             :ARC Attenuation Resistivity 22-in. at 2 MHz {F13.4}
A28H .OHMM                                             :ARC Attenuation Resistivity 28-in. at 2 MHz {F13.4}
A34H .OHMM                                             :ARC Attenuation Resistivity 34-in. at 2 MHz {F13.4}
A40H .OHMM                                             :ARC Attenuation Resistivity 40-in. at 2 MHz {F13.4}
A16L .OHMM                                             :ARC Attenuation Resistivity 16-in. at 400 KHz {F13.4}
A22L .OHMM                                             :ARC Attenuation Resistivity 22-in. at 400 KHz {F13.4}
A28L .OHMM                                             :ARC Attenuation Resistivity 28-in. at 400 KHz {F13.4}
A34L .OHMM                                             :ARC Attenuation Resistivity 34-in. at 400 KHz {F13.4}
A40L .OHMM                                             :ARC Attenuation Resistivity 40-in. at 400 KHz {F13.4}
P16H .OHMM                                             :ARC Phase-Shift Resistivity 16-in. at 2 MHz {F13.4}
P22H .OHMM                                             :ARC Phase-Shift Resistivity 22-in. at 2 MHz {F13.4}
P28H .OHMM                                             :ARC Phase-Shift Resistivity 28-in. at 2 MHz {F13.4}
P34H .OHMM                                             :ARC Phase-Shift Resistivity 34-in. at 2 MHz {F13.4}
P40H .OHMM                                             :ARC Phase-Shift Resistivity 40-in. at 2 MHz {F13.4}
P16L .OHMM                                             :ARC Phase-Shift Resistivity 16-in. at 400 KHz {F13.4}
P22L .OHMM                                             :ARC Phase-Shift Resistivity 22-in. at 400 KHz {F13.4}
P28L .OHMM                                             :ARC Phase-Shift Resistivity 28-in. at 400 KHz {F13.4}
P34L .OHMM                                             :ARC Phase-Shift Resistivity 34-in. at 400 KHz {F13.4}
P40L .OHMM                                             :ARC Phase-Shift Resistivity 40-in. at 400 KHz {F13.4}
TAB_ARC_RES.S                                          :ARC Resistivity Time After Bit {F13.4}
ATMP .DEGC                                             :ARC Annular Temperature {F13.4}
RHOB .G/C3                                             :Bulk Density {F13.4}
DRHO .G/C3                                             :Bulk Density Correction {F13.4}
TAB_DEN.S                                              :Density Time After Bit {F13.4}
TNPH .PU                                               :Thermal Neutron Porosity (Ratio Method) in Selected Lithology {F13.4}
TAB_NEU.S                                              :Neutron Time After Bit {F13.4}
HORD .IN                                               :Horizontal Hole Diameter {F13.4}
VERD .IN                                               :Vertical Hole Diameter {F13.4}
DCHO .IN                                               :Density Caliper, Horizontal {F13.4}
DCVE .IN                                               :Density Caliper, Vertical {F13.4}
DCAV .IN                                               :Density Caliper, Average {F13.4}
APRS_ARC.KPA                                           :ARC Annular Pressure {F13.4}
ECD_ARC.G/C3                                           :Equivalent Circulating Density {F13.4}
#-----------------------------------------------------------------------------
# 
#     DEPT        TDEP       ROP5_RM        AGTM        GR_ARC        A16H         A22H         A28H         A34H         A40H         A16L         A22L         A28L         A34L         A40L         P16H         P22H         P28H         P34H         P40H         P16L         P22L         P28L         P34L         P40L     TAB_ARC_RES      ATMP         RHOB         DRHO       TAB_DEN        TNPH       TAB_NEU        HORD         VERD         DCHO         DCVE         DCAV       APRS_ARC     ECD_ARC
#
~A  
# ...
 2532.1260  996900.0000      10.9108    3860.0000      88.5204       1.1780       1.1203       1.0960       1.1144       1.1497       1.1504       1.2010       1.2156       1.2330       1.2727       1.1644       1.1690       1.1892       1.2109       1.2176       1.1708       1.1853       1.1953       1.2054       1.2194    3850.0000      94.0000       2.3505       0.0366    7170.0000      37.3629    8340.0000      15.2226      15.7050      12.3289      12.4050      12.3669   41451.2969       1.6712
 2532.2784  996960.0000      10.7550    3820.0000      88.6155       1.2483       1.2341       1.2369       1.2770       1.3400       1.2098       1.2425       1.2491       1.2699       1.3177       1.2174       1.1917       1.1926       1.1758       1.1178       1.2419       1.2366       1.2394       1.2418       1.2363    3820.0000      94.0000       2.3592       0.0443    7140.0000      40.3517    8290.0000      15.2492      14.9921      12.3875      12.4080      12.3978   41451.2969       1.6711
 2532.4308  997020.0000      10.8196    3800.0000      86.1099       1.3203       1.3075       1.3018       1.3791       1.5502       1.2439       1.2738       1.2793       1.3047       1.3614       1.2193       1.1817       1.1741       1.1444       1.0688       1.2789       1.2622       1.2617       1.2555       1.2301    3800.0000      94.0000       2.3647       0.0486    7140.0000      44.1684    8300.0000      15.5631      15.0364      12.4374      12.4273      12.4324   41451.2969       1.6710
 2532.5832  997080.0000      10.6743    3780.0000      85.6976       1.3344       1.3168       1.3314       1.3842       1.4458       1.2906       1.2915       1.2889       1.3009       1.3271       1.1970       1.1860       1.2024       1.2123       1.1875       1.3063       1.2891       1.3027       1.3181       1.3066    3780.0000      94.0000       2.3629       0.0516    7160.0000      41.5048    8260.0000      14.7739      15.8717      12.4757      12.3132      12.3945   41458.1914       1.6712
 2532.7356  997140.0000      10.3110    3760.0000      85.9196       1.3153       1.3363       1.3713       1.3881       1.3723       1.3066       1.3119       1.3174       1.3252       1.3334       1.0910       1.1224       1.1488       1.1627       1.1701       1.2566       1.2644       1.2887       1.3099       1.3109    3750.0000      94.0000       2.3634       0.0541    7130.0000      39.3466    8230.0000      14.7367      15.0719      12.5341      12.3372      12.4356   41471.9805       1.6716
 2532.8880  997200.0000      10.9281    3720.0000      87.6958       1.2284       1.2926       1.3417       1.3372       1.2938       1.3117       1.3174       1.3190       1.3179       1.3166       1.1381       1.1633       1.1889       1.2136       1.2381       1.2789       1.2874       1.3080       1.3167       1.3014    3720.0000      94.0000       2.3696       0.0540    7100.0000      37.4937    8200.0000      15.7316      15.0967      12.5602      12.3050      12.4326   41478.8750       1.6718
 2533.0404  997260.0000      11.0550    3700.0000      88.7424       1.2130       1.2636       1.3159       1.3358       1.3193       1.3209       1.3213       1.3283       1.3303       1.3226       1.1688       1.1925       1.2141       1.2381       1.2682       1.2829       1.2938       1.3143       1.3169       1.2923    3690.0000      94.0000       2.3850       0.0583    7090.0000      36.2687    8190.0000      15.3681      15.0736      12.9563      12.5764      12.7663   41485.7695       1.6720
 2533.1928  997320.0000      11.1779    3680.0000      89.3767       1.1414       1.2168       1.2498       1.2513       1.2587       1.3013       1.3125       1.3041       1.3003       1.3131       1.1574       1.1647       1.1845       1.2180       1.2531       1.2542       1.2771       1.2989       1.3073       1.3024    3670.0000      94.0000       2.3960       0.0655    7060.0000      37.1564    8160.0000      15.2634      16.0881      12.6349      12.5872      12.6110   41471.9805       1.6713
 2533.3452  997380.0000      11.6728    3660.0000      87.6006       1.1856       1.2577       1.2837       1.2808       1.2897       1.2849       1.3258       1.3281       1.3189       1.3236       1.1728       1.1739       1.1885       1.2119       1.2302       1.2616       1.2852       1.3036       1.3079       1.3022    3650.0000      94.0000       2.3608       0.0511    7030.0000      38.7644    8130.0000      15.0985      14.3216      12.4027      12.4473      12.4250   41485.7695       1.6718
 2533.4976  997440.0000      11.7321    3650.0000      86.4588       1.2458       1.2948       1.2998       1.3104       1.3652       1.2962       1.3310       1.3365       1.3362       1.3479       1.1703       1.1669       1.1854       1.2280       1.2736       1.2570       1.2764       1.2923       1.3039       1.3138    3640.0000      94.0000       2.3239       0.0321    7890.0000      38.3291    8120.0000      15.0506      15.6164      12.2592      12.2662      12.2627   41485.7695       1.6717
 2533.6500  997500.0000      12.0580    2170.0000      86.2685       1.2672       1.3079       1.3420       1.3832       1.4353       1.2893       1.3190       1.3287       1.3403       1.3638       1.1327       1.1497       1.1807       1.2206       1.2556       1.2317       1.2647       1.2924       1.3135       1.3319    2160.0000      94.0000       2.3107       0.0277    6390.0000      37.1760    6640.0000      15.4266      14.8910      12.2329      12.2449      12.2389   41492.6641       1.6718
 2533.8024  997560.0000      11.6816    2180.0000      90.8040       1.3073       1.3142       1.3319       1.3727       1.4254       1.2629       1.3022       1.3107       1.3140       1.3305       1.1871       1.2178       1.2819       1.3528       1.3931       1.2688       1.2953       1.3312       1.3613       1.3746    2170.0000      94.0000       2.3302       0.0323    6420.0000      35.5935    6670.0000      15.2936      14.2241      12.3559      12.2990      12.3274   41499.5586       1.6720
 2533.9548  997620.0000      10.9128    2190.0000      89.5353       1.2989       1.3289       1.3517       1.3512       1.3334       1.2745       1.2934       1.2910       1.2917       1.3083       1.3302       1.3617       1.4725       1.6163       1.7028       1.3580       1.3647       1.4077       1.4528       1.4614    2180.0000      94.0000       2.3542       0.0393    6410.0000      36.6385    6950.0000      15.3485      15.6784      12.3743      12.3343      12.3543   41499.5586       1.6719
 2534.1072  997680.0000      11.3059    2190.0000      88.9961       1.2645       1.2795       1.3169       1.3256       1.2852       1.2684       1.2773       1.2851       1.2922       1.2976       1.3363       1.3587       1.4399       1.5479       1.6174       1.3325       1.3386       1.3715       1.3970       1.3878    2180.0000      94.0000       2.3477       0.0358    6390.0000      37.6513    7040.0000      15.3485      15.6784      12.3402      12.3681      12.3541   41492.6641       1.6715
 2534.2596  997740.0000      12.8560    2210.0000      83.9215       1.1401       1.2028       1.2635       1.2799       1.2518       1.1972       1.2312       1.2532       1.2647       1.2708       0.8221       0.8600       0.9048       0.9597       1.0221       1.0247       1.0589       1.0968       1.1222       1.1298    2210.0000      94.0000       2.3477       0.0372    6380.0000      39.5713    7120.0000      15.3485      15.6784      12.3536      12.3673      12.3605   41492.6641       1.6714
 2534.4120  997800.0000      13.7017    2220.0000      86.9663       1.1173       1.1676       1.2164       1.2476       1.2593       1.2016       1.2308       1.2484       1.2537       1.2525       0.7631       0.8522       0.9216       0.9668       1.0228       0.9582       1.0276       1.0824       1.1115       1.1289    2220.0000      94.0000       2.3441       0.0373    6410.0000      38.5714    7120.0000      15.3485      15.6784      12.2706      12.2463      12.2585   41513.3516       1.6722
