~Version Information
VERS.             2.0 : CWLS log ASCII standard - Version 2.0
WRAP.             NO  : One line per depth step
#
~Well Information Block
#MNEM.UNIT                   Data Type:Information
#__________________________________________________________
  STRT.           09-DEC-2006 16:00:00 : START INDEX                   
  STOP.           12-DEC-2006 10:00:00 : STOP INDEX                    
  STEP.SEC           10.0000 : STEP                          
  NULL.              -999.25 : NULL VALUE                    
  COMP.              Company : COMPANY                       
  WELL.            W2        : WELL                          
   FLD.        Block : FIELD                         
   LOC.             Offshore : LOCATION                      
  PROV.                      : PROVINCE                      
  CNTY.                      : COUNTY                        
  STAT.                State : STATE                         
  CTRY.                India : COUNTRY                       
  SRVC.                      : SERVICE COMPANY               
  DATE.           09-DEC-2006 10:32:50 : LOG DATE                      
   UWI.                      : UNIQUE WELL ID                
   API.                      : API NUMBER                    
#
~Curve Information Block
#MNEM.UNIT                     : Curve Description
#---------                     --------------------
TIME	    .HHMMSS	       : 
DATE	    .D		       : 
RM_DEPTH    .M                 : LWDRM 1HZ River Depth                                           
APRS_ARC    .PSI               : ARC Annular Pressure                                            
ECD_ARC     .PPG               : Equivalent Circulating Density                                  
ATMP        .DEGC              : ARC Annular Temperature                                         
#
~Parameter Information Block
#MNEM.UNIT                       Value:Description
#__________________________________________________________
#
~Other Information Block

#
~A TIME       DATE   RM_DEPTH   APRS_ARC    ECD_ARC       ATMP
# ...
18:06:20 10-Dec-06    1007.82    1788.00      10.60      69.00
18:06:30 10-Dec-06    1007.82    1793.00      10.63      69.00
18:06:40 10-Dec-06    1007.79    1820.00      10.79      69.00
18:06:50 10-Dec-06    1007.76    1826.00      10.83      69.00
18:07:00 10-Dec-06    1007.79    1817.00      10.77      69.00
18:07:10 10-Dec-06    1007.76    1823.00      10.81      69.00
18:07:20 10-Dec-06    1007.86    1820.00      10.79      69.00
18:07:30 10-Dec-06    1007.82    1822.00      10.80      69.00
18:07:40 10-Dec-06    1007.78    1819.00      10.79      69.00
18:07:50 10-Dec-06    1007.76    1820.00      10.79      69.00
18:08:00 10-Dec-06    1007.79    1818.00      10.78      69.00
18:08:10 10-Dec-06    1007.73    1818.00      10.78      69.00
18:08:20 10-Dec-06    1007.77    1815.00      10.76      69.00
18:08:30 10-Dec-06    1007.79    1821.00      10.80      69.00
18:08:40 10-Dec-06    1007.81    1818.00      10.78      69.00
18:08:50 10-Dec-06    1007.79    1816.00      10.77      69.00
18:09:00 10-Dec-06    1007.67    1816.00      10.77      69.00
18:09:10 10-Dec-06    1007.76    1819.00      10.79      69.00
18:09:20 10-Dec-06    1007.85    1816.00      10.77      69.00
18:09:30 10-Dec-06    1007.81    1819.00      10.79      69.00
18:09:40 10-Dec-06    1007.74    1815.00      10.76      69.00
18:09:50 10-Dec-06    1007.76    1817.00      10.78      69.00
18:10:00 10-Dec-06    1007.79    1816.00      10.77      69.00
18:10:10 10-Dec-06    1008.42    1820.00      10.79      69.00
18:10:20 10-Dec-06    1008.95    1817.00      10.76      69.00
18:10:30 10-Dec-06    1009.15    1818.00      10.77      69.00
18:10:40 10-Dec-06    1009.20    1819.00      10.77      69.00
18:10:50 10-Dec-06    1009.32    1819.00      10.77      69.00
18:11:00 10-Dec-06    1009.40    1819.00      10.77      69.00
18:11:10 10-Dec-06    1009.49    1818.00      10.76      69.00
18:11:20 10-Dec-06    1009.58    1819.00      10.77      69.00
18:11:30 10-Dec-06    1009.66    1819.00      10.77      69.00
18:11:40 10-Dec-06    1009.74    1819.00      10.77      69.00
18:11:50 10-Dec-06    1009.80    1819.00      10.76      69.00
18:12:00 10-Dec-06    1009.88    1819.00      10.76      69.00
18:12:10 10-Dec-06    1009.95    1820.00      10.77      69.00
18:12:20 10-Dec-06    1010.02    1820.00      10.77      69.00
18:12:30 10-Dec-06    1010.08    1820.00      10.77      69.00
18:12:40 10-Dec-06    1010.14    1820.00      10.77      69.00
18:12:50 10-Dec-06    1010.20    1820.00      10.77      69.00
18:13:00 10-Dec-06    1010.30    1820.00      10.77      69.00
18:13:10 10-Dec-06    1010.36    1820.00      10.76      69.00
18:13:20 10-Dec-06    1010.46    1820.00      10.76      69.00
18:13:30 10-Dec-06    1010.53    1820.00      10.76      69.00
18:13:40 10-Dec-06    1010.59    1820.00      10.76      69.00
18:13:50 10-Dec-06    1010.67    1820.00      10.76      69.00
18:14:00 10-Dec-06    1010.75    1820.00      10.76      69.00
18:14:10 10-Dec-06    1010.81    1820.00      10.76      69.00
18:14:20 10-Dec-06    1010.88    1820.00      10.76      69.00
18:14:30 10-Dec-06    1010.95    1820.00      10.76      69.00
18:14:40 10-Dec-06    1011.04    1820.00      10.76      69.00
18:14:50 10-Dec-06    1011.13    1820.00      10.76      69.00
18:15:00 10-Dec-06    1011.21    1820.00      10.76      69.00
18:15:10 10-Dec-06    1011.30    1820.00      10.75      69.00
18:15:20 10-Dec-06    1011.39    1820.00      10.75      69.00
18:15:30 10-Dec-06    1011.46    1820.00      10.75      69.00
18:15:40 10-Dec-06    1011.57    1820.00      10.75      69.00
18:15:50 10-Dec-06    1011.66    1822.00      10.76      69.00
18:16:00 10-Dec-06    1011.76    1821.00      10.76      69.00
18:16:10 10-Dec-06    1011.88    1821.00      10.75      69.00
18:16:20 10-Dec-06    1011.98    1822.00      10.76      69.00
18:16:30 10-Dec-06    1012.08    1822.00      10.76      69.00
18:16:40 10-Dec-06    1012.15    1823.00      10.76      69.00
18:16:50 10-Dec-06    1012.23    1823.00      10.76      69.00
18:17:00 10-Dec-06    1012.32    1823.00      10.76      69.00
18:17:10 10-Dec-06    1012.40    1823.00      10.76      69.00
18:17:20 10-Dec-06    1012.44    1823.00      10.76      69.00
18:17:30 10-Dec-06    1012.50    1822.00      10.75      69.00
18:17:40 10-Dec-06    1012.60    1823.00      10.76      69.00
18:17:50 10-Dec-06    1012.70    1823.00      10.76      69.00
18:18:00 10-Dec-06    1012.80    1823.00      10.76      69.00
18:18:10 10-Dec-06    1012.93    1823.00      10.75      69.00
18:18:20 10-Dec-06    1013.05    1824.00      10.76      69.00
18:18:30 10-Dec-06    1013.18    1824.00      10.76      69.00
18:18:40 10-Dec-06    1013.31    1824.00      10.76      69.00
18:18:50 10-Dec-06    1013.43    1824.00      10.75      69.00
18:19:00 10-Dec-06    1013.58    1824.00      10.75      69.00
18:19:10 10-Dec-06    1013.67    1825.00      10.76      69.00
18:19:20 10-Dec-06    1013.80    1825.00      10.76      69.00
18:19:30 10-Dec-06    1013.92    1825.00      10.76      69.00
18:19:40 10-Dec-06    1014.05    1825.00      10.75      69.00
18:19:50 10-Dec-06    1014.17    1826.00      10.76      69.00
18:20:00 10-Dec-06    1014.25    1826.00      10.76      69.00
18:20:10 10-Dec-06    1014.36    1826.00      10.76      69.00
18:20:20 10-Dec-06    1014.49    1827.00      10.76      69.00
18:20:30 10-Dec-06    1014.59    1827.00      10.76      69.00
18:20:40 10-Dec-06    1014.69    1826.00      10.75      69.00
18:20:50 10-Dec-06    1014.83    1827.00      10.76      69.00
18:21:00 10-Dec-06    1014.96    1827.00      10.76      69.00
18:21:10 10-Dec-06    1015.08    1827.00      10.75      69.00
18:21:20 10-Dec-06    1015.19    1828.00      10.76      69.00
18:21:30 10-Dec-06    1015.28    1828.00      10.76      69.00
18:21:40 10-Dec-06    1015.40    1828.00      10.76      69.00
18:21:50 10-Dec-06    1015.50    1829.00      10.76      69.00
18:22:00 10-Dec-06    1015.62    1829.00      10.76      69.00
18:22:10 10-Dec-06    1015.72    1829.00      10.76      69.00
18:22:20 10-Dec-06    1015.82    1829.00      10.76      69.00
18:22:30 10-Dec-06    1015.95    1829.00      10.76      69.00
18:22:40 10-Dec-06    1016.05    1830.00      10.76      69.00
18:22:50 10-Dec-06    1016.16    1830.00      10.76      69.00
18:23:00 10-Dec-06    1016.29    1830.00      10.76      69.00
18:23:10 10-Dec-06    1016.40    1830.00      10.76      69.00
18:23:20 10-Dec-06    1016.52    1830.00      10.76      69.00
18:23:30 10-Dec-06    1016.65    1831.00      10.76      69.00
18:23:40 10-Dec-06    1016.78    1831.00      10.76      69.00
18:23:50 10-Dec-06    1016.92    1831.00      10.76      69.00
18:24:00 10-Dec-06    1017.07    1831.00      10.76      69.00
18:24:10 10-Dec-06    1017.21    1832.00      10.76      69.00
18:24:20 10-Dec-06    1017.35    1832.00      10.76      69.00
18:24:30 10-Dec-06    1017.47    1832.00      10.76      69.00
18:24:40 10-Dec-06    1017.60    1833.00      10.76      69.00
18:24:50 10-Dec-06    1017.73    1834.00      10.77      69.00
18:25:00 10-Dec-06    1017.88    1833.00      10.76      69.00
18:25:10 10-Dec-06    1018.01    1834.00      10.76      69.00
18:25:20 10-Dec-06    1018.15    1835.00      10.77      69.00
18:25:30 10-Dec-06    1018.30    1834.00      10.76      69.00
18:25:40 10-Dec-06    1018.45    1835.00      10.77      69.00
18:25:50 10-Dec-06    1018.58    1835.00      10.76      69.00
18:26:00 10-Dec-06    1018.70    1835.00      10.76      69.00
18:26:10 10-Dec-06    1018.84    1836.00      10.77      69.00
18:26:20 10-Dec-06    1018.95    1836.00      10.77      69.00
18:26:30 10-Dec-06    1019.10    1837.00      10.77      69.00
18:26:40 10-Dec-06    1019.28    1837.00      10.77      69.00
18:26:50 10-Dec-06    1019.44    1837.00      10.77      69.00
18:27:00 10-Dec-06    1019.57    1837.00      10.77      69.00
18:27:10 10-Dec-06    1019.74    1838.00      10.77      69.00
18:27:20 10-Dec-06    1019.89    1838.00      10.77      69.00
