~Version Information
VERS.             2.0 : CWLS log ASCII standard - Version 2.0
WRAP.             NO  : One line per depth step
#
~Well Information Block
#MNEM.UNIT                   Data Type:Information
#__________________________________________________________
  STRT.           09-DEC-2006 16:00:00 : START INDEX                   
  STOP.           12-DEC-2006 10:00:00 : STOP INDEX                    
  STEP.SEC           10.0000 : STEP                          
  NULL.              -999.25 : NULL VALUE                    
  COMP.              Company : COMPANY                       
  WELL.            W2        : WELL                          
   FLD.        Block : FIELD                         
   LOC.             Offshore : LOCATION                      
  PROV.                      : PROVINCE                      
  CNTY.                      : COUNTY                        
  STAT.                State : STATE                         
  CTRY.                India : COUNTRY                       
  SRVC.                      : SERVICE COMPANY               
  DATE.           09-DEC-2006 10:32:50 : LOG DATE                      
   UWI.                      : UNIQUE WELL ID                
   API.                      : API NUMBER                    
#
~Curve Information Block
#MNEM.UNIT                     : Curve Description
#---------                     --------------------
TIME	    .HHMMSS	       : 
DATE	    .D		       : 
RM_DEPTH    .M                 : LWDRM 1HZ River Depth                                           
APRS_ARC    .PSI               : ARC Annular Pressure                                            
ECD_ARC     .PPG               : Equivalent Circulating Density                                  
ATMP        .DEGC              : ARC Annular Temperature                                         
#
~Parameter Information Block
#MNEM.UNIT                       Value:Description
#__________________________________________________________
#
~Other Information Block

#
~A TIME       DATE   RM_DEPTH   APRS_ARC    ECD_ARC       ATMP
# ...
15:58:40 11-Dec-06    1363.73    2690.00      11.73      78.00
15:58:50 11-Dec-06    1363.81    2690.00      11.73      78.00
15:59:00 11-Dec-06    1363.88    2690.00      11.73      78.00
15:59:10 11-Dec-06    1363.94    2690.00      11.73      78.00
15:59:20 11-Dec-06    1364.01    2690.00      11.73      78.00
15:59:30 11-Dec-06    1364.07    2691.00      11.73      78.00
15:59:40 11-Dec-06    1364.14    2692.00      11.74      78.00
15:59:50 11-Dec-06    1364.22    2692.00      11.74      78.00
16:00:00 11-Dec-06    1364.28    2692.00      11.74      78.00
16:00:10 11-Dec-06    1364.35    2693.00      11.74      78.00
16:00:20 11-Dec-06    1364.40    2693.00      11.74      78.00
16:00:30 11-Dec-06    1364.48    2693.00      11.74      78.00
16:00:40 11-Dec-06    1364.56    2693.00      11.74      78.00
16:00:50 11-Dec-06    1364.65    2694.00      11.74      78.00
16:01:00 11-Dec-06    1364.74    2694.00      11.74      78.00
16:01:10 11-Dec-06    1364.86    2694.00      11.74      78.00
16:01:20 11-Dec-06    1365.00    2694.00      11.74      78.00
16:01:30 11-Dec-06    1365.10    2695.00      11.74      78.00
16:01:40 11-Dec-06    1365.21    2695.00      11.74      78.00
16:01:50 11-Dec-06    1365.34    2695.00      11.74      78.00
16:02:00 11-Dec-06    1365.44    2696.00      11.74      78.00
16:02:10 11-Dec-06    1365.50    2696.00      11.74      78.00
16:02:20 11-Dec-06    1365.60    2697.00      11.75      78.00
16:02:30 11-Dec-06    1365.66    2697.00      11.75      78.00
16:02:40 11-Dec-06    1365.78    2697.00      11.75      78.00
16:02:50 11-Dec-06    1365.84    2697.00      11.75      78.00
16:03:00 11-Dec-06    1365.92    2698.00      11.75      78.00
16:03:10 11-Dec-06    1366.01    2698.00      11.75      78.00
16:03:20 11-Dec-06    1366.09    2698.00      11.75      78.00
16:03:30 11-Dec-06    1366.18    2699.00      11.75      78.00
16:03:40 11-Dec-06    1366.26    2699.00      11.75      78.00
16:03:50 11-Dec-06    1366.34    2699.00      11.75      78.00
16:04:00 11-Dec-06    1366.44    2699.00      11.75      78.00
16:04:10 11-Dec-06    1366.56    2700.00      11.75      78.00
16:04:20 11-Dec-06    1366.65    2700.00      11.75      78.00
16:04:30 11-Dec-06    1366.73    2700.00      11.75      78.00
16:04:40 11-Dec-06    1366.83    2700.00      11.75      78.00
16:04:50 11-Dec-06    1366.95    2701.00      11.75      78.00
16:05:00 11-Dec-06    1367.03    2701.00      11.75      78.00
16:05:10 11-Dec-06    1367.07    2700.00      11.75      78.00
16:05:20 11-Dec-06    1367.18    2702.00      11.76      79.00
16:05:30 11-Dec-06    1367.27    2702.00      11.75      79.00
16:05:40 11-Dec-06    1367.41    2702.00      11.75      79.00
16:05:50 11-Dec-06    1367.52    2703.00      11.76      79.00
16:06:00 11-Dec-06    1367.64    2703.00      11.76      79.00
16:06:10 11-Dec-06    1367.74    2703.00      11.75      79.00
16:06:20 11-Dec-06    1367.88    2704.00      11.76      79.00
16:06:30 11-Dec-06    1367.99    2704.00      11.76      79.00
16:06:40 11-Dec-06    1368.13    2704.00      11.76      79.00
16:06:50 11-Dec-06    1368.23    2705.00      11.76      79.00
16:07:00 11-Dec-06    1368.35    2705.00      11.76      79.00
16:07:10 11-Dec-06    1368.46    2706.00      11.76      79.00
16:07:20 11-Dec-06    1368.57    2706.00      11.76      79.00
16:07:30 11-Dec-06    1368.67    2707.00      11.76      79.00
16:07:40 11-Dec-06    1368.74    2707.00      11.76      79.00
16:07:50 11-Dec-06    1368.87    2709.00      11.77      79.00
16:08:00 11-Dec-06    1368.96    2708.00      11.77      79.00
16:08:10 11-Dec-06    1369.03    2709.00      11.77      79.00
16:08:20 11-Dec-06    1369.13    2708.00      11.76      79.00
16:08:30 11-Dec-06    1369.21    2709.00      11.77      79.00
16:08:40 11-Dec-06    1369.25    2709.00      11.77      79.00
16:08:50 11-Dec-06    1369.32    2709.00      11.77      79.00
16:09:00 11-Dec-06    1369.38    2709.00      11.77      79.00
16:09:10 11-Dec-06    1369.45    2709.00      11.77      79.00
16:09:20 11-Dec-06    1369.51    2710.00      11.77      79.00
16:09:30 11-Dec-06    1369.52    2711.00      11.77      79.00
16:09:40 11-Dec-06    1369.04    2710.00      11.77      79.00
16:09:50 11-Dec-06    1367.79    2706.00      11.77      79.00
16:10:00 11-Dec-06    1367.33    2702.00      11.75      79.00
16:10:10 11-Dec-06    1368.49    2705.00      11.76      79.00
16:10:20 11-Dec-06    1369.16    2709.00      11.77      79.00
16:10:30 11-Dec-06    1369.18    2713.00      11.79      79.00
16:10:40 11-Dec-06    1369.13    2710.00      11.77      79.00
16:10:50 11-Dec-06    1369.13    2709.00      11.77      79.00
16:11:00 11-Dec-06    1369.20    2711.00      11.78      79.00
16:11:10 11-Dec-06    1369.22    2709.00      11.77      79.00
16:11:20 11-Dec-06    1369.13    2706.00      11.76      79.00
16:11:30 11-Dec-06    1369.14    2707.00      11.76      79.00
16:11:40 11-Dec-06    1369.22    2710.00      11.77      79.00
16:11:50 11-Dec-06    1369.19    2709.00      11.77      79.00
16:12:00 11-Dec-06    1369.16    2709.00      11.77      79.00
16:12:10 11-Dec-06    1369.16    2709.00      11.77      79.00
16:12:20 11-Dec-06    1369.16    2710.00      11.77      79.00
16:12:30 11-Dec-06    1369.10    2710.00      11.77      79.00
16:12:40 11-Dec-06    1369.18    2711.00      11.78      79.00
16:12:50 11-Dec-06    1369.25    2711.00      11.78      79.00
16:13:00 11-Dec-06    1368.55    2706.00      11.76      79.00
16:13:10 11-Dec-06    1367.40    2705.00      11.77      79.00
16:13:20 11-Dec-06    1366.36    2704.00      11.77      79.00
16:13:30 11-Dec-06    1365.23    2701.00      11.77      79.00
16:13:40 11-Dec-06    1364.99    2696.00      11.75      79.00
16:13:50 11-Dec-06    1366.54    2698.00      11.74      79.00
16:14:00 11-Dec-06    1367.82    2706.00      11.77      79.00
16:14:10 11-Dec-06    1368.49    2711.00      11.78      79.00
16:14:20 11-Dec-06    1368.49    2711.00      11.78      79.00
16:14:30 11-Dec-06    1368.54    2708.00      11.77      79.00
16:14:40 11-Dec-06    1368.48    2704.00      11.75      79.00
16:14:50 11-Dec-06    1368.10    2704.00      11.76      79.00
16:15:00 11-Dec-06    1367.91    2705.00      11.76      79.00
16:15:10 11-Dec-06    1368.31    2704.00      11.75      79.00
16:15:20 11-Dec-06    1368.58    2705.00      11.76      79.00
16:15:30 11-Dec-06    1368.89    2707.00      11.76      79.00
16:15:40 11-Dec-06    1369.16    2708.00      11.76      79.00
16:15:50 11-Dec-06    1369.32    2710.00      11.77      79.00
16:16:00 11-Dec-06    1369.42    2709.00      11.77      79.00
16:16:10 11-Dec-06    1369.47    2707.00      11.76      79.00
16:16:20 11-Dec-06    1369.52    2706.00      11.75      79.00
16:16:30 11-Dec-06    1369.50    2707.00      11.76      79.00
16:16:40 11-Dec-06    1369.60    2707.00      11.76      79.00
16:16:50 11-Dec-06    1369.63    2707.00      11.76      79.00
16:17:00 11-Dec-06    1369.68    2707.00      11.76      79.00
16:17:10 11-Dec-06    1369.71    2707.00      11.76      79.00
16:17:20 11-Dec-06    1369.76    2707.00      11.75      79.00
16:17:30 11-Dec-06    1369.81    2707.00      11.75      79.00
16:17:40 11-Dec-06    1369.85    2707.00      11.75      79.00
16:17:50 11-Dec-06    1369.89    2707.00      11.75      79.00
16:18:00 11-Dec-06    1369.93    2707.00      11.75      79.00
16:18:10 11-Dec-06    1369.96    2707.00      11.75      79.00
16:18:20 11-Dec-06    1369.99    2708.00      11.76      79.00
16:18:30 11-Dec-06    1370.05    2707.00      11.75      79.00
16:18:40 11-Dec-06    1370.08    2707.00      11.75      79.00
16:18:50 11-Dec-06    1370.10    2707.00      11.75      79.00
16:19:00 11-Dec-06    1370.12    2707.00      11.75      79.00
16:19:10 11-Dec-06    1370.14    2708.00      11.76      79.00
16:19:20 11-Dec-06    1370.18    2708.00      11.76      79.00
16:19:30 11-Dec-06    1370.22    2707.00      11.75      79.00
16:19:40 11-Dec-06    1370.26    2708.00      11.75      79.00
