~Version Information
VERS.             2.0 : CWLS log ASCII standard - Version 2.0
WRAP.             NO  : One line per depth step
#
~Well Information Block
#MNEM.UNIT                   Data Type:Information
#__________________________________________________________
  STRT.           09-DEC-2006 16:00:00 : START INDEX                   
  STOP.           12-DEC-2006 10:00:00 : STOP INDEX                    
  STEP.SEC           10.0000 : STEP                          
  NULL.              -999.25 : NULL VALUE                    
  COMP.              Company : COMPANY                       
  WELL.            W2        : WELL                          
   FLD.        Block : FIELD                         
   LOC.             Offshore : LOCATION                      
  PROV.                      : PROVINCE                      
  CNTY.                      : COUNTY                        
  STAT.                State : STATE                         
  CTRY.                India : COUNTRY                       
  SRVC.                      : SERVICE COMPANY               
  DATE.           09-DEC-2006 10:32:50 : LOG DATE                      
   UWI.                      : UNIQUE WELL ID                
   API.                      : API NUMBER                    
#
~Curve Information Block
#MNEM.UNIT                     : Curve Description
#---------                     --------------------
TIME	    .HHMMSS	       : 
DATE	    .D		       : 
RM_DEPTH    .M                 : LWDRM 1HZ River Depth                                           
APRS_ARC    .PSI               : ARC Annular Pressure                                            
ECD_ARC     .PPG               : Equivalent Circulating Density                                  
ATMP        .DEGC              : ARC Annular Temperature                                         
#
~Parameter Information Block
#MNEM.UNIT                       Value:Description
#__________________________________________________________
#
~Other Information Block

#
~A TIME       DATE   RM_DEPTH   APRS_ARC    ECD_ARC       ATMP
# ...
11:44:40 11-Dec-06    1328.98    2587.00      11.58      79.00
11:44:50 11-Dec-06    1328.98    2590.00      11.60      79.00
11:45:00 11-Dec-06    1328.97    2593.00      11.61      79.00
11:45:10 11-Dec-06    1328.97    2591.00      11.60      79.00
11:45:20 11-Dec-06    1328.97    2593.00      11.61      79.00
11:45:30 11-Dec-06    1328.97    2595.00      11.62      79.00
11:45:40 11-Dec-06    1328.96    2595.00      11.62      79.00
11:45:50 11-Dec-06    1328.96    2591.00      11.60      79.00
11:46:00 11-Dec-06    1328.96    2596.00      11.62      79.00
11:46:10 11-Dec-06    1328.96    2595.00      11.62      79.00
11:46:20 11-Dec-06    1328.95    2592.00      11.61      79.00
11:46:30 11-Dec-06    1328.95    2590.00      11.60      79.00
11:46:40 11-Dec-06    1328.95    2592.00      11.61      79.00
11:46:50 11-Dec-06    1328.95    2593.00      11.61      79.00
11:47:00 11-Dec-06    1328.94    2589.00      11.59      79.00
11:47:10 11-Dec-06    1328.94    2589.00      11.59      79.00
11:47:20 11-Dec-06    1328.94    2593.00      11.61      79.00
11:47:30 11-Dec-06    1328.94    2597.00      11.63      79.00
11:47:40 11-Dec-06    1328.93    2592.00      11.61      79.00
11:47:50 11-Dec-06    1328.75    2588.00      11.59      79.00
11:48:00 11-Dec-06    1328.17    2577.00      11.55      79.00
11:48:10 11-Dec-06    1328.12    2583.00      11.57      79.00
11:48:20 11-Dec-06    1328.14    2627.00      11.77      79.00
11:48:30 11-Dec-06    1328.16    2630.00      11.78      79.00
11:48:40 11-Dec-06    1328.15    2626.00      11.77      79.00
11:48:50 11-Dec-06    1328.14    2617.00      11.72      79.00
11:49:00 11-Dec-06    1328.15    2616.00      11.72      79.00
11:49:10 11-Dec-06    1328.18    2614.00      11.71      79.00
11:49:20 11-Dec-06    1328.14    2612.00      11.70      79.00
11:49:30 11-Dec-06    1328.15    2612.00      11.70      79.00
11:49:40 11-Dec-06    1328.12    2612.00      11.70      79.00
11:49:50 11-Dec-06    1328.15    2613.00      11.71      79.00
11:50:00 11-Dec-06    1328.14    2613.00      11.71      79.00
11:50:10 11-Dec-06    1328.20    2612.00      11.70      79.00
11:50:20 11-Dec-06    1328.17    2609.00      11.69      79.00
11:50:30 11-Dec-06    1328.14    2607.00      11.68      79.00
11:50:40 11-Dec-06    1328.17    2609.00      11.69      79.00
11:50:50 11-Dec-06    1328.65    2610.00      11.69      79.00
11:51:00 11-Dec-06    1329.27    2611.00      11.69      79.00
11:51:10 11-Dec-06    1329.32    2612.00      11.69      79.00
11:51:20 11-Dec-06    1329.39    2612.00      11.69      79.00
11:51:30 11-Dec-06    1329.45    2613.00      11.70      79.00
11:51:40 11-Dec-06    1329.49    2614.00      11.70      79.00
11:51:50 11-Dec-06    1329.56    2614.00      11.70      79.00
11:52:00 11-Dec-06    1329.61    2614.00      11.70      79.00
11:52:10 11-Dec-06    1329.65    2614.00      11.70      79.00
11:52:20 11-Dec-06    1329.70    2615.00      11.70      79.00
11:52:30 11-Dec-06    1329.74    2615.00      11.70      79.00
11:52:40 11-Dec-06    1329.79    2615.00      11.70      79.00
11:52:50 11-Dec-06    1329.86    2615.00      11.70      79.00
11:53:00 11-Dec-06    1329.92    2615.00      11.70      79.00
11:53:10 11-Dec-06    1329.96    2615.00      11.70      79.00
11:53:20 11-Dec-06    1330.01    2615.00      11.70      79.00
11:53:30 11-Dec-06    1330.06    2616.00      11.70      79.00
11:53:40 11-Dec-06    1330.12    2616.00      11.70      79.00
11:53:50 11-Dec-06    1330.18    2616.00      11.70      79.00
11:54:00 11-Dec-06    1330.24    2616.00      11.70      79.00
11:54:10 11-Dec-06    1330.34    2616.00      11.70      79.00
11:54:20 11-Dec-06    1330.39    2616.00      11.70      79.00
11:54:30 11-Dec-06    1330.46    2617.00      11.70      79.00
11:54:40 11-Dec-06    1330.54    2617.00      11.70      79.00
11:54:50 11-Dec-06    1330.59    2617.00      11.70      79.00
11:55:00 11-Dec-06    1330.63    2617.00      11.70      79.00
11:55:10 11-Dec-06    1330.73    2618.00      11.71      79.00
11:55:20 11-Dec-06    1330.81    2618.00      11.71      79.00
11:55:30 11-Dec-06    1330.88    2619.00      11.71      79.00
11:55:40 11-Dec-06    1330.94    2618.00      11.70      79.00
11:55:50 11-Dec-06    1331.00    2618.00      11.70      79.00
11:56:00 11-Dec-06    1331.08    2619.00      11.71      79.00
11:56:10 11-Dec-06    1331.17    2619.00      11.71      79.00
11:56:20 11-Dec-06    1331.24    2619.00      11.71      79.00
11:56:30 11-Dec-06    1331.28    2619.00      11.71      79.00
11:56:40 11-Dec-06    1331.37    2620.00      11.71      79.00
11:56:50 11-Dec-06    1331.43    2621.00      11.71      79.00
11:57:00 11-Dec-06    1331.50    2620.00      11.71      79.00
11:57:10 11-Dec-06    1331.59    2622.00      11.72      79.00
11:57:20 11-Dec-06    1331.68    2621.00      11.71      79.00
11:57:30 11-Dec-06    1331.75    2622.00      11.71      79.00
11:57:40 11-Dec-06    1331.77    2622.00      11.71      79.00
11:57:50 11-Dec-06    1331.87    2622.00      11.71      79.00
11:58:00 11-Dec-06    1331.96    2622.00      11.71      79.00
11:58:10 11-Dec-06    1332.04    2623.00      11.72      79.00
11:58:20 11-Dec-06    1332.11    2623.00      11.72      79.00
11:58:30 11-Dec-06    1332.19    2623.00      11.72      79.00
11:58:40 11-Dec-06    1332.28    2624.00      11.72      79.00
11:58:50 11-Dec-06    1332.41    2624.00      11.72      79.00
11:59:00 11-Dec-06    1332.43    2624.00      11.72      79.00
11:59:10 11-Dec-06    1332.49    2625.00      11.72      79.00
11:59:20 11-Dec-06    1332.59    2626.00      11.73      79.00
11:59:30 11-Dec-06    1332.64    2626.00      11.72      79.00
11:59:40 11-Dec-06    1332.74    2626.00      11.72      79.00
11:59:50 11-Dec-06    1332.81    2626.00      11.72      79.00
12:00:00 11-Dec-06    1332.91    2626.00      11.72      79.00
12:00:10 11-Dec-06    1332.97    2626.00      11.72      79.00
12:00:20 11-Dec-06    1333.07    2627.00      11.73      79.00
12:00:30 11-Dec-06    1333.16    2627.00      11.72      79.00
12:00:40 11-Dec-06    1333.26    2627.00      11.72      79.00
12:00:50 11-Dec-06    1333.32    2627.00      11.72      79.00
12:01:00 11-Dec-06    1333.41    2628.00      11.73      79.00
12:01:10 11-Dec-06    1333.51    2628.00      11.73      79.00
12:01:20 11-Dec-06    1333.58    2629.00      11.73      79.00
12:01:30 11-Dec-06    1333.65    2628.00      11.72      79.00
12:01:40 11-Dec-06    1333.74    2629.00      11.73      79.00
12:01:50 11-Dec-06    1333.84    2629.00      11.73      79.00
12:02:00 11-Dec-06    1333.94    2630.00      11.73      79.00
12:02:10 11-Dec-06    1334.03    2630.00      11.73      79.00
12:02:20 11-Dec-06    1334.14    2630.00      11.73      79.00
12:02:30 11-Dec-06    1334.24    2631.00      11.73      79.00
12:02:40 11-Dec-06    1334.31    2631.00      11.73      79.00
12:02:50 11-Dec-06    1334.39    2631.00      11.73      79.00
12:03:00 11-Dec-06    1334.48    2632.00      11.74      79.00
12:03:10 11-Dec-06    1334.55    2633.00      11.74      79.00
12:03:20 11-Dec-06    1334.62    2633.00      11.74      79.00
12:03:30 11-Dec-06    1334.68    2633.00      11.74      79.00
12:03:40 11-Dec-06    1334.75    2633.00      11.74      79.00
12:03:50 11-Dec-06    1334.83    2633.00      11.74      79.00
12:04:00 11-Dec-06    1334.89    2634.00      11.74      79.00
12:04:10 11-Dec-06    1334.98    2634.00      11.74      79.00
12:04:20 11-Dec-06    1335.04    2635.00      11.74      79.00
12:04:30 11-Dec-06    1335.11    2635.00      11.74      79.00
12:04:40 11-Dec-06    1335.13    2635.00      11.74      79.00
12:04:50 11-Dec-06    1335.21    2635.00      11.74      79.00
12:05:00 11-Dec-06    1335.28    2636.00      11.75      79.00
12:05:10 11-Dec-06    1335.35    2636.00      11.75      79.00
12:05:20 11-Dec-06    1335.42    2636.00      11.74      79.00
12:05:30 11-Dec-06    1335.49    2636.00      11.74      79.00
12:05:40 11-Dec-06    1335.54    2636.00      11.74      79.00
