~Version Information
VERS.             2.0 : CWLS log ASCII standard - Version 2.0
WRAP.             NO  : One line per depth step
#
~Well Information Block
#MNEM.UNIT                   Data Type:Information
#__________________________________________________________
  STRT.           09-DEC-2006 16:00:00 : START INDEX                   
  STOP.           12-DEC-2006 10:00:00 : STOP INDEX                    
  STEP.SEC           10.0000 : STEP                          
  NULL.              -999.25 : NULL VALUE                    
  COMP.              Company : COMPANY                       
  WELL.            W2        : WELL                          
   FLD.        Block : FIELD                         
   LOC.             Offshore : LOCATION                      
  PROV.                      : PROVINCE                      
  CNTY.                      : COUNTY                        
  STAT.                State : STATE                         
  CTRY.                India : COUNTRY                       
  SRVC.                      : SERVICE COMPANY               
  DATE.           09-DEC-2006 10:32:50 : LOG DATE                      
   UWI.                      : UNIQUE WELL ID                
   API.                      : API NUMBER                    
#
~Curve Information Block
#MNEM.UNIT                     : Curve Description
#---------                     --------------------
TIME	    .HHMMSS	       : 
DATE	    .D		       : 
RM_DEPTH    .M                 : LWDRM 1HZ River Depth                                           
APRS_ARC    .PSI               : ARC Annular Pressure                                            
ECD_ARC     .PPG               : Equivalent Circulating Density                                  
ATMP        .DEGC              : ARC Annular Temperature                                         
#
~Parameter Information Block
#MNEM.UNIT                       Value:Description
#__________________________________________________________
#
~Other Information Block

#
~A TIME       DATE   RM_DEPTH   APRS_ARC    ECD_ARC       ATMP
# ...
20:14:00 09-Dec-06     501.12     831.00      10.10      49.00
20:14:10 09-Dec-06     500.73     831.00      10.10      49.00
20:14:20 09-Dec-06     498.66     830.00      10.14      49.00
20:14:30 09-Dec-06     499.02     830.00      10.13      49.00
20:14:40 09-Dec-06     498.96     830.00      10.13      49.00
20:14:50 09-Dec-06     499.26     830.00      10.12      49.00
20:15:00 09-Dec-06     499.34     831.00      10.13      49.00
20:15:10 09-Dec-06     499.37     830.00      10.12      49.00
20:15:20 09-Dec-06     499.36     830.00      10.12      49.00
20:15:30 09-Dec-06     499.37     830.00      10.12      49.00
20:15:40 09-Dec-06     499.78     829.00      10.10      49.00
20:15:50 09-Dec-06     500.39     831.00      10.11      49.00
20:16:00 09-Dec-06     500.91     831.00      10.10      49.00
20:16:10 09-Dec-06     501.09     831.00      10.10      49.00
20:16:20 09-Dec-06     501.11     831.00      10.10      49.00
20:16:30 09-Dec-06     501.17     831.00      10.09      49.00
20:16:40 09-Dec-06     501.24     830.00      10.08      49.00
20:16:50 09-Dec-06     501.37     831.00      10.09      49.00
20:17:00 09-Dec-06     501.34     831.00      10.09      49.00
20:17:10 09-Dec-06     501.34     831.00      10.09      49.00
20:17:20 09-Dec-06     501.31     831.00      10.09      49.00
20:17:30 09-Dec-06     501.31     830.00      10.08      49.00
20:17:40 09-Dec-06     501.43     831.00      10.09      49.00
20:17:50 09-Dec-06     501.52     831.00      10.09      49.00
20:18:00 09-Dec-06     501.52     830.00      10.08      49.00
20:18:10 09-Dec-06     501.51     830.00      10.08      49.00
20:18:20 09-Dec-06     501.51     831.00      10.09      49.00
20:18:30 09-Dec-06     501.52     831.00      10.09      49.00
20:18:40 09-Dec-06     501.70     831.00      10.08      49.00
20:18:50 09-Dec-06     501.70     831.00      10.08      49.00
20:19:00 09-Dec-06     501.73     831.00      10.08      49.00
20:19:10 09-Dec-06     501.58     830.00      10.07      49.00
20:19:20 09-Dec-06     501.58     831.00      10.09      49.00
20:19:30 09-Dec-06     501.56     831.00      10.09      49.00
20:19:40 09-Dec-06     501.67     830.00      10.07      49.00
20:19:50 09-Dec-06     501.59     830.00      10.07      49.00
20:20:00 09-Dec-06     501.67     831.00      10.08      49.00
20:20:10 09-Dec-06     501.77     830.00      10.07      49.00
20:20:20 09-Dec-06     501.77     830.00      10.07      49.00
20:20:30 09-Dec-06     501.80     830.00      10.07      49.00
20:20:40 09-Dec-06     501.79     830.00      10.07      49.00
20:20:50 09-Dec-06     501.89     831.00      10.08      49.00
20:21:00 09-Dec-06     501.93     830.00      10.07      49.00
20:21:10 09-Dec-06     501.97     831.00      10.08      49.00
20:21:20 09-Dec-06     501.89     830.00      10.07      49.00
20:21:30 09-Dec-06     502.02     830.00      10.06      49.00
20:21:40 09-Dec-06     501.98     830.00      10.07      49.00
20:21:50 09-Dec-06     501.95     831.00      10.08      49.00
20:22:00 09-Dec-06     501.93     831.00      10.08      49.00
20:22:10 09-Dec-06     502.01     830.00      10.06      49.00
20:22:20 09-Dec-06     501.89     830.00      10.07      49.00
20:22:30 09-Dec-06     501.95     830.00      10.07      49.00
20:22:40 09-Dec-06     501.86     830.00      10.07      49.00
20:22:50 09-Dec-06     499.74     830.00      10.11      49.00
20:23:00 09-Dec-06     499.80     829.00      10.10      49.00
20:23:10 09-Dec-06     499.96     829.00      10.10      49.00
20:23:20 09-Dec-06     500.19     829.00      10.09      49.00
20:23:30 09-Dec-06     500.49     830.00      10.10      49.00
20:23:40 09-Dec-06     500.78     830.00      10.09      49.00
20:23:50 09-Dec-06     501.12     830.00      10.08      49.00
20:24:00 09-Dec-06     501.40     830.00      10.08      49.00
20:24:10 09-Dec-06     501.41     830.00      10.08      49.00
20:24:20 09-Dec-06     501.38     829.00      10.07      49.00
20:24:30 09-Dec-06     501.45     830.00      10.08      49.00
20:24:40 09-Dec-06     501.52     830.00      10.08      49.00
20:24:50 09-Dec-06     501.55     830.00      10.07      49.00
20:25:00 09-Dec-06     501.64     830.00      10.07      49.00
20:25:10 09-Dec-06     501.62     829.00      10.06      49.00
20:25:20 09-Dec-06     501.58     830.00      10.07      49.00
20:25:30 09-Dec-06     501.58     829.00      10.06      49.00
20:25:40 09-Dec-06     501.69     829.00      10.06      49.00
20:25:50 09-Dec-06     501.63     830.00      10.07      49.00
20:26:00 09-Dec-06     501.67     830.00      10.07      49.00
20:26:10 09-Dec-06     501.61     829.00      10.06      49.00
20:26:20 09-Dec-06     501.70     829.00      10.06      49.00
20:26:30 09-Dec-06     501.65     830.00      10.07      49.00
20:26:40 09-Dec-06     501.70     829.00      10.06      49.00
20:26:50 09-Dec-06     501.64     829.00      10.06      49.00
20:27:00 09-Dec-06     501.73     828.00      10.05      49.00
20:27:10 09-Dec-06     501.67     829.00      10.06      49.00
20:27:20 09-Dec-06     501.66     829.00      10.06      49.00
20:27:30 09-Dec-06     501.61     829.00      10.06      49.00
20:27:40 09-Dec-06     501.64     829.00      10.06      49.00
20:27:50 09-Dec-06     501.64     829.00      10.06      49.00
20:28:00 09-Dec-06     501.63     829.00      10.06      49.00
20:28:10 09-Dec-06     501.73     829.00      10.06      49.00
20:28:20 09-Dec-06     501.64     829.00      10.06      49.00
20:28:30 09-Dec-06     501.66     829.00      10.06      49.00
20:28:40 09-Dec-06     501.62     829.00      10.06      49.00
20:28:50 09-Dec-06     501.72     829.00      10.06      49.00
20:29:00 09-Dec-06     501.64     829.00      10.06      49.00
20:29:10 09-Dec-06     501.63     829.00      10.06      49.00
20:29:20 09-Dec-06     501.66     829.00      10.06      49.00
20:29:30 09-Dec-06     501.71     829.00      10.06      49.00
20:29:40 09-Dec-06     501.61     829.00      10.06      49.00
20:29:50 09-Dec-06     501.61     829.00      10.06      49.00
20:30:00 09-Dec-06     501.68     829.00      10.06      49.00
20:30:10 09-Dec-06     501.61     829.00      10.06      49.00
20:30:20 09-Dec-06     501.61     829.00      10.06      49.00
20:30:30 09-Dec-06     501.64     828.00      10.05      49.00
20:30:40 09-Dec-06     501.66     829.00      10.06      49.00
20:30:50 09-Dec-06     501.64     829.00      10.06      49.00
20:31:00 09-Dec-06     501.63     830.00      10.07      49.00
20:31:10 09-Dec-06     501.64     829.00      10.06      49.00
20:31:20 09-Dec-06     501.56     829.00      10.06      49.00
20:31:30 09-Dec-06     501.59     829.00      10.06      49.00
20:31:40 09-Dec-06     501.62     828.00      10.05      49.00
20:31:50 09-Dec-06     501.64     829.00      10.06      49.00
20:32:00 09-Dec-06     501.55     829.00      10.06      49.00
20:32:10 09-Dec-06     501.62     829.00      10.06      49.00
20:32:20 09-Dec-06     501.70     829.00      10.06      49.00
20:32:30 09-Dec-06     501.70     829.00      10.06      49.00
20:32:40 09-Dec-06     501.63     830.00      10.07      49.00
20:32:50 09-Dec-06     501.67     830.00      10.07      49.00
20:33:00 09-Dec-06     501.69     830.00      10.07      49.00
20:33:10 09-Dec-06     501.72     830.00      10.07      49.00
20:33:20 09-Dec-06     501.67     829.00      10.06      49.00
20:33:30 09-Dec-06     501.70     830.00      10.07      49.00
20:33:40 09-Dec-06     501.68     830.00      10.07      49.00
20:33:50 09-Dec-06     501.68     832.00      10.10      49.00
20:34:00 09-Dec-06     501.06     831.00      10.10      49.00
20:34:10 09-Dec-06     499.45     829.00      10.11      49.00
20:34:20 09-Dec-06     500.64     830.00      10.09      49.00
20:34:30 09-Dec-06     500.82     832.00      10.11      49.00
20:34:40 09-Dec-06     501.12     833.00      10.12      49.00
20:34:50 09-Dec-06     501.49     835.00      10.14      49.00
20:35:00 09-Dec-06     501.86     835.00      10.13      49.00
