~Version Information
VERS.             2.0 : CWLS log ASCII standard - Version 2.0
WRAP.             NO  : One line per depth step
#
~Well Information Block
#MNEM.UNIT                   Data Type:Information
#__________________________________________________________
  STRT.           09-DEC-2006 16:00:00 : START INDEX                   
  STOP.           12-DEC-2006 10:00:00 : STOP INDEX                    
  STEP.SEC           10.0000 : STEP                          
  NULL.              -999.25 : NULL VALUE                    
  COMP.              Company : COMPANY                       
  WELL.            W2        : WELL                          
   FLD.        Block : FIELD                         
   LOC.             Offshore : LOCATION                      
  PROV.                      : PROVINCE                      
  CNTY.                      : COUNTY                        
  STAT.                State : STATE                         
  CTRY.                India : COUNTRY                       
  SRVC.                      : SERVICE COMPANY               
  DATE.           09-DEC-2006 10:32:50 : LOG DATE                      
   UWI.                      : UNIQUE WELL ID                
   API.                      : API NUMBER                    
#
~Curve Information Block
#MNEM.UNIT                     : Curve Description
#---------                     --------------------
TIME	    .HHMMSS	       : 
DATE	    .D		       : 
RM_DEPTH    .M                 : LWDRM 1HZ River Depth                                           
APRS_ARC    .PSI               : ARC Annular Pressure                                            
ECD_ARC     .PPG               : Equivalent Circulating Density                                  
ATMP        .DEGC              : ARC Annular Temperature                                         
#
~Parameter Information Block
#MNEM.UNIT                       Value:Description
#__________________________________________________________
#
~Other Information Block

#
~A TIME       DATE   RM_DEPTH   APRS_ARC    ECD_ARC       ATMP
# ...
20:33:50 11-Dec-06    1423.39    2830.00      11.82      78.00
20:34:00 11-Dec-06    1424.03    2831.00      11.82      78.00
20:34:10 11-Dec-06    1424.76    2833.00      11.82      78.00
20:34:20 11-Dec-06    1425.46    2835.00      11.82      78.00
20:34:30 11-Dec-06    1426.16    2835.00      11.82      78.00
20:34:40 11-Dec-06    1426.74    2836.00      11.82      78.00
20:34:50 11-Dec-06    1427.38    2839.00      11.82      78.00
20:35:00 11-Dec-06    1428.05    2843.00      11.83      78.00
20:35:10 11-Dec-06    1428.66    2845.00      11.84      78.00
20:35:20 11-Dec-06    1429.30    2845.00      11.83      78.00
20:35:30 11-Dec-06    1429.97    2849.00      11.84      78.00
20:35:40 11-Dec-06    1430.64    2850.00      11.84      78.00
20:35:50 11-Dec-06    1431.25    2849.00      11.83      78.00
20:36:00 11-Dec-06    1431.83    2850.00      11.83      78.00
20:36:10 11-Dec-06    1432.50    2853.00      11.84      78.00
20:36:20 11-Dec-06    1433.14    2854.00      11.84      78.00
20:36:30 11-Dec-06    1433.81    2854.00      11.83      78.00
20:36:40 11-Dec-06    1434.36    2853.00      11.82      78.00
20:36:50 11-Dec-06    1434.88    2854.00      11.82      78.00
20:37:00 11-Dec-06    1435.39    2856.00      11.83      78.00
20:37:10 11-Dec-06    1435.91    2858.00      11.83      78.00
20:37:20 11-Dec-06    1436.40    2860.00      11.84      78.00
20:37:30 11-Dec-06    1437.01    2860.00      11.83      78.00
20:37:40 11-Dec-06    1437.50    2859.00      11.82      78.00
20:37:50 11-Dec-06    1437.99    2858.00      11.81      78.00
20:38:00 11-Dec-06    1438.47    2860.00      11.82      78.00
20:38:10 11-Dec-06    1439.08    2863.00      11.83      78.00
20:38:20 11-Dec-06    1439.57    2864.00      11.83      78.00
20:38:30 11-Dec-06    1440.00    2863.00      11.82      78.00
20:38:40 11-Dec-06    1440.08    2864.00      11.82      78.00
20:38:50 11-Dec-06    1439.97    2865.00      11.83      78.00
20:39:00 11-Dec-06    1439.42    2863.00      11.82      78.00
20:39:10 11-Dec-06    1439.02    2861.00      11.82      78.00
20:39:20 11-Dec-06    1438.51    2860.00      11.82      78.00
20:39:30 11-Dec-06    1437.90    2860.00      11.82      78.00
20:39:40 11-Dec-06    1437.29    2857.00      11.82      78.00
20:39:50 11-Dec-06    1436.89    2860.00      11.83      78.00
20:40:00 11-Dec-06    1436.43    2860.00      11.84      78.00
20:40:10 11-Dec-06    1435.98    2859.00      11.83      78.00
20:40:20 11-Dec-06    1435.43    2853.00      11.81      78.00
20:40:30 11-Dec-06    1434.94    2852.00      11.81      78.00
20:40:40 11-Dec-06    1434.45    2852.00      11.82      78.00
20:40:50 11-Dec-06    1433.90    2849.00      11.81      78.00
20:41:00 11-Dec-06    1433.36    2845.00      11.80      78.00
20:41:10 11-Dec-06    1432.81    2845.00      11.80      78.00
20:41:20 11-Dec-06    1432.20    2844.00      11.80      78.00
20:41:30 11-Dec-06    1431.62    2844.00      11.81      78.00
20:41:40 11-Dec-06    1431.07    2845.00      11.82      78.00
20:41:50 11-Dec-06    1430.55    2843.00      11.81      78.00
20:42:00 11-Dec-06    1429.91    2838.00      11.80      78.00
20:42:10 11-Dec-06    1429.18    2835.00      11.79      78.00
20:42:20 11-Dec-06    1428.57    2835.00      11.80      78.00
20:42:30 11-Dec-06    1427.96    2836.00      11.81      78.00
20:42:40 11-Dec-06    1427.56    2836.00      11.81      78.00
20:42:50 11-Dec-06    1427.08    2833.00      11.80      78.00
20:43:00 11-Dec-06    1426.77    2832.00      11.80      78.00
20:43:10 11-Dec-06    1426.34    2832.00      11.80      78.00
20:43:20 11-Dec-06    1426.10    2832.00      11.81      78.00
20:43:30 11-Dec-06    1425.83    2832.00      11.81      78.00
20:43:40 11-Dec-06    1425.86    2833.00      11.81      78.00
20:43:50 11-Dec-06    1425.98    2832.00      11.81      78.00
20:44:00 11-Dec-06    1426.56    2830.00      11.79      78.00
20:44:10 11-Dec-06    1427.17    2829.00      11.78      78.00
20:44:20 11-Dec-06    1427.81    2830.00      11.78      78.00
20:44:30 11-Dec-06    1428.48    2833.00      11.79      78.00
20:44:40 11-Dec-06    1429.24    2836.00      11.80      78.00
20:44:50 11-Dec-06    1429.91    2837.00      11.79      78.00
20:45:00 11-Dec-06    1430.55    2836.00      11.78      78.00
20:45:10 11-Dec-06    1431.31    2838.00      11.79      78.00
20:45:20 11-Dec-06    1431.92    2839.00      11.79      78.00
20:45:30 11-Dec-06    1432.68    2842.00      11.79      78.00
20:45:40 11-Dec-06    1433.54    2845.00      11.80      78.00
20:45:50 11-Dec-06    1434.39    2848.00      11.80      78.00
20:46:00 11-Dec-06    1435.12    2848.00      11.80      78.00
20:46:10 11-Dec-06    1435.85    2849.00      11.79      78.00
20:46:20 11-Dec-06    1436.52    2850.00      11.79      78.00
20:46:30 11-Dec-06    1437.07    2849.00      11.78      78.00
20:46:40 11-Dec-06    1437.65    2850.00      11.78      78.00
20:46:50 11-Dec-06    1438.17    2852.00      11.79      78.00
20:47:00 11-Dec-06    1438.87    2856.00      11.80      78.00
20:47:10 11-Dec-06    1439.46    2857.00      11.80      78.00
20:47:20 11-Dec-06    1439.95    2860.00      11.81      79.00
20:47:30 11-Dec-06    1440.15    2860.00      11.80      79.00
20:47:40 11-Dec-06    1440.18    2859.00      11.80      79.00
20:47:50 11-Dec-06    1440.16    2856.00      11.79      79.00
20:48:00 11-Dec-06    1440.20    2857.00      11.79      79.00
20:48:10 11-Dec-06    1440.29    2856.00      11.79      79.00
20:48:20 11-Dec-06    1440.45    2854.00      11.78      79.00
20:48:30 11-Dec-06    1440.48    2852.00      11.77      79.00
20:48:40 11-Dec-06    1440.79    2855.00      11.78      79.00
20:48:50 11-Dec-06    1441.09    2858.00      11.79      79.00
20:49:00 11-Dec-06    1441.37    2857.00      11.78      79.00
20:49:10 11-Dec-06    1441.67    2856.00      11.78      79.00
20:49:20 11-Dec-06    1441.81    2858.00      11.78      79.00
20:49:30 11-Dec-06    1441.90    2859.00      11.79      79.00
20:49:40 11-Dec-06    1442.04    2859.00      11.78      79.00
20:49:50 11-Dec-06    1442.19    2859.00      11.78      79.00
20:50:00 11-Dec-06    1442.33    2859.00      11.78      79.00
20:50:10 11-Dec-06    1442.44    2859.00      11.78      79.00
20:50:20 11-Dec-06    1442.55    2860.00      11.78      79.00
20:50:30 11-Dec-06    1442.65    2860.00      11.78      79.00
20:50:40 11-Dec-06    1442.78    2860.00      11.78      79.00
20:50:50 11-Dec-06    1442.91    2861.00      11.79      79.00
20:51:00 11-Dec-06    1443.08    2861.00      11.78      79.00
20:51:10 11-Dec-06    1443.23    2862.00      11.79      79.00
20:51:20 11-Dec-06    1443.39    2862.00      11.79      79.00
20:51:30 11-Dec-06    1443.55    2863.00      11.79      79.00
20:51:40 11-Dec-06    1443.69    2863.00      11.79      79.00
20:51:50 11-Dec-06    1443.81    2863.00      11.79      79.00
20:52:00 11-Dec-06    1443.90    2863.00      11.79      79.00
20:52:10 11-Dec-06    1444.02    2864.00      11.79      79.00
20:52:20 11-Dec-06    1444.16    2864.00      11.79      79.00
20:52:30 11-Dec-06    1444.29    2865.00      11.79      79.00
20:52:40 11-Dec-06    1444.46    2865.00      11.79      79.00
20:52:50 11-Dec-06    1444.64    2866.00      11.79      79.00
20:53:00 11-Dec-06    1444.81    2867.00      11.79      79.00
20:53:10 11-Dec-06    1444.95    2867.00      11.79      79.00
20:53:20 11-Dec-06    1445.09    2867.00      11.79      79.00
20:53:30 11-Dec-06    1445.24    2868.00      11.80      79.00
20:53:40 11-Dec-06    1445.36    2867.00      11.79      79.00
20:53:50 11-Dec-06    1445.45    2868.00      11.79      79.00
20:54:00 11-Dec-06    1445.50    2868.00      11.79      79.00
20:54:10 11-Dec-06    1445.54    2869.00      11.80      79.00
20:54:20 11-Dec-06    1444.97    2870.00      11.81      79.00
20:54:30 11-Dec-06    1444.02    2872.00      11.82      79.00
20:54:40 11-Dec-06    1442.29    2865.00      11.81      79.00
20:54:50 11-Dec-06    1440.46    2861.00      11.81      79.00
