~Version Information
VERS.             2.0 : CWLS log ASCII standard - Version 2.0
WRAP.             NO  : One line per depth step
#
~Well Information Block
#MNEM.UNIT                   Data Type:Information
#__________________________________________________________
  STRT.           09-DEC-2006 16:00:00 : START INDEX                   
  STOP.           12-DEC-2006 10:00:00 : STOP INDEX                    
  STEP.SEC           10.0000 : STEP                          
  NULL.              -999.25 : NULL VALUE                    
  COMP.              Company : COMPANY                       
  WELL.            W2        : WELL                          
   FLD.        Block : FIELD                         
   LOC.             Offshore : LOCATION                      
  PROV.                      : PROVINCE                      
  CNTY.                      : COUNTY                        
  STAT.                State : STATE                         
  CTRY.                India : COUNTRY                       
  SRVC.                      : SERVICE COMPANY               
  DATE.           09-DEC-2006 10:32:50 : LOG DATE                      
   UWI.                      : UNIQUE WELL ID                
   API.                      : API NUMBER                    
#
~Curve Information Block
#MNEM.UNIT                     : Curve Description
#---------                     --------------------
TIME	    .HHMMSS	       : 
DATE	    .D		       : 
RM_DEPTH    .M                 : LWDRM 1HZ River Depth                                           
APRS_ARC    .PSI               : ARC Annular Pressure                                            
ECD_ARC     .PPG               : Equivalent Circulating Density                                  
ATMP        .DEGC              : ARC Annular Temperature                                         
#
~Parameter Information Block
#MNEM.UNIT                       Value:Description
#__________________________________________________________
#
~Other Information Block

#
~A TIME       DATE   RM_DEPTH   APRS_ARC    ECD_ARC       ATMP
# ...
00:47:50 12-Dec-06     912.33    1775.00      11.65      79.00
00:48:00 12-Dec-06     915.77    1809.00      11.83      79.00
00:48:10 12-Dec-06     917.14    1814.00      11.84      79.00
00:48:20 12-Dec-06     916.48    1800.00      11.76      79.00
00:48:30 12-Dec-06     915.32    1791.00      11.71      79.00
00:48:40 12-Dec-06     914.16    1781.00      11.66      79.00
00:48:50 12-Dec-06     912.79    1775.00      11.64      79.00
00:49:00 12-Dec-06     911.54    1773.00      11.65      79.00
00:49:10 12-Dec-06     910.62    1772.00      11.65      79.00
00:49:20 12-Dec-06     909.62    1771.00      11.66      79.00
00:49:30 12-Dec-06     908.25    1769.00      11.66      79.00
00:49:40 12-Dec-06     906.81    1766.00      11.66      79.00
00:49:50 12-Dec-06     905.08    1764.00      11.67      79.00
00:50:00 12-Dec-06     903.34    1761.00      11.67      79.00
00:50:10 12-Dec-06     901.60    1756.00      11.66      79.00
00:50:20 12-Dec-06     899.86    1751.00      11.65      79.00
00:50:30 12-Dec-06     898.10    1748.00      11.66      79.00
00:50:40 12-Dec-06     896.33    1746.00      11.67      79.00
00:50:50 12-Dec-06     894.41    1743.00      11.67      79.00
00:51:00 12-Dec-06     892.43    1739.00      11.67      79.00
00:51:10 12-Dec-06     890.38    1734.00      11.67      79.00
00:51:20 12-Dec-06     889.59    1731.00      11.66      79.00
00:51:30 12-Dec-06     890.17    1752.00      11.79      79.00
00:51:40 12-Dec-06     889.99    1746.00      11.75      79.00
00:51:50 12-Dec-06     889.99    1746.00      11.75      79.00
00:52:00 12-Dec-06     890.00    1746.00      11.75      79.00
00:52:10 12-Dec-06     890.00    1746.00      11.75      79.00
00:52:20 12-Dec-06     890.00    1744.00      11.74      79.00
00:52:30 12-Dec-06     890.01    1747.00      11.76      79.00
00:52:40 12-Dec-06     890.01    1745.00      11.75      79.00
00:52:50 12-Dec-06     890.01    1744.00      11.74      79.00
00:53:00 12-Dec-06     890.02    1750.00      11.78      79.00
00:53:10 12-Dec-06     890.02    1751.00      11.79      79.00
00:53:20 12-Dec-06     890.02    1748.00      11.77      79.00
00:53:30 12-Dec-06     890.03    1746.00      11.75      79.00
00:53:40 12-Dec-06     890.03    1750.00      11.78      79.00
00:53:50 12-Dec-06     890.03    1751.00      11.79      79.00
00:54:00 12-Dec-06     890.04    1745.00      11.74      79.00
00:54:10 12-Dec-06     890.04    1744.00      11.74      79.00
00:54:20 12-Dec-06     890.04    1745.00      11.74      79.00
00:54:30 12-Dec-06     889.38    1746.00      11.76      79.00
00:54:40 12-Dec-06     887.64    1731.00      11.68      79.00
00:54:50 12-Dec-06     885.69    1721.00      11.64      79.00
00:55:00 12-Dec-06     884.75    1722.00      11.66      79.00
00:55:10 12-Dec-06     883.47    1717.00      11.64      79.00
00:55:20 12-Dec-06     882.00    1717.00      11.66      79.00
00:55:30 12-Dec-06     880.54    1714.00      11.66      79.00
00:55:40 12-Dec-06     878.98    1711.00      11.66      79.00
00:55:50 12-Dec-06     877.77    1707.00      11.65      79.00
00:56:00 12-Dec-06     880.29    1724.00      11.73      79.00
00:56:10 12-Dec-06     880.08    1732.00      11.79      79.00
00:56:20 12-Dec-06     878.74    1718.00      11.71      79.00
00:56:30 12-Dec-06     877.40    1709.00      11.67      79.00
00:56:40 12-Dec-06     875.97    1703.00      11.65      79.00
00:56:50 12-Dec-06     874.47    1701.00      11.66      79.00
00:57:00 12-Dec-06     872.77    1697.00      11.65      79.00
00:57:10 12-Dec-06     871.15    1695.00      11.66      78.00
00:57:20 12-Dec-06     869.38    1691.00      11.66      78.00
00:57:30 12-Dec-06     867.95    1689.00      11.66      78.00
00:57:40 12-Dec-06     866.82    1688.00      11.67      78.00
00:57:50 12-Dec-06     865.51    1686.00      11.68      78.00
00:58:00 12-Dec-06     864.05    1682.00      11.67      78.00
00:58:10 12-Dec-06     862.59    1680.00      11.67      78.00
00:58:20 12-Dec-06     861.03    1675.00      11.66      78.00
00:58:30 12-Dec-06     860.21    1673.00      11.66      78.00
00:58:40 12-Dec-06     860.76    1687.00      11.75      78.00
00:58:50 12-Dec-06     860.76    1688.00      11.76      78.00
00:59:00 12-Dec-06     860.75    1689.00      11.76      78.00
00:59:10 12-Dec-06     860.75    1689.00      11.76      78.00
00:59:20 12-Dec-06     860.75    1686.00      11.74      78.00
00:59:30 12-Dec-06     860.75    1685.00      11.74      78.00
00:59:40 12-Dec-06     860.75    1689.00      11.76      78.00
00:59:50 12-Dec-06     860.75    1690.00      11.77      78.00
01:00:00 12-Dec-06     860.74    1688.00      11.76      78.00
01:00:10 12-Dec-06     860.74    1686.00      11.74      78.00
01:00:20 12-Dec-06     860.74    1687.00      11.75      78.00
01:00:30 12-Dec-06     860.74    1686.00      11.74      78.00
01:00:40 12-Dec-06     860.73    1686.00      11.74      78.00
01:00:50 12-Dec-06     860.73    1685.00      11.74      78.00
01:01:00 12-Dec-06     860.73    1687.00      11.75      78.00
01:01:10 12-Dec-06     860.73    1687.00      11.75      78.00
01:01:20 12-Dec-06     860.73    1690.00      11.77      78.00
01:01:30 12-Dec-06     860.24    1687.00      11.76      78.00
01:01:40 12-Dec-06     858.47    1673.00      11.68      78.00
01:01:50 12-Dec-06     856.43    1664.00      11.65      78.00
01:02:00 12-Dec-06     854.33    1662.00      11.66      78.00
01:02:10 12-Dec-06     852.19    1659.00      11.67      78.00
01:02:20 12-Dec-06     850.06    1655.00      11.67      78.00
01:02:30 12-Dec-06     847.90    1651.00      11.68      78.00
01:02:40 12-Dec-06     845.64    1646.00      11.67      78.00
01:02:50 12-Dec-06     843.32    1643.00      11.68      78.00
01:03:00 12-Dec-06     841.52    1639.00      11.68      78.00
01:03:10 12-Dec-06     839.57    1636.00      11.69      78.00
01:03:20 12-Dec-06     837.50    1631.00      11.68      78.00
01:03:30 12-Dec-06     835.37    1628.00      11.69      78.00
01:03:40 12-Dec-06     833.23    1623.00      11.68      78.00
01:03:50 12-Dec-06     831.25    1618.00      11.68      78.00
01:04:00 12-Dec-06     830.79    1614.00      11.65      78.00
01:04:10 12-Dec-06     831.07    1631.00      11.77      78.00
01:04:20 12-Dec-06     831.06    1634.00      11.80      78.00
01:04:30 12-Dec-06     831.06    1633.00      11.79      78.00
01:04:40 12-Dec-06     831.05    1634.00      11.80      78.00
01:04:50 12-Dec-06     831.05    1633.00      11.79      78.00
01:05:00 12-Dec-06     831.04    1631.00      11.77      78.00
01:05:10 12-Dec-06     831.04    1629.00      11.76      78.00
01:05:20 12-Dec-06     831.03    1630.00      11.77      78.00
01:05:30 12-Dec-06     831.03    1633.00      11.79      78.00
01:05:40 12-Dec-06     831.02    1629.00      11.76      78.00
01:05:50 12-Dec-06     831.02    1628.00      11.75      78.00
01:06:00 12-Dec-06     831.01    1629.00      11.76      78.00
01:06:10 12-Dec-06     830.86    1635.00      11.81      78.00
01:06:20 12-Dec-06     830.19    1625.00      11.74      78.00
01:06:30 12-Dec-06     828.66    1614.00      11.69      78.00
01:06:40 12-Dec-06     826.86    1607.00      11.66      78.00
01:06:50 12-Dec-06     824.97    1605.00      11.67      78.00
01:07:00 12-Dec-06     823.05    1601.00      11.67      78.00
01:07:10 12-Dec-06     821.04    1596.00      11.66      78.00
01:07:20 12-Dec-06     818.97    1593.00      11.67      78.00
01:07:30 12-Dec-06     817.20    1591.00      11.68      78.00
01:07:40 12-Dec-06     815.49    1587.00      11.68      78.00
01:07:50 12-Dec-06     813.88    1585.00      11.69      78.00
01:08:00 12-Dec-06     812.17    1578.00      11.66      78.00
01:08:10 12-Dec-06     810.44    1578.00      11.69      78.00
01:08:20 12-Dec-06     808.67    1575.00      11.69      78.00
01:08:30 12-Dec-06     806.87    1571.00      11.69      78.00
01:08:40 12-Dec-06     805.07    1569.00      11.70      78.00
01:08:50 12-Dec-06     805.28    1567.00      11.68      78.00
