~Version Information
VERS.             2.0 : CWLS log ASCII standard - Version 2.0
WRAP.             NO  : One line per depth step
#
~Well Information Block
#MNEM.UNIT                   Data Type:Information
#__________________________________________________________
  STRT.           09-DEC-2006 16:00:00 : START INDEX                   
  STOP.           12-DEC-2006 10:00:00 : STOP INDEX                    
  STEP.SEC           10.0000 : STEP                          
  NULL.              -999.25 : NULL VALUE                    
  COMP.              Company : COMPANY                       
  WELL.            W2        : WELL                          
   FLD.        Block : FIELD                         
   LOC.             Offshore : LOCATION                      
  PROV.                      : PROVINCE                      
  CNTY.                      : COUNTY                        
  STAT.                State : STATE                         
  CTRY.                India : COUNTRY                       
  SRVC.                      : SERVICE COMPANY               
  DATE.           09-DEC-2006 10:32:50 : LOG DATE                      
   UWI.                      : UNIQUE WELL ID                
   API.                      : API NUMBER                    
#
~Curve Information Block
#MNEM.UNIT                     : Curve Description
#---------                     --------------------
TIME	    .HHMMSS	       : 
DATE	    .D		       : 
RM_DEPTH    .M                 : LWDRM 1HZ River Depth                                           
APRS_ARC    .PSI               : ARC Annular Pressure                                            
ECD_ARC     .PPG               : Equivalent Circulating Density                                  
ATMP        .DEGC              : ARC Annular Temperature                                         
#
~Parameter Information Block
#MNEM.UNIT                       Value:Description
#__________________________________________________________
#
~Other Information Block

#
~A TIME       DATE   RM_DEPTH   APRS_ARC    ECD_ARC       ATMP
# ...
00:49:10 10-Dec-06     557.04     952.00      10.37      51.00
00:49:20 10-Dec-06     557.20     952.00      10.36      51.00
00:49:30 10-Dec-06     557.39     952.00      10.36      51.00
00:49:40 10-Dec-06     557.45     952.00      10.36      51.00
00:49:50 10-Dec-06     557.59     953.00      10.37      51.00
00:50:00 10-Dec-06     557.68     954.00      10.38      51.00
00:50:10 10-Dec-06     557.81     954.00      10.37      51.00
00:50:20 10-Dec-06     557.96     954.00      10.37      51.00
00:50:30 10-Dec-06     558.07     955.00      10.38      51.00
00:50:40 10-Dec-06     558.22     955.00      10.38      51.00
00:50:50 10-Dec-06     558.32     956.00      10.38      51.00
00:51:00 10-Dec-06     558.42     955.00      10.37      51.00
00:51:10 10-Dec-06     558.54     956.00      10.38      51.00
00:51:20 10-Dec-06     558.65     956.00      10.38      51.00
00:51:30 10-Dec-06     558.77     956.00      10.38      51.00
00:51:40 10-Dec-06     558.91     957.00      10.38      51.00
00:51:50 10-Dec-06     559.01     957.00      10.38      51.00
00:52:00 10-Dec-06     559.11     957.00      10.38      51.00
00:52:10 10-Dec-06     559.29     957.00      10.38      51.00
00:52:20 10-Dec-06     559.41     958.00      10.39      51.00
00:52:30 10-Dec-06     559.51     958.00      10.38      51.00
00:52:40 10-Dec-06     559.58     959.00      10.39      51.00
00:52:50 10-Dec-06     559.70     959.00      10.39      51.00
00:53:00 10-Dec-06     559.79     959.00      10.39      51.00
00:53:10 10-Dec-06     559.93     959.00      10.39      51.00
00:53:20 10-Dec-06     560.04     960.00      10.40      51.00
00:53:30 10-Dec-06     560.12     960.00      10.39      51.00
00:53:40 10-Dec-06     560.20     960.00      10.39      51.00
00:53:50 10-Dec-06     560.26     960.00      10.39      51.00
00:54:00 10-Dec-06     560.33     960.00      10.39      51.00
00:54:10 10-Dec-06     560.40     960.00      10.39      51.00
00:54:20 10-Dec-06     560.48     961.00      10.40      51.00
00:54:30 10-Dec-06     560.56     960.00      10.39      51.00
00:54:40 10-Dec-06     560.65     961.00      10.39      51.00
00:54:50 10-Dec-06     560.74     961.00      10.39      51.00
00:55:00 10-Dec-06     560.86     961.00      10.39      51.00
00:55:10 10-Dec-06     560.98     961.00      10.39      51.00
00:55:20 10-Dec-06     561.08     962.00      10.40      51.00
00:55:30 10-Dec-06     561.18     962.00      10.40      51.00
00:55:40 10-Dec-06     561.30     962.00      10.39      51.00
00:55:50 10-Dec-06     561.47     963.00      10.40      51.00
00:56:00 10-Dec-06     561.58     963.00      10.40      51.00
00:56:10 10-Dec-06     561.79     963.00      10.39      51.00
00:56:20 10-Dec-06     561.95     963.00      10.39      52.00
00:56:30 10-Dec-06     562.10     964.00      10.40      52.00
00:56:40 10-Dec-06     562.23     964.00      10.40      52.00
00:56:50 10-Dec-06     562.42     964.00      10.39      52.00
00:57:00 10-Dec-06     562.54     964.00      10.39      52.00
00:57:10 10-Dec-06     562.71     965.00      10.40      52.00
00:57:20 10-Dec-06     562.87     966.00      10.41      52.00
00:57:30 10-Dec-06     562.97     966.00      10.40      52.00
00:57:40 10-Dec-06     563.00     965.00      10.39      52.00
00:57:50 10-Dec-06     563.15     966.00      10.40      52.00
00:58:00 10-Dec-06     563.24     967.00      10.41      52.00
00:58:10 10-Dec-06     563.36     967.00      10.41      52.00
00:58:20 10-Dec-06     563.51     967.00      10.40      52.00
00:58:30 10-Dec-06     563.61     966.00      10.39      52.00
00:58:40 10-Dec-06     563.70     967.00      10.40      52.00
00:58:50 10-Dec-06     563.80     967.00      10.40      52.00
00:59:00 10-Dec-06     563.90     967.00      10.40      52.00
00:59:10 10-Dec-06     564.05     968.00      10.40      52.00
00:59:20 10-Dec-06     564.17     968.00      10.40      52.00
00:59:30 10-Dec-06     564.29     969.00      10.41      52.00
00:59:40 10-Dec-06     564.40     969.00      10.41      52.00
00:59:50 10-Dec-06     564.57     969.00      10.41      52.00
01:00:00 10-Dec-06     564.68     969.00      10.40      52.00
01:00:10 10-Dec-06     564.79     969.00      10.40      52.00
01:00:20 10-Dec-06     564.94     970.00      10.41      52.00
01:00:30 10-Dec-06     565.06     970.00      10.41      52.00
01:00:40 10-Dec-06     565.16     971.00      10.42      52.00
01:00:50 10-Dec-06     565.28     971.00      10.41      52.00
01:01:00 10-Dec-06     565.40     971.00      10.41      52.00
01:01:10 10-Dec-06     565.51     970.00      10.40      52.00
01:01:20 10-Dec-06     565.64     971.00      10.41      52.00
01:01:30 10-Dec-06     565.79     971.00      10.40      52.00
01:01:40 10-Dec-06     565.94     971.00      10.40      52.00
01:01:50 10-Dec-06     566.12     972.00      10.41      52.00
01:02:00 10-Dec-06     566.35     972.00      10.40      52.00
01:02:10 10-Dec-06     566.50     973.00      10.41      52.00
01:02:20 10-Dec-06     566.75     974.00      10.42      52.00
01:02:30 10-Dec-06     566.88     974.00      10.42      52.00
01:02:40 10-Dec-06     567.11     975.00      10.42      52.00
01:02:50 10-Dec-06     567.16     974.00      10.41      52.00
01:03:00 10-Dec-06     567.29     975.00      10.42      52.00
01:03:10 10-Dec-06     567.49     976.00      10.43      52.00
01:03:20 10-Dec-06     567.63     976.00      10.42      52.00
01:03:30 10-Dec-06     567.75     976.00      10.42      52.00
01:03:40 10-Dec-06     567.89     976.00      10.42      52.00
01:03:50 10-Dec-06     568.04     976.00      10.41      52.00
01:04:00 10-Dec-06     568.15     977.00      10.42      52.00
01:04:10 10-Dec-06     568.28     976.00      10.41      52.00
01:04:20 10-Dec-06     568.38     976.00      10.41      52.00
01:04:30 10-Dec-06     568.49     977.00      10.42      52.00
01:04:40 10-Dec-06     568.59     977.00      10.42      52.00
01:04:50 10-Dec-06     568.70     977.00      10.41      52.00
01:05:00 10-Dec-06     568.81     977.00      10.41      52.00
01:05:10 10-Dec-06     568.94     978.00      10.42      52.00
01:05:20 10-Dec-06     569.06     978.00      10.42      52.00
01:05:30 10-Dec-06     569.17     977.00      10.40      52.00
01:05:40 10-Dec-06     569.29     978.00      10.41      52.00
01:05:50 10-Dec-06     569.43     978.00      10.41      52.00
01:06:00 10-Dec-06     569.56     979.00      10.42      52.00
01:06:10 10-Dec-06     569.67     978.00      10.41      52.00
01:06:20 10-Dec-06     569.79     979.00      10.41      52.00
01:06:30 10-Dec-06     569.89     979.00      10.41      52.00
01:06:40 10-Dec-06     569.99     979.00      10.41      52.00
01:06:50 10-Dec-06     570.11     979.00      10.41      52.00
01:07:00 10-Dec-06     570.22     980.00      10.42      52.00
01:07:10 10-Dec-06     570.34     981.00      10.42      52.00
01:07:20 10-Dec-06     570.48     981.00      10.42      52.00
01:07:30 10-Dec-06     570.59     981.00      10.42      52.00
01:07:40 10-Dec-06     570.71     981.00      10.42      52.00
01:07:50 10-Dec-06     570.88     981.00      10.41      52.00
01:08:00 10-Dec-06     570.98     981.00      10.41      52.00
01:08:10 10-Dec-06     571.11     981.00      10.41      52.00
01:08:20 10-Dec-06     571.16     981.00      10.41      52.00
01:08:30 10-Dec-06     571.20     981.00      10.41      52.00
01:08:40 10-Dec-06     571.01     981.00      10.41      52.00
01:08:50 10-Dec-06     570.19     979.00      10.41      52.00
01:09:00 10-Dec-06     568.97     977.00      10.41      52.00
01:09:10 10-Dec-06     567.42     975.00      10.42      52.00
01:09:20 10-Dec-06     565.83     972.00      10.41      52.00
01:09:30 10-Dec-06     564.16     969.00      10.41      52.00
01:09:40 10-Dec-06     562.45     966.00      10.41      52.00
01:09:50 10-Dec-06     561.23     963.00      10.40      52.00
01:10:00 10-Dec-06     559.77     960.00      10.40      52.00
01:10:10 10-Dec-06     558.15     958.00      10.41      52.00
