~Version Information
VERS.             2.0 : CWLS log ASCII standard - Version 2.0
WRAP.             NO  : One line per depth step
#
~Well Information Block
#MNEM.UNIT                   Data Type:Information
#__________________________________________________________
  STRT.           09-DEC-2006 16:00:00 : START INDEX                   
  STOP.           12-DEC-2006 10:00:00 : STOP INDEX                    
  STEP.SEC           10.0000 : STEP                          
  NULL.              -999.25 : NULL VALUE                    
  COMP.              Company : COMPANY                       
  WELL.            W2        : WELL                          
   FLD.        Block : FIELD                         
   LOC.             Offshore : LOCATION                      
  PROV.                      : PROVINCE                      
  CNTY.                      : COUNTY                        
  STAT.                State : STATE                         
  CTRY.                India : COUNTRY                       
  SRVC.                      : SERVICE COMPANY               
  DATE.           09-DEC-2006 10:32:50 : LOG DATE                      
   UWI.                      : UNIQUE WELL ID                
   API.                      : API NUMBER                    
#
~Curve Information Block
#MNEM.UNIT                     : Curve Description
#---------                     --------------------
TIME	    .HHMMSS	       : 
DATE	    .D		       : 
RM_DEPTH    .M                 : LWDRM 1HZ River Depth                                           
APRS_ARC    .PSI               : ARC Annular Pressure                                            
ECD_ARC     .PPG               : Equivalent Circulating Density                                  
ATMP        .DEGC              : ARC Annular Temperature                                         
#
~Parameter Information Block
#MNEM.UNIT                       Value:Description
#__________________________________________________________
#
~Other Information Block

#
~A TIME       DATE   RM_DEPTH   APRS_ARC    ECD_ARC       ATMP
# ...
22:41:30 10-Dec-06    1143.82    2065.00      10.77      69.00
22:41:40 10-Dec-06    1143.92    2065.00      10.77      69.00
22:41:50 10-Dec-06    1143.97    2066.00      10.77      69.00
22:42:00 10-Dec-06    1144.07    2065.00      10.76      69.00
22:42:10 10-Dec-06    1144.19    2066.00      10.77      69.00
22:42:20 10-Dec-06    1144.32    2066.00      10.77      69.00
22:42:30 10-Dec-06    1144.45    2066.00      10.77      69.00
22:42:40 10-Dec-06    1144.57    2066.00      10.76      69.00
22:42:50 10-Dec-06    1144.72    2066.00      10.76      69.00
22:43:00 10-Dec-06    1144.84    2067.00      10.77      69.00
22:43:10 10-Dec-06    1145.00    2067.00      10.77      69.00
22:43:20 10-Dec-06    1145.16    2068.00      10.77      69.00
22:43:30 10-Dec-06    1145.33    2068.00      10.77      69.00
22:43:40 10-Dec-06    1145.47    2068.00      10.77      69.00
22:43:50 10-Dec-06    1145.62    2069.00      10.77      69.00
22:44:00 10-Dec-06    1145.75    2069.00      10.77      69.00
22:44:10 10-Dec-06    1145.90    2069.00      10.77      69.00
22:44:20 10-Dec-06    1146.02    2071.00      10.78      69.00
22:44:30 10-Dec-06    1146.19    2070.00      10.77      69.00
22:44:40 10-Dec-06    1146.31    2071.00      10.77      69.00
22:44:50 10-Dec-06    1146.44    2071.00      10.77      69.00
22:45:00 10-Dec-06    1146.57    2071.00      10.77      69.00
22:45:10 10-Dec-06    1146.70    2073.00      10.78      69.00
22:45:20 10-Dec-06    1146.84    2072.00      10.77      69.00
22:45:30 10-Dec-06    1146.99    2073.00      10.78      69.00
22:45:40 10-Dec-06    1147.11    2074.00      10.78      69.00
22:45:50 10-Dec-06    1147.24    2074.00      10.78      69.00
22:46:00 10-Dec-06    1147.36    2074.00      10.78      69.00
22:46:10 10-Dec-06    1147.50    2075.00      10.78      69.00
22:46:20 10-Dec-06    1147.63    2075.00      10.78      69.00
22:46:30 10-Dec-06    1147.75    2075.00      10.78      69.00
22:46:40 10-Dec-06    1147.90    2076.00      10.78      69.00
22:46:50 10-Dec-06    1148.04    2076.00      10.78      69.00
22:47:00 10-Dec-06    1148.17    2076.00      10.78      69.00
22:47:10 10-Dec-06    1148.27    2076.00      10.78      69.00
22:47:20 10-Dec-06    1148.42    2078.00      10.79      69.00
22:47:30 10-Dec-06    1148.55    2078.00      10.79      69.00
22:47:40 10-Dec-06    1148.67    2078.00      10.79      69.00
22:47:50 10-Dec-06    1148.79    2078.00      10.79      69.00
22:48:00 10-Dec-06    1148.93    2078.00      10.78      69.00
22:48:10 10-Dec-06    1149.03    2079.00      10.79      69.00
22:48:20 10-Dec-06    1149.16    2079.00      10.79      69.00
22:48:30 10-Dec-06    1149.30    2080.00      10.79      69.00
22:48:40 10-Dec-06    1149.42    2080.00      10.79      69.00
22:48:50 10-Dec-06    1149.54    2081.00      10.79      69.00
22:49:00 10-Dec-06    1149.66    2081.00      10.79      69.00
22:49:10 10-Dec-06    1149.80    2081.00      10.79      69.00
22:49:20 10-Dec-06    1149.95    2081.00      10.79      69.00
22:49:30 10-Dec-06    1150.10    2081.00      10.79      69.00
22:49:40 10-Dec-06    1150.23    2082.00      10.79      69.00
22:49:50 10-Dec-06    1150.37    2083.00      10.80      69.00
22:50:00 10-Dec-06    1150.50    2083.00      10.80      69.00
22:50:10 10-Dec-06    1150.63    2084.00      10.80      69.00
22:50:20 10-Dec-06    1150.77    2084.00      10.80      69.00
22:50:30 10-Dec-06    1150.91    2085.00      10.80      69.00
22:50:40 10-Dec-06    1151.03    2085.00      10.80      69.00
22:50:50 10-Dec-06    1151.13    2086.00      10.81      69.00
22:51:00 10-Dec-06    1151.25    2086.00      10.80      69.00
22:51:10 10-Dec-06    1151.37    2086.00      10.80      69.00
22:51:20 10-Dec-06    1151.49    2087.00      10.81      69.00
22:51:30 10-Dec-06    1151.59    2087.00      10.81      69.00
22:51:40 10-Dec-06    1151.70    2088.00      10.81      69.00
22:51:50 10-Dec-06    1151.87    2088.00      10.81      69.00
22:52:00 10-Dec-06    1152.01    2089.00      10.81      69.00
22:52:10 10-Dec-06    1152.13    2089.00      10.81      69.00
22:52:20 10-Dec-06    1152.25    2089.00      10.81      69.00
22:52:30 10-Dec-06    1152.37    2090.00      10.81      69.00
22:52:40 10-Dec-06    1152.49    2091.00      10.82      69.00
22:52:50 10-Dec-06    1152.60    2091.00      10.82      69.00
22:53:00 10-Dec-06    1152.71    2092.00      10.82      69.00
22:53:10 10-Dec-06    1152.80    2092.00      10.82      69.00
22:53:20 10-Dec-06    1152.94    2092.00      10.82      69.00
22:53:30 10-Dec-06    1153.06    2093.00      10.82      69.00
22:53:40 10-Dec-06    1153.15    2093.00      10.82      69.00
22:53:50 10-Dec-06    1153.26    2094.00      10.83      69.00
22:54:00 10-Dec-06    1153.37    2094.00      10.83      69.00
22:54:10 10-Dec-06    1153.47    2095.00      10.83      69.00
22:54:20 10-Dec-06    1153.58    2095.00      10.83      69.00
22:54:30 10-Dec-06    1153.67    2095.00      10.83      69.00
22:54:40 10-Dec-06    1153.77    2095.00      10.83      69.00
22:54:50 10-Dec-06    1153.86    2096.00      10.83      69.00
22:55:00 10-Dec-06    1153.96    2096.00      10.83      69.00
22:55:10 10-Dec-06    1154.06    2096.00      10.83      69.00
22:55:20 10-Dec-06    1154.14    2097.00      10.83      69.00
22:55:30 10-Dec-06    1154.20    2097.00      10.83      69.00
22:55:40 10-Dec-06    1154.27    2097.00      10.83      70.00
22:55:50 10-Dec-06    1154.32    2098.00      10.84      70.00
22:56:00 10-Dec-06    1154.38    2098.00      10.84      70.00
22:56:10 10-Dec-06    1154.31    2098.00      10.84      70.00
22:56:20 10-Dec-06    1152.79    2097.00      10.85      70.00
22:56:30 10-Dec-06    1150.90    2094.00      10.85      70.00
22:56:40 10-Dec-06    1149.31    2091.00      10.85      70.00
22:56:50 10-Dec-06    1147.76    2086.00      10.84      70.00
22:57:00 10-Dec-06    1146.36    2084.00      10.84      70.00
22:57:10 10-Dec-06    1144.80    2082.00      10.85      70.00
22:57:20 10-Dec-06    1143.49    2078.00      10.84      70.00
22:57:30 10-Dec-06    1142.15    2080.00      10.86      70.00
22:57:40 10-Dec-06    1140.96    2073.00      10.84      70.00
22:57:50 10-Dec-06    1139.62    2074.00      10.85      70.00
22:58:00 10-Dec-06    1138.40    2070.00      10.84      70.00
22:58:10 10-Dec-06    1137.09    2069.00      10.85      70.00
22:58:20 10-Dec-06    1135.84    2065.00      10.84      70.00
22:58:30 10-Dec-06    1134.71    2064.00      10.85      70.00
22:58:40 10-Dec-06    1133.28    2062.00      10.85      70.00
22:58:50 10-Dec-06    1131.97    2063.00      10.87      70.00
22:59:00 10-Dec-06    1130.60    2057.00      10.85      70.00
22:59:10 10-Dec-06    1129.26    2053.00      10.84      70.00
22:59:20 10-Dec-06    1127.88    2055.00      10.87      70.00
22:59:30 10-Dec-06    1126.54    2049.00      10.85      70.00
22:59:40 10-Dec-06    1125.20    2048.00      10.86      70.00
22:59:50 10-Dec-06    1126.08    2050.00      10.86      70.00
23:00:00 10-Dec-06    1130.08    2059.00      10.87      70.00
23:00:10 10-Dec-06    1135.84    2067.00      10.85      70.00
23:00:20 10-Dec-06    1140.90    2075.00      10.85      70.00
23:00:30 10-Dec-06    1145.01    2080.00      10.83      70.00
23:00:40 10-Dec-06    1149.40    2089.00      10.84      70.00
23:00:50 10-Dec-06    1152.85    2098.00      10.85      70.00
23:01:00 10-Dec-06    1153.74    2095.00      10.83      70.00
23:01:10 10-Dec-06    1153.76    2098.00      10.84      70.00
23:01:20 10-Dec-06    1154.25    2100.00      10.85      70.00
23:01:30 10-Dec-06    1153.85    2097.00      10.84      70.00
23:01:40 10-Dec-06    1152.30    2098.00      10.86      70.00
23:01:50 10-Dec-06    1150.84    2089.00      10.82      70.00
23:02:00 10-Dec-06    1150.28    2090.00      10.83      70.00
23:02:10 10-Dec-06    1152.45    2095.00      10.84      70.00
23:02:20 10-Dec-06    1153.94    2096.00      10.83      70.00
23:02:30 10-Dec-06    1154.04    2099.00      10.84      70.00
