~Version Information
VERS.             2.0 : CWLS log ASCII standard - Version 2.0
WRAP.             NO  : One line per depth step
#
~Well Information Block
#MNEM.UNIT                   Data Type:Information
#__________________________________________________________
  STRT.           09-DEC-2006 16:00:00 : START INDEX                   
  STOP.           12-DEC-2006 10:00:00 : STOP INDEX                    
  STEP.SEC           10.0000 : STEP                          
  NULL.              -999.25 : NULL VALUE                    
  COMP.              Company : COMPANY                       
  WELL.            W2        : WELL                          
   FLD.        Block : FIELD                         
   LOC.             Offshore : LOCATION                      
  PROV.                      : PROVINCE                      
  CNTY.                      : COUNTY                        
  STAT.                State : STATE                         
  CTRY.                India : COUNTRY                       
  SRVC.                      : SERVICE COMPANY               
  DATE.           09-DEC-2006 10:32:50 : LOG DATE                      
   UWI.                      : UNIQUE WELL ID                
   API.                      : API NUMBER                    
#
~Curve Information Block
#MNEM.UNIT                     : Curve Description
#---------                     --------------------
TIME	    .HHMMSS	       : 
DATE	    .D		       : 
RM_DEPTH    .M                 : LWDRM 1HZ River Depth                                           
APRS_ARC    .PSI               : ARC Annular Pressure                                            
ECD_ARC     .PPG               : Equivalent Circulating Density                                  
ATMP        .DEGC              : ARC Annular Temperature                                         
#
~Parameter Information Block
#MNEM.UNIT                       Value:Description
#__________________________________________________________
#
~Other Information Block

#
~A TIME       DATE   RM_DEPTH   APRS_ARC    ECD_ARC       ATMP
# ...
13:52:20 10-Dec-06     896.42    1603.00      10.71      66.00
13:52:30 10-Dec-06     896.50    1605.00      10.72      66.00
13:52:40 10-Dec-06     896.59    1605.00      10.72      66.00
13:52:50 10-Dec-06     896.67    1605.00      10.72      66.00
13:53:00 10-Dec-06     896.76    1605.00      10.72      66.00
13:53:10 10-Dec-06     896.83    1605.00      10.72      66.00
13:53:20 10-Dec-06     896.93    1605.00      10.72      66.00
13:53:30 10-Dec-06     897.03    1606.00      10.72      66.00
13:53:40 10-Dec-06     897.11    1605.00      10.72      66.00
13:53:50 10-Dec-06     897.19    1606.00      10.72      66.00
13:54:00 10-Dec-06     897.29    1606.00      10.72      66.00
13:54:10 10-Dec-06     897.38    1607.00      10.73      66.00
13:54:20 10-Dec-06     897.47    1606.00      10.72      66.00
13:54:30 10-Dec-06     897.56    1607.00      10.72      66.00
13:54:40 10-Dec-06     897.64    1607.00      10.72      66.00
13:54:50 10-Dec-06     897.73    1607.00      10.72      66.00
13:55:00 10-Dec-06     897.80    1608.00      10.73      66.00
13:55:10 10-Dec-06     897.86    1607.00      10.72      66.00
13:55:20 10-Dec-06     897.94    1607.00      10.72      66.00
13:55:30 10-Dec-06     898.00    1608.00      10.72      66.00
13:55:40 10-Dec-06     898.08    1608.00      10.72      66.00
13:55:50 10-Dec-06     898.16    1608.00      10.72      66.00
13:56:00 10-Dec-06     898.22    1608.00      10.72      66.00
13:56:10 10-Dec-06     898.28    1608.00      10.72      66.00
13:56:20 10-Dec-06     898.37    1608.00      10.72      66.00
13:56:30 10-Dec-06     898.44    1608.00      10.72      66.00
13:56:40 10-Dec-06     898.52    1608.00      10.72      66.00
13:56:50 10-Dec-06     898.61    1609.00      10.72      66.00
13:57:00 10-Dec-06     898.69    1609.00      10.72      66.00
13:57:10 10-Dec-06     898.78    1609.00      10.72      66.00
13:57:20 10-Dec-06     898.87    1610.00      10.73      66.00
13:57:30 10-Dec-06     898.96    1610.00      10.73      66.00
13:57:40 10-Dec-06     899.05    1610.00      10.73      66.00
13:57:50 10-Dec-06     899.13    1610.00      10.72      66.00
13:58:00 10-Dec-06     899.25    1610.00      10.72      66.00
13:58:10 10-Dec-06     899.33    1611.00      10.73      66.00
13:58:20 10-Dec-06     899.43    1611.00      10.73      66.00
13:58:30 10-Dec-06     899.51    1611.00      10.73      66.00
13:58:40 10-Dec-06     899.62    1611.00      10.73      66.00
13:58:50 10-Dec-06     899.78    1611.00      10.72      66.00
13:59:00 10-Dec-06     899.93    1613.00      10.73      66.00
13:59:10 10-Dec-06     900.02    1613.00      10.73      66.00
13:59:20 10-Dec-06     900.13    1613.00      10.73      66.00
13:59:30 10-Dec-06     900.23    1613.00      10.73      66.00
13:59:40 10-Dec-06     900.34    1614.00      10.74      66.00
13:59:50 10-Dec-06     900.42    1614.00      10.74      66.00
14:00:00 10-Dec-06     900.53    1614.00      10.73      66.00
14:00:10 10-Dec-06     900.64    1614.00      10.73      66.00
14:00:20 10-Dec-06     900.73    1615.00      10.74      66.00
14:00:30 10-Dec-06     900.82    1615.00      10.74      66.00
14:00:40 10-Dec-06     900.90    1615.00      10.74      66.00
14:00:50 10-Dec-06     901.05    1615.00      10.73      66.00
14:01:00 10-Dec-06     901.14    1616.00      10.74      66.00
14:01:10 10-Dec-06     901.22    1616.00      10.74      66.00
14:01:20 10-Dec-06     901.31    1616.00      10.74      66.00
14:01:30 10-Dec-06     901.40    1617.00      10.74      66.00
14:01:40 10-Dec-06     901.51    1616.00      10.74      66.00
14:01:50 10-Dec-06     901.66    1617.00      10.74      66.00
14:02:00 10-Dec-06     901.82    1617.00      10.74      66.00
14:02:10 10-Dec-06     901.92    1618.00      10.74      66.00
14:02:20 10-Dec-06     902.11    1618.00      10.74      66.00
14:02:30 10-Dec-06     902.28    1618.00      10.74      66.00
14:02:40 10-Dec-06     902.40    1619.00      10.74      66.00
14:02:50 10-Dec-06     902.49    1620.00      10.75      66.00
14:03:00 10-Dec-06     902.59    1620.00      10.75      66.00
14:03:10 10-Dec-06     902.71    1620.00      10.75      66.00
14:03:20 10-Dec-06     902.74    1620.00      10.75      66.00
14:03:30 10-Dec-06     902.83    1620.00      10.75      66.00
14:03:40 10-Dec-06     902.89    1620.00      10.75      66.00
14:03:50 10-Dec-06     902.98    1621.00      10.75      66.00
14:04:00 10-Dec-06     903.08    1621.00      10.75      66.00
14:04:10 10-Dec-06     903.22    1622.00      10.75      66.00
14:04:20 10-Dec-06     903.34    1622.00      10.75      66.00
14:04:30 10-Dec-06     903.43    1623.00      10.76      66.00
14:04:40 10-Dec-06     903.52    1623.00      10.76      66.00
14:04:50 10-Dec-06     903.62    1623.00      10.76      66.00
14:05:00 10-Dec-06     903.72    1623.00      10.76      66.00
14:05:10 10-Dec-06     903.79    1623.00      10.75      66.00
14:05:20 10-Dec-06     903.87    1624.00      10.76      66.00
14:05:30 10-Dec-06     903.95    1624.00      10.76      66.00
14:05:40 10-Dec-06     904.00    1624.00      10.76      66.00
14:05:50 10-Dec-06     904.05    1624.00      10.76      66.00
14:06:00 10-Dec-06     904.10    1624.00      10.76      66.00
14:06:10 10-Dec-06     904.17    1625.00      10.76      66.00
14:06:20 10-Dec-06     904.25    1624.00      10.76      66.00
14:06:30 10-Dec-06     904.36    1625.00      10.76      66.00
14:06:40 10-Dec-06     904.46    1625.00      10.76      66.00
14:06:50 10-Dec-06     904.63    1625.00      10.76      66.00
14:07:00 10-Dec-06     904.78    1626.00      10.76      66.00
14:07:10 10-Dec-06     904.92    1626.00      10.76      66.00
14:07:20 10-Dec-06     905.01    1627.00      10.77      66.00
14:07:30 10-Dec-06     905.10    1627.00      10.76      66.00
14:07:40 10-Dec-06     905.19    1627.00      10.76      66.00
14:07:50 10-Dec-06     905.29    1627.00      10.76      66.00
14:08:00 10-Dec-06     905.41    1627.00      10.76      66.00
14:08:10 10-Dec-06     905.52    1628.00      10.77      66.00
14:08:20 10-Dec-06     905.65    1629.00      10.77      66.00
14:08:30 10-Dec-06     905.74    1629.00      10.77      66.00
14:08:40 10-Dec-06     905.82    1629.00      10.77      66.00
14:08:50 10-Dec-06     905.86    1629.00      10.77      66.00
14:09:00 10-Dec-06     905.90    1629.00      10.77      66.00
14:09:10 10-Dec-06     905.94    1630.00      10.77      66.00
14:09:20 10-Dec-06     906.00    1630.00      10.77      66.00
14:09:30 10-Dec-06     906.04    1630.00      10.77      66.00
14:09:40 10-Dec-06     906.10    1630.00      10.77      66.00
14:09:50 10-Dec-06     906.17    1630.00      10.77      66.00
14:10:00 10-Dec-06     906.22    1630.00      10.77      66.00
14:10:10 10-Dec-06     906.24    1630.00      10.77      66.00
14:10:20 10-Dec-06     906.26    1630.00      10.77      66.00
14:10:30 10-Dec-06     906.28    1630.00      10.77      66.00
14:10:40 10-Dec-06     906.32    1630.00      10.77      66.00
14:10:50 10-Dec-06     906.37    1630.00      10.77      66.00
14:11:00 10-Dec-06     906.44    1630.00      10.77      66.00
14:11:10 10-Dec-06     906.53    1630.00      10.77      66.00
14:11:20 10-Dec-06     906.58    1630.00      10.77      66.00
14:11:30 10-Dec-06     906.63    1630.00      10.77      66.00
14:11:40 10-Dec-06     906.72    1630.00      10.76      66.00
14:11:50 10-Dec-06     906.78    1631.00      10.77      67.00
14:12:00 10-Dec-06     906.85    1631.00      10.77      67.00
14:12:10 10-Dec-06     906.90    1631.00      10.77      67.00
14:12:20 10-Dec-06     906.98    1632.00      10.78      67.00
14:12:30 10-Dec-06     907.01    1631.00      10.77      67.00
14:12:40 10-Dec-06     907.05    1631.00      10.77      67.00
14:12:50 10-Dec-06     907.12    1631.00      10.77      67.00
14:13:00 10-Dec-06     907.19    1632.00      10.77      67.00
14:13:10 10-Dec-06     907.24    1632.00      10.77      67.00
14:13:20 10-Dec-06     907.29    1631.00      10.76      67.00
