~Version Information
VERS.             2.0 : CWLS log ASCII standard - Version 2.0
WRAP.             NO  : One line per depth step
#
~Well Information Block
#MNEM.UNIT                   Data Type:Information
#__________________________________________________________
  STRT.           09-DEC-2006 16:00:00 : START INDEX                   
  STOP.           12-DEC-2006 10:00:00 : STOP INDEX                    
  STEP.SEC           10.0000 : STEP                          
  NULL.              -999.25 : NULL VALUE                    
  COMP.              Company : COMPANY                       
  WELL.            W2        : WELL                          
   FLD.        Block : FIELD                         
   LOC.             Offshore : LOCATION                      
  PROV.                      : PROVINCE                      
  CNTY.                      : COUNTY                        
  STAT.                State : STATE                         
  CTRY.                India : COUNTRY                       
  SRVC.                      : SERVICE COMPANY               
  DATE.           09-DEC-2006 10:32:50 : LOG DATE                      
   UWI.                      : UNIQUE WELL ID                
   API.                      : API NUMBER                    
#
~Curve Information Block
#MNEM.UNIT                     : Curve Description
#---------                     --------------------
TIME	    .HHMMSS	       : 
DATE	    .D		       : 
RM_DEPTH    .M                 : LWDRM 1HZ River Depth                                           
APRS_ARC    .PSI               : ARC Annular Pressure                                            
ECD_ARC     .PPG               : Equivalent Circulating Density                                  
ATMP        .DEGC              : ARC Annular Temperature                                         
#
~Parameter Information Block
#MNEM.UNIT                       Value:Description
#__________________________________________________________
#
~Other Information Block

#
~A TIME       DATE   RM_DEPTH   APRS_ARC    ECD_ARC       ATMP
# ...
07:30:40 11-Dec-06    1295.97    2470.00      11.34      78.00
07:30:50 11-Dec-06    1296.02    2470.00      11.34      78.00
07:31:00 11-Dec-06    1296.07    2469.00      11.34      78.00
07:31:10 11-Dec-06    1296.15    2470.00      11.34      78.00
07:31:20 11-Dec-06    1296.22    2470.00      11.34      78.00
07:31:30 11-Dec-06    1296.27    2470.00      11.34      78.00
07:31:40 11-Dec-06    1296.35    2470.00      11.34      78.00
07:31:50 11-Dec-06    1296.43    2471.00      11.35      78.00
07:32:00 11-Dec-06    1296.50    2471.00      11.34      78.00
07:32:10 11-Dec-06    1296.55    2470.00      11.34      78.00
07:32:20 11-Dec-06    1296.66    2471.00      11.34      78.00
07:32:30 11-Dec-06    1296.76    2472.00      11.35      78.00
07:32:40 11-Dec-06    1296.86    2472.00      11.35      78.00
07:32:50 11-Dec-06    1296.97    2472.00      11.35      78.00
07:33:00 11-Dec-06    1297.04    2472.00      11.34      78.00
07:33:10 11-Dec-06    1297.12    2472.00      11.34      78.00
07:33:20 11-Dec-06    1297.19    2472.00      11.34      78.00
07:33:30 11-Dec-06    1297.29    2473.00      11.35      78.00
07:33:40 11-Dec-06    1297.37    2473.00      11.35      78.00
07:33:50 11-Dec-06    1297.45    2474.00      11.35      78.00
07:34:00 11-Dec-06    1297.55    2473.00      11.34      78.00
07:34:10 11-Dec-06    1297.64    2473.00      11.34      78.00
07:34:20 11-Dec-06    1297.73    2473.00      11.34      78.00
07:34:30 11-Dec-06    1297.84    2474.00      11.35      78.00
07:34:40 11-Dec-06    1297.96    2474.00      11.35      78.00
07:34:50 11-Dec-06    1298.06    2475.00      11.35      78.00
07:35:00 11-Dec-06    1298.16    2475.00      11.35      78.00
07:35:10 11-Dec-06    1298.27    2476.00      11.35      78.00
07:35:20 11-Dec-06    1298.35    2476.00      11.35      78.00
07:35:30 11-Dec-06    1298.46    2476.00      11.35      78.00
07:35:40 11-Dec-06    1298.55    2476.00      11.35      78.00
07:35:50 11-Dec-06    1298.71    2477.00      11.35      78.00
07:36:00 11-Dec-06    1298.81    2477.00      11.35      78.00
07:36:10 11-Dec-06    1298.89    2478.00      11.36      78.00
07:36:20 11-Dec-06    1298.97    2478.00      11.35      78.00
07:36:30 11-Dec-06    1299.03    2478.00      11.35      78.00
07:36:40 11-Dec-06    1299.10    2478.00      11.35      78.00
07:36:50 11-Dec-06    1299.17    2478.00      11.35      78.00
07:37:00 11-Dec-06    1299.26    2480.00      11.36      78.00
07:37:10 11-Dec-06    1299.34    2480.00      11.36      78.00
07:37:20 11-Dec-06    1299.42    2480.00      11.36      78.00
07:37:30 11-Dec-06    1299.49    2480.00      11.36      78.00
07:37:40 11-Dec-06    1299.57    2480.00      11.36      78.00
07:37:50 11-Dec-06    1299.65    2480.00      11.36      78.00
07:38:00 11-Dec-06    1299.74    2480.00      11.36      78.00
07:38:10 11-Dec-06    1299.82    2480.00      11.36      78.00
07:38:20 11-Dec-06    1299.92    2480.00      11.36      78.00
07:38:30 11-Dec-06    1300.01    2481.00      11.36      78.00
07:38:40 11-Dec-06    1300.12    2481.00      11.36      78.00
07:38:50 11-Dec-06    1300.22    2481.00      11.36      78.00
07:39:00 11-Dec-06    1300.31    2481.00      11.36      78.00
07:39:10 11-Dec-06    1300.39    2481.00      11.36      78.00
07:39:20 11-Dec-06    1300.47    2482.00      11.36      78.00
07:39:30 11-Dec-06    1300.52    2482.00      11.36      78.00
07:39:40 11-Dec-06    1300.57    2482.00      11.36      78.00
07:39:50 11-Dec-06    1300.53    2482.00      11.36      78.00
07:40:00 11-Dec-06    1299.64    2478.00      11.35      78.00
07:40:10 11-Dec-06    1298.12    2472.00      11.33      78.00
07:40:20 11-Dec-06    1296.41    2470.00      11.34      78.00
07:40:30 11-Dec-06    1294.73    2469.00      11.35      78.00
07:40:40 11-Dec-06    1293.03    2467.00      11.36      78.00
07:40:50 11-Dec-06    1291.32    2465.00      11.36      78.00
07:41:00 11-Dec-06    1289.61    2460.00      11.36      78.00
07:41:10 11-Dec-06    1287.66    2456.00      11.35      78.00
07:41:20 11-Dec-06    1285.71    2453.00      11.36      78.00
07:41:30 11-Dec-06    1283.70    2448.00      11.35      78.00
07:41:40 11-Dec-06    1281.69    2445.00      11.36      78.00
07:41:50 11-Dec-06    1279.77    2441.00      11.36      78.00
07:42:00 11-Dec-06    1277.79    2437.00      11.35      78.00
07:42:10 11-Dec-06    1275.86    2432.00      11.35      78.00
07:42:20 11-Dec-06    1273.76    2428.00      11.35      78.00
07:42:30 11-Dec-06    1271.84    2424.00      11.35      78.00
07:42:40 11-Dec-06    1272.48    2433.00      11.38      78.00
07:42:50 11-Dec-06    1274.25    2435.00      11.38      78.00
07:43:00 11-Dec-06    1276.38    2436.00      11.36      78.00
07:43:10 11-Dec-06    1278.21    2438.00      11.36      78.00
07:43:20 11-Dec-06    1280.19    2443.00      11.36      78.00
07:43:30 11-Dec-06    1282.29    2447.00      11.36      78.00
07:43:40 11-Dec-06    1284.46    2450.00      11.36      78.00
07:43:50 11-Dec-06    1286.53    2453.00      11.35      78.00
07:44:00 11-Dec-06    1288.24    2457.00      11.35      78.00
07:44:10 11-Dec-06    1289.97    2460.00      11.35      78.00
07:44:20 11-Dec-06    1291.74    2463.00      11.35      78.00
07:44:30 11-Dec-06    1293.39    2466.00      11.35      78.00
07:44:40 11-Dec-06    1294.95    2468.00      11.34      78.00
07:44:50 11-Dec-06    1294.95    2470.00      11.35      78.00
07:45:00 11-Dec-06    1295.00    2470.00      11.35      78.00
07:45:10 11-Dec-06    1295.00    2468.00      11.34      78.00
07:45:20 11-Dec-06    1294.97    2468.00      11.34      78.00
07:45:30 11-Dec-06    1295.13    2469.00      11.35      78.00
07:45:40 11-Dec-06    1295.36    2470.00      11.35      78.00
07:45:50 11-Dec-06    1295.34    2469.00      11.35      78.00
07:46:00 11-Dec-06    1295.30    2468.00      11.34      78.00
07:46:10 11-Dec-06    1295.70    2469.00      11.34      78.00
07:46:20 11-Dec-06    1295.89    2472.00      11.35      78.00
07:46:30 11-Dec-06    1296.22    2473.00      11.36      78.00
07:46:40 11-Dec-06    1296.71    2471.00      11.34      78.00
07:46:50 11-Dec-06    1296.89    2471.00      11.34      78.00
07:47:00 11-Dec-06    1297.24    2471.00      11.34      78.00
07:47:10 11-Dec-06    1297.84    2475.00      11.35      78.00
07:47:20 11-Dec-06    1298.51    2476.00      11.35      78.00
07:47:30 11-Dec-06    1299.33    2478.00      11.35      78.00
07:47:40 11-Dec-06    1300.15    2478.00      11.34      78.00
07:47:50 11-Dec-06    1300.28    2477.00      11.34      78.00
07:48:00 11-Dec-06    1300.25    2476.00      11.33      78.00
07:48:10 11-Dec-06    1299.91    2480.00      11.36      78.00
07:48:20 11-Dec-06    1299.47    2480.00      11.36      78.00
07:48:30 11-Dec-06    1298.94    2475.00      11.34      78.00
07:48:40 11-Dec-06    1298.51    2472.00      11.33      78.00
07:48:50 11-Dec-06    1298.08    2472.00      11.34      78.00
07:49:00 11-Dec-06    1297.63    2472.00      11.34      78.00
07:49:10 11-Dec-06    1297.23    2471.00      11.34      78.00
07:49:20 11-Dec-06    1296.84    2471.00      11.34      78.00
07:49:30 11-Dec-06    1296.29    2468.00      11.33      78.00
07:49:40 11-Dec-06    1295.86    2468.00      11.34      78.00
07:49:50 11-Dec-06    1295.40    2467.00      11.34      78.00
07:50:00 11-Dec-06    1294.98    2468.00      11.34      78.00
07:50:10 11-Dec-06    1294.43    2466.00      11.34      78.00
07:50:20 11-Dec-06    1293.94    2464.00      11.34      78.00
07:50:30 11-Dec-06    1293.42    2464.00      11.34      78.00
07:50:40 11-Dec-06    1293.06    2463.00      11.34      78.00
07:50:50 11-Dec-06    1292.54    2463.00      11.34      78.00
07:51:00 11-Dec-06    1292.05    2460.00      11.33      78.00
07:51:10 11-Dec-06    1291.65    2459.00      11.33      78.00
07:51:20 11-Dec-06    1291.14    2457.00      11.33      78.00
07:51:30 11-Dec-06    1290.66    2456.00      11.33      78.00
07:51:40 11-Dec-06    1290.22    2454.00      11.32      78.00
