~Version Information
VERS.             2.0 : CWLS log ASCII standard - Version 2.0
WRAP.             NO  : One line per depth step
#
~Well Information Block
#MNEM.UNIT                   Data Type:Information
#__________________________________________________________
  STRT.           09-DEC-2006 16:00:00 : START INDEX                   
  STOP.           12-DEC-2006 10:00:00 : STOP INDEX                    
  STEP.SEC           10.0000 : STEP                          
  NULL.              -999.25 : NULL VALUE                    
  COMP.              Company : COMPANY                       
  WELL.            W2        : WELL                          
   FLD.        Block : FIELD                         
   LOC.             Offshore : LOCATION                      
  PROV.                      : PROVINCE                      
  CNTY.                      : COUNTY                        
  STAT.                State : STATE                         
  CTRY.                India : COUNTRY                       
  SRVC.                      : SERVICE COMPANY               
  DATE.           09-DEC-2006 10:32:50 : LOG DATE                      
   UWI.                      : UNIQUE WELL ID                
   API.                      : API NUMBER                    
#
~Curve Information Block
#MNEM.UNIT                     : Curve Description
#---------                     --------------------
TIME	    .HHMMSS	       : 
DATE	    .D		       : 
RM_DEPTH    .M                 : LWDRM 1HZ River Depth                                           
APRS_ARC    .PSI               : ARC Annular Pressure                                            
ECD_ARC     .PPG               : Equivalent Circulating Density                                  
ATMP        .DEGC              : ARC Annular Temperature                                         
#
~Parameter Information Block
#MNEM.UNIT                       Value:Description
#__________________________________________________________
#
~Other Information Block

#
~A TIME       DATE   RM_DEPTH   APRS_ARC    ECD_ARC       ATMP
16:00:00 09-Dec-06     465.29     684.00       8.98      38.00
16:00:10 09-Dec-06     465.30     683.00       8.96      38.00
16:00:20 09-Dec-06     465.37     683.00       8.96      38.00
16:00:30 09-Dec-06     465.29     683.00       8.96      38.00
16:00:40 09-Dec-06     465.33     683.00       8.96      38.00
16:00:50 09-Dec-06     465.29     682.00       8.95      38.00
16:01:00 09-Dec-06     465.31     682.00       8.95      38.00
16:01:10 09-Dec-06     465.26     682.00       8.95      38.00
16:01:20 09-Dec-06     465.33     682.00       8.95      38.00
16:01:30 09-Dec-06     465.35     682.00       8.95      38.00
16:01:40 09-Dec-06     465.34     682.00       8.95      38.00
16:01:50 09-Dec-06     465.28     682.00       8.95      38.00
16:02:00 09-Dec-06     465.28     681.00       8.94      38.00
16:02:10 09-Dec-06     465.32     681.00       8.94      38.00
16:02:20 09-Dec-06     465.29     682.00       8.95      38.00
16:02:30 09-Dec-06     465.25     681.00       8.94      38.00
16:02:40 09-Dec-06     465.31     681.00       8.94      38.00
16:02:50 09-Dec-06     465.34     681.00       8.94      38.00
16:03:00 09-Dec-06     465.30     681.00       8.94      38.00
16:03:10 09-Dec-06     465.28     681.00       8.94      38.00
16:03:20 09-Dec-06     465.28     681.00       8.94      38.00
16:03:30 09-Dec-06     465.34     681.00       8.94      38.00
16:03:40 09-Dec-06     465.30     681.00       8.94      38.00
16:03:50 09-Dec-06     465.30     681.00       8.94      38.00
16:04:00 09-Dec-06     465.28     681.00       8.94      38.00
16:04:10 09-Dec-06     465.33     681.00       8.94      38.00
16:04:20 09-Dec-06     465.31     681.00       8.94      38.00
16:04:30 09-Dec-06     465.36     681.00       8.93      38.00
16:04:40 09-Dec-06     465.31     681.00       8.94      38.00
16:04:50 09-Dec-06     465.25     681.00       8.94      38.00
16:05:00 09-Dec-06     465.28     681.00       8.94      38.00
16:05:10 09-Dec-06     465.34     681.00       8.94      38.00
16:05:20 09-Dec-06     465.28     681.00       8.94      38.00
16:05:30 09-Dec-06     465.32     681.00       8.94      38.00
16:05:40 09-Dec-06     465.32     681.00       8.94      38.00
16:05:50 09-Dec-06     465.33     681.00       8.94      38.00
16:06:00 09-Dec-06     465.26     681.00       8.94      38.00
16:06:10 09-Dec-06     465.31     681.00       8.94      38.00
16:06:20 09-Dec-06     465.34     681.00       8.94      38.00
16:06:30 09-Dec-06     465.31     681.00       8.94      38.00
16:06:40 09-Dec-06     465.33     681.00       8.94      38.00
16:06:50 09-Dec-06     465.29     681.00       8.94      38.00
16:07:00 09-Dec-06     465.35     681.00       8.93      38.00
16:07:10 09-Dec-06     465.31     681.00       8.94      38.00
16:07:20 09-Dec-06     465.37     681.00       8.93      38.00
16:07:30 09-Dec-06     465.28     682.00       8.95      38.00
16:07:40 09-Dec-06     465.30     681.00       8.94      38.00
16:07:50 09-Dec-06     465.32     680.00       8.92      38.00
16:08:00 09-Dec-06     465.33     680.00       8.92      38.00
16:08:10 09-Dec-06     465.37     681.00       8.93      38.00
16:08:20 09-Dec-06     465.29     680.00       8.92      38.00
16:08:30 09-Dec-06     465.28     680.00       8.92      38.00
16:08:40 09-Dec-06     465.28     680.00       8.92      38.00
16:08:50 09-Dec-06     465.34     680.00       8.92      38.00
16:09:00 09-Dec-06     465.29     680.00       8.92      38.00
16:09:10 09-Dec-06     465.34     679.00       8.91      38.00
16:09:20 09-Dec-06     465.28     678.00       8.90      38.00
16:09:30 09-Dec-06     465.30     678.00       8.90      38.00
16:09:40 09-Dec-06     465.29     678.00       8.90      38.00
16:09:50 09-Dec-06     465.33     678.00       8.90      38.00
16:10:00 09-Dec-06     465.31     677.00       8.88      38.00
16:10:10 09-Dec-06     465.28     677.00       8.88      37.00
16:10:20 09-Dec-06     465.30     677.00       8.88      38.00
16:10:30 09-Dec-06     465.29     676.00       8.87      37.00
16:10:40 09-Dec-06     465.29     676.00       8.87      37.00
16:10:50 09-Dec-06     465.25     675.00       8.86      37.00
16:11:00 09-Dec-06     465.33     675.00       8.86      37.00
16:11:10 09-Dec-06     465.25     675.00       8.86      37.00
16:11:20 09-Dec-06     465.31     675.00       8.86      37.00
16:11:30 09-Dec-06     465.36     676.00       8.87      37.00
16:11:40 09-Dec-06     465.34     676.00       8.87      37.00
16:11:50 09-Dec-06     465.32     675.00       8.86      37.00
16:12:00 09-Dec-06     465.33     677.00       8.88      37.00
16:12:10 09-Dec-06     465.33     676.00       8.87      37.00
16:12:20 09-Dec-06     465.22     675.00       8.86      37.00
16:12:30 09-Dec-06     465.31     675.00       8.86      37.00
16:12:40 09-Dec-06     465.31     675.00       8.86      37.00
16:12:50 09-Dec-06     465.37     677.00       8.88      37.00
16:13:00 09-Dec-06     465.32     677.00       8.88      37.00
16:13:10 09-Dec-06     465.37     677.00       8.88      37.00
16:13:20 09-Dec-06     465.33     677.00       8.88      37.00
16:13:30 09-Dec-06     465.31     676.00       8.87      37.00
16:13:40 09-Dec-06     465.29     677.00       8.88      37.00
16:13:50 09-Dec-06     465.28     711.00       9.33      37.00
16:14:00 09-Dec-06     465.29     769.00      10.09      37.00
16:14:10 09-Dec-06     465.25     927.00      12.17      37.00
16:14:20 09-Dec-06     465.31    1069.00      14.03      37.00
16:14:30 09-Dec-06     465.37    1065.00      13.97      37.00
16:14:40 09-Dec-06     465.37    1064.00      13.96      37.00
16:14:50 09-Dec-06     465.31    1063.00      13.95      37.00
16:15:00 09-Dec-06     465.33    1062.00      13.93      37.00
16:15:10 09-Dec-06     465.28    1061.00      13.92      37.00
16:15:20 09-Dec-06     465.31    1062.00      13.93      37.00
16:15:30 09-Dec-06     465.34    1068.00      14.01      37.00
16:15:40 09-Dec-06     465.26    1079.00      14.16      37.00
16:15:50 09-Dec-06     465.31    1093.00      14.34      37.00
16:16:00 09-Dec-06     465.29    1104.00      14.49      37.00
16:16:10 09-Dec-06     465.27    1114.00      14.62      37.00
16:16:20 09-Dec-06     465.26    1134.00      14.88      37.00
16:16:30 09-Dec-06     465.29    1150.00      15.09      37.00
16:16:40 09-Dec-06     465.29    1179.00      15.47      37.00
16:16:50 09-Dec-06     465.22    1195.00      15.68      37.00
16:17:00 09-Dec-06     465.26    1224.00      16.06      37.00
16:17:10 09-Dec-06     465.28    1249.00      16.39      37.00
16:17:20 09-Dec-06     465.31    1271.00      16.68      37.00
16:17:30 09-Dec-06     465.23    1270.00      16.67      37.00
16:17:40 09-Dec-06     465.31    1276.00      16.74      37.00
16:17:50 09-Dec-06     465.39    1275.00      16.73      37.00
16:18:00 09-Dec-06     465.29    1274.00      16.72      37.00
16:18:10 09-Dec-06     465.37    1273.00      16.70      37.00
16:18:20 09-Dec-06     465.27    1273.00      16.71      37.00
16:18:30 09-Dec-06     465.32    1273.00      16.70      37.00
16:18:40 09-Dec-06     465.25    1272.00      16.69      37.00
16:18:50 09-Dec-06     465.37     970.00      12.73      37.00
16:19:00 09-Dec-06     465.31     679.00       8.91      37.00
16:19:10 09-Dec-06     465.34     680.00       8.92      37.00
16:19:20 09-Dec-06     465.29     681.00       8.94      37.00
16:19:30 09-Dec-06     465.33     681.00       8.94      37.00
16:19:40 09-Dec-06     465.32     681.00       8.94      37.00
16:19:50 09-Dec-06     465.31     681.00       8.94      37.00
16:20:00 09-Dec-06     465.35     681.00       8.93      37.00
16:20:10 09-Dec-06     465.34     681.00       8.94      37.00
16:20:20 09-Dec-06     465.31     681.00       8.94      37.00
16:20:30 09-Dec-06     465.36     682.00       8.95      37.00
16:20:40 09-Dec-06     465.34     682.00       8.95      37.00
16:20:50 09-Dec-06     465.28     682.00       8.95      37.00
16:21:00 09-Dec-06     465.34     682.00       8.95      37.00
