~Version Information
VERS.             2.0 : CWLS log ASCII standard - Version 2.0
WRAP.             NO  : One line per depth step
#
~Well Information Block
#MNEM.UNIT                   Data Type:Information
#__________________________________________________________
  STRT.           09-DEC-2006 16:00:00 : START INDEX                   
  STOP.           12-DEC-2006 10:00:00 : STOP INDEX                    
  STEP.SEC           10.0000 : STEP                          
  NULL.              -999.25 : NULL VALUE                    
  COMP.              Company : COMPANY                       
  WELL.            W2        : WELL                          
   FLD.        Block : FIELD                         
   LOC.             Offshore : LOCATION                      
  PROV.                      : PROVINCE                      
  CNTY.                      : COUNTY                        
  STAT.                State : STATE                         
  CTRY.                India : COUNTRY                       
  SRVC.                      : SERVICE COMPANY               
  DATE.           09-DEC-2006 10:32:50 : LOG DATE                      
   UWI.                      : UNIQUE WELL ID                
   API.                      : API NUMBER                    
#
~Curve Information Block
#MNEM.UNIT                     : Curve Description
#---------                     --------------------
TIME	    .HHMMSS	       : 
DATE	    .D		       : 
RM_DEPTH    .M                 : LWDRM 1HZ River Depth                                           
APRS_ARC    .PSI               : ARC Annular Pressure                                            
ECD_ARC     .PPG               : Equivalent Circulating Density                                  
ATMP        .DEGC              : ARC Annular Temperature                                         
#
~Parameter Information Block
#MNEM.UNIT                       Value:Description
#__________________________________________________________
#
~Other Information Block

#
~A TIME       DATE   RM_DEPTH   APRS_ARC    ECD_ARC       ATMP
# ...
05:03:10 10-Dec-06     687.99    1192.00      10.44      57.00
05:03:20 10-Dec-06     687.99    1195.00      10.47      56.00
05:03:30 10-Dec-06     687.98    1192.00      10.44      56.00
05:03:40 10-Dec-06     687.98    1195.00      10.47      57.00
05:03:50 10-Dec-06     687.98    1186.00      10.39      57.00
05:04:00 10-Dec-06     687.98    1189.00      10.42      57.00
05:04:10 10-Dec-06     687.97    1195.00      10.47      56.00
05:04:20 10-Dec-06     687.97    1195.00      10.47      57.00
05:04:30 10-Dec-06     687.97    1190.00      10.43      56.00
05:04:40 10-Dec-06     687.97    1192.00      10.44      57.00
05:04:50 10-Dec-06     687.96    1191.00      10.43      57.00
05:05:00 10-Dec-06     687.96    1194.00      10.46      57.00
05:05:10 10-Dec-06     687.96    1193.00      10.45      57.00
05:05:20 10-Dec-06     687.96    1188.00      10.41      57.00
05:05:30 10-Dec-06     687.95    1190.00      10.43      57.00
05:05:40 10-Dec-06     687.95    1195.00      10.47      57.00
05:05:50 10-Dec-06     687.95    1190.00      10.43      57.00
05:06:00 10-Dec-06     687.95    1189.00      10.42      57.00
05:06:10 10-Dec-06     687.94    1193.00      10.45      57.00
05:06:20 10-Dec-06     687.94    1193.00      10.45      57.00
05:06:30 10-Dec-06     687.94    1188.00      10.41      57.00
05:06:40 10-Dec-06     687.88    1189.00      10.42      57.00
05:06:50 10-Dec-06     687.35    1203.00      10.55      57.00
05:07:00 10-Dec-06     687.27    1209.00      10.60      57.00
05:07:10 10-Dec-06     687.26    1200.00      10.52      57.00
05:07:20 10-Dec-06     687.27    1200.00      10.52      57.00
05:07:30 10-Dec-06     687.35    1201.00      10.53      57.00
05:07:40 10-Dec-06     687.26    1200.00      10.52      57.00
05:07:50 10-Dec-06     687.27    1200.00      10.52      57.00
05:08:00 10-Dec-06     687.27    1198.00      10.51      57.00
05:08:10 10-Dec-06     687.34    1199.00      10.51      57.00
05:08:20 10-Dec-06     687.32    1200.00      10.52      56.00
05:08:30 10-Dec-06     687.31    1199.00      10.51      57.00
05:08:40 10-Dec-06     687.26    1197.00      10.50      57.00
05:08:50 10-Dec-06     687.23    1196.00      10.49      57.00
05:09:00 10-Dec-06     687.29    1197.00      10.50      56.00
05:09:10 10-Dec-06     687.28    1189.00      10.43      57.00
05:09:20 10-Dec-06     687.26    1190.00      10.44      56.00
05:09:30 10-Dec-06     687.24    1189.00      10.43      56.00
05:09:40 10-Dec-06     687.33    1194.00      10.47      56.00
05:09:50 10-Dec-06     687.38    1202.00      10.54      56.00
05:10:00 10-Dec-06     687.29    1202.00      10.54      56.00
05:10:10 10-Dec-06     687.29    1199.00      10.51      56.00
05:10:20 10-Dec-06     687.31    1198.00      10.51      56.00
05:10:30 10-Dec-06     687.32    1198.00      10.51      56.00
05:10:40 10-Dec-06     687.28    1198.00      10.51      56.00
05:10:50 10-Dec-06     687.32    1196.00      10.49      56.00
05:11:00 10-Dec-06     687.26    1196.00      10.49      56.00
05:11:10 10-Dec-06     687.29    1196.00      10.49      56.00
05:11:20 10-Dec-06     687.29    1195.00      10.48      56.00
05:11:30 10-Dec-06     687.26    1195.00      10.48      56.00
05:11:40 10-Dec-06     687.24    1194.00      10.47      56.00
05:11:50 10-Dec-06     687.27    1196.00      10.49      56.00
05:12:00 10-Dec-06     687.30    1195.00      10.48      56.00
05:12:10 10-Dec-06     687.30    1195.00      10.48      56.00
05:12:20 10-Dec-06     687.38    1196.00      10.49      56.00
05:12:30 10-Dec-06     687.78    1195.00      10.47      56.00
05:12:40 10-Dec-06     688.41    1195.00      10.46      56.00
05:12:50 10-Dec-06     688.51    1197.00      10.48      56.00
05:13:00 10-Dec-06     688.65    1196.00      10.47      56.00
05:13:10 10-Dec-06     688.73    1196.00      10.47      56.00
05:13:20 10-Dec-06     688.83    1196.00      10.46      56.00
05:13:30 10-Dec-06     688.91    1196.00      10.46      56.00
05:13:40 10-Dec-06     689.01    1196.00      10.46      56.00
05:13:50 10-Dec-06     689.12    1196.00      10.46      56.00
05:14:00 10-Dec-06     689.22    1197.00      10.47      56.00
05:14:10 10-Dec-06     689.33    1196.00      10.46      56.00
05:14:20 10-Dec-06     689.46    1196.00      10.45      56.00
05:14:30 10-Dec-06     689.54    1196.00      10.45      56.00
05:14:40 10-Dec-06     689.55    1198.00      10.47      56.00
05:14:50 10-Dec-06     689.61    1197.00      10.46      56.00
05:15:00 10-Dec-06     689.67    1197.00      10.46      56.00
05:15:10 10-Dec-06     689.72    1198.00      10.47      56.00
05:15:20 10-Dec-06     689.78    1198.00      10.47      56.00
05:15:30 10-Dec-06     689.80    1198.00      10.47      56.00
05:15:40 10-Dec-06     689.89    1198.00      10.47      56.00
05:15:50 10-Dec-06     689.95    1198.00      10.46      56.00
05:16:00 10-Dec-06     690.00    1197.00      10.45      56.00
05:16:10 10-Dec-06     690.08    1197.00      10.45      56.00
05:16:20 10-Dec-06     690.18    1197.00      10.45      56.00
05:16:30 10-Dec-06     690.27    1198.00      10.46      56.00
05:16:40 10-Dec-06     690.33    1198.00      10.46      56.00
05:16:50 10-Dec-06     690.42    1198.00      10.46      56.00
05:17:00 10-Dec-06     690.50    1198.00      10.46      56.00
05:17:10 10-Dec-06     690.59    1198.00      10.45      56.00
05:17:20 10-Dec-06     690.68    1197.00      10.44      56.00
05:17:30 10-Dec-06     690.78    1198.00      10.45      56.00
05:17:40 10-Dec-06     690.86    1198.00      10.45      56.00
05:17:50 10-Dec-06     690.96    1198.00      10.45      56.00
05:18:00 10-Dec-06     691.06    1198.00      10.45      56.00
05:18:10 10-Dec-06     691.17    1198.00      10.45      56.00
05:18:20 10-Dec-06     691.27    1197.00      10.43      56.00
05:18:30 10-Dec-06     691.39    1199.00      10.45      56.00
05:18:40 10-Dec-06     691.49    1199.00      10.45      56.00
05:18:50 10-Dec-06     691.58    1199.00      10.45      56.00
05:19:00 10-Dec-06     691.68    1198.00      10.44      56.00
05:19:10 10-Dec-06     691.80    1198.00      10.44      56.00
05:19:20 10-Dec-06     691.88    1199.00      10.44      56.00
05:19:30 10-Dec-06     691.99    1198.00      10.43      56.00
05:19:40 10-Dec-06     692.10    1199.00      10.44      56.00
05:19:50 10-Dec-06     692.18    1199.00      10.44      56.00
05:20:00 10-Dec-06     692.26    1199.00      10.44      56.00
05:20:10 10-Dec-06     692.35    1199.00      10.44      56.00
05:20:20 10-Dec-06     692.45    1199.00      10.43      56.00
05:20:30 10-Dec-06     692.55    1199.00      10.43      56.00
05:20:40 10-Dec-06     692.65    1200.00      10.44      56.00
05:20:50 10-Dec-06     692.75    1200.00      10.44      56.00
05:21:00 10-Dec-06     692.84    1199.00      10.43      56.00
05:21:10 10-Dec-06     692.91    1199.00      10.43      56.00
05:21:20 10-Dec-06     693.02    1199.00      10.43      56.00
05:21:30 10-Dec-06     693.12    1199.00      10.42      56.00
05:21:40 10-Dec-06     693.19    1199.00      10.42      56.00
05:21:50 10-Dec-06     693.27    1199.00      10.42      56.00
05:22:00 10-Dec-06     693.39    1200.00      10.43      56.00
05:22:10 10-Dec-06     693.49    1200.00      10.43      56.00
05:22:20 10-Dec-06     693.59    1201.00      10.43      56.00
05:22:30 10-Dec-06     693.69    1201.00      10.43      56.00
05:22:40 10-Dec-06     693.80    1200.00      10.42      56.00
05:22:50 10-Dec-06     693.87    1200.00      10.42      56.00
05:23:00 10-Dec-06     693.96    1200.00      10.42      56.00
05:23:10 10-Dec-06     694.06    1201.00      10.43      56.00
05:23:20 10-Dec-06     694.14    1200.00      10.42      56.00
05:23:30 10-Dec-06     694.23    1201.00      10.42      56.00
05:23:40 10-Dec-06     694.32    1201.00      10.42      56.00
05:23:50 10-Dec-06     694.41    1201.00      10.42      56.00
05:24:00 10-Dec-06     694.50    1201.00      10.42      56.00
05:24:10 10-Dec-06     694.59    1202.00      10.43      56.00
