~Version Information
VERS.             2.0 : CWLS log ASCII standard - Version 2.0
WRAP.             NO  : One line per depth step
#
~Well Information Block
#MNEM.UNIT                   Data Type:Information
#__________________________________________________________
  STRT.           09-DEC-2006 16:00:00 : START INDEX                   
  STOP.           12-DEC-2006 10:00:00 : STOP INDEX                    
  STEP.SEC           10.0000 : STEP                          
  NULL.              -999.25 : NULL VALUE                    
  COMP.              Company : COMPANY                       
  WELL.            W2        : WELL                          
   FLD.        Block : FIELD                         
   LOC.             Offshore : LOCATION                      
  PROV.                      : PROVINCE                      
  CNTY.                      : COUNTY                        
  STAT.                State : STATE                         
  CTRY.                India : COUNTRY                       
  SRVC.                      : SERVICE COMPANY               
  DATE.           09-DEC-2006 10:32:50 : LOG DATE                      
   UWI.                      : UNIQUE WELL ID                
   API.                      : API NUMBER                    
#
~Curve Information Block
#MNEM.UNIT                     : Curve Description
#---------                     --------------------
TIME	    .HHMMSS	       : 
DATE	    .D		       : 
RM_DEPTH    .M                 : LWDRM 1HZ River Depth                                           
APRS_ARC    .PSI               : ARC Annular Pressure                                            
ECD_ARC     .PPG               : Equivalent Circulating Density                                  
ATMP        .DEGC              : ARC Annular Temperature                                         
#
~Parameter Information Block
#MNEM.UNIT                       Value:Description
#__________________________________________________________
#
~Other Information Block

#
~A TIME       DATE   RM_DEPTH   APRS_ARC    ECD_ARC       ATMP
# ...
09:37:00 12-Dec-06     486.43     949.00      11.89      70.00
09:37:10 12-Dec-06     486.43     947.00      11.87      70.00
09:37:20 12-Dec-06     486.43     949.00      11.89      70.00
09:37:30 12-Dec-06     486.43     950.00      11.90      70.00
09:37:40 12-Dec-06     486.43     952.00      11.93      70.00
09:37:50 12-Dec-06     486.43     949.00      11.89      70.00
09:38:00 12-Dec-06     486.43     947.00      11.87      70.00
09:38:10 12-Dec-06     486.43     948.00      11.88      70.00
09:38:20 12-Dec-06     486.43     947.00      11.87      70.00
09:38:30 12-Dec-06     486.43     949.00      11.89      70.00
09:38:40 12-Dec-06     486.43     949.00      11.89      70.00
09:38:50 12-Dec-06     486.43     948.00      11.88      70.00
09:39:00 12-Dec-06     486.43     947.00      11.87      70.00
09:39:10 12-Dec-06     486.43     947.00      11.87      70.00
09:39:20 12-Dec-06     486.43     948.00      11.88      70.00
09:39:30 12-Dec-06     486.43     951.00      11.92      70.00
09:39:40 12-Dec-06     486.43     950.00      11.90      70.00
09:39:50 12-Dec-06     486.43     950.00      11.90      70.00
09:40:00 12-Dec-06     486.43     949.00      11.89      70.00
09:40:10 12-Dec-06     486.43     947.00      11.87      70.00
09:40:20 12-Dec-06     486.43     949.00      11.89      70.00
09:40:30 12-Dec-06     486.43     950.00      11.90      70.00
09:40:40 12-Dec-06     486.43     949.00      11.89      70.00
09:40:50 12-Dec-06     486.43     948.00      11.88      70.00
09:41:00 12-Dec-06     486.43     948.00      11.88      70.00
09:41:10 12-Dec-06     486.43     948.00      11.88      70.00
09:41:20 12-Dec-06     486.43     947.00      11.87      70.00
09:41:30 12-Dec-06     486.43     947.00      11.87      70.00
09:41:40 12-Dec-06     486.43     948.00      11.88      70.00
09:41:50 12-Dec-06     486.43     948.00      11.88      70.00
09:42:00 12-Dec-06     486.43     946.00      11.85      70.00
09:42:10 12-Dec-06     486.43     945.00      11.84      70.00
09:42:20 12-Dec-06     486.43     951.00      11.92      70.00
09:42:30 12-Dec-06     486.43     947.00      11.87      70.00
09:42:40 12-Dec-06     486.43     947.00      11.87      70.00
09:42:50 12-Dec-06     486.43     949.00      11.89      70.00
09:43:00 12-Dec-06     486.43     952.00      11.93      70.00
09:43:10 12-Dec-06     486.43     949.00      11.89      70.00
09:43:20 12-Dec-06     486.43     948.00      11.88      70.00
09:43:30 12-Dec-06     486.43     947.00      11.87      70.00
09:43:40 12-Dec-06     486.43     952.00      11.93      70.00
09:43:50 12-Dec-06     486.43     947.00      11.87      70.00
09:44:00 12-Dec-06     486.43     947.00      11.87      70.00
09:44:10 12-Dec-06     486.43     947.00      11.87      70.00
09:44:20 12-Dec-06     486.43     951.00      11.92      70.00
09:44:30 12-Dec-06     486.43     949.00      11.89      70.00
09:44:40 12-Dec-06     486.43     949.00      11.89      70.00
09:44:50 12-Dec-06     486.43     949.00      11.89      70.00
09:45:00 12-Dec-06     486.43     951.00      11.92      70.00
09:45:10 12-Dec-06     486.43     948.00      11.88      70.00
09:45:20 12-Dec-06     486.43     949.00      11.89      70.00
09:45:30 12-Dec-06     486.43     951.00      11.92      70.00
09:45:40 12-Dec-06     486.43     949.00      11.89      70.00
09:45:50 12-Dec-06     486.43     949.00      11.89      70.00
09:46:00 12-Dec-06     486.43     948.00      11.88      70.00
09:46:10 12-Dec-06     486.43     948.00      11.88      70.00
09:46:20 12-Dec-06     486.43     949.00      11.89      70.00
09:46:30 12-Dec-06     486.43     947.00      11.87      70.00
09:46:40 12-Dec-06     486.43     947.00      11.87      70.00
09:46:50 12-Dec-06     486.43     946.00      11.85      70.00
09:47:00 12-Dec-06     486.43     950.00      11.90      70.00
09:47:10 12-Dec-06     486.43     949.00      11.89      70.00
09:47:20 12-Dec-06     486.43     947.00      11.87      70.00
09:47:30 12-Dec-06     486.43     947.00      11.87      70.00
09:47:40 12-Dec-06     486.40     950.00      11.90      70.00
09:47:50 12-Dec-06     486.36     951.00      11.92      70.00
09:48:00 12-Dec-06     486.32     950.00      11.91      70.00
09:48:10 12-Dec-06     482.84     936.00      11.82      70.00
09:48:20 12-Dec-06     474.64     923.00      11.86      70.00
09:48:30 12-Dec-06     466.86     908.00      11.87      70.00
09:48:40 12-Dec-06     459.82     894.00      11.88      70.00
09:48:50 12-Dec-06     458.42     893.00      11.90      70.00
09:49:00 12-Dec-06     457.41     887.00      11.85      70.00
09:49:10 12-Dec-06     457.41     893.00      11.93      70.00
09:49:20 12-Dec-06     457.39     892.00      11.92      70.00
09:49:30 12-Dec-06     457.39     895.00      11.96      70.00
09:49:40 12-Dec-06     457.37     897.00      11.98      70.00
09:49:50 12-Dec-06     457.36     895.00      11.96      70.00
09:50:00 12-Dec-06     457.35     894.00      11.94      70.00
09:50:10 12-Dec-06     457.34     892.00      11.92      70.00
09:50:20 12-Dec-06     457.33     896.00      11.97      70.00
09:50:30 12-Dec-06     457.32     895.00      11.96      70.00
09:50:40 12-Dec-06     457.31     896.00      11.97      70.00
09:50:50 12-Dec-06     457.30     895.00      11.96      70.00
09:51:00 12-Dec-06     455.37     883.00      11.85      70.00
09:51:10 12-Dec-06     453.97     881.00      11.86      70.00
09:51:20 12-Dec-06     447.63     868.00      11.86      70.00
09:51:30 12-Dec-06     440.99     856.00      11.88      70.00
09:51:40 12-Dec-06     432.82     841.00      11.90      70.00
09:51:50 12-Dec-06     428.03     827.00      11.84      70.00
09:52:00 12-Dec-06     428.33     833.00      11.92      70.00
09:52:10 12-Dec-06     428.32     836.00      11.96      70.00
09:52:20 12-Dec-06     428.30     836.00      11.96      70.00
09:52:30 12-Dec-06     428.29     836.00      11.96      70.00
09:52:40 12-Dec-06     428.28     835.00      11.95      70.00
09:52:50 12-Dec-06     428.27     834.00      11.93      70.00
09:53:00 12-Dec-06     428.26     832.00      11.90      70.00
09:53:10 12-Dec-06     428.24     836.00      11.96      70.00
09:53:20 12-Dec-06     428.23     833.00      11.92      70.00
09:53:30 12-Dec-06     428.22     833.00      11.92      70.00
09:53:40 12-Dec-06     428.21     834.00      11.93      70.00
09:53:50 12-Dec-06     428.20     835.00      11.95      70.00
09:54:00 12-Dec-06     428.19     831.00      11.89      70.00
09:54:10 12-Dec-06     423.77     817.00      11.82      70.00
09:54:20 12-Dec-06     415.69     805.00      11.88      70.00
09:54:30 12-Dec-06     407.95     791.00      11.91      70.00
09:54:40 12-Dec-06     400.51     776.00      11.91      70.00
09:54:50 12-Dec-06     399.14     772.00      11.89      70.00
09:55:00 12-Dec-06     399.14     778.00      11.98      70.00
09:55:10 12-Dec-06     399.14     775.00      11.94      70.00
09:55:20 12-Dec-06     399.14     773.00      11.90      70.00
09:55:30 12-Dec-06     399.14     775.00      11.94      70.00
09:55:40 12-Dec-06     399.14     775.00      11.94      70.00
09:55:50 12-Dec-06     399.14     774.00      11.92      70.00
09:56:00 12-Dec-06     399.14     770.00      11.86      70.00
09:56:10 12-Dec-06     395.75     761.00      11.82      70.00
09:56:20 12-Dec-06     387.65     747.00      11.86      70.00
09:56:30 12-Dec-06     379.81     734.00      11.91      70.00
09:56:40 12-Dec-06     371.92     719.00      11.92      70.00
09:56:50 12-Dec-06     370.03     715.00      11.92      70.00
09:57:00 12-Dec-06     370.02     718.00      11.97      70.00
09:57:10 12-Dec-06     370.01     715.00      11.92      70.00
09:57:20 12-Dec-06     370.00     717.00      11.96      70.00
09:57:30 12-Dec-06     369.99     718.00      11.97      70.00
09:57:40 12-Dec-06     369.98     712.00      11.87      70.00
09:57:50 12-Dec-06     369.97     713.00      11.89      70.00
09:58:00 12-Dec-06     369.96     715.00      11.92      70.00
