~Version Information
VERS.             2.0 : CWLS log ASCII standard - Version 2.0
WRAP.             NO  : One line per depth step
#
~Well Information Block
#MNEM.UNIT                   Data Type:Information
#__________________________________________________________
  STRT.           09-DEC-2006 16:00:00 : START INDEX                   
  STOP.           12-DEC-2006 10:00:00 : STOP INDEX                    
  STEP.SEC           10.0000 : STEP                          
  NULL.              -999.25 : NULL VALUE                    
  COMP.              Company : COMPANY                       
  WELL.            W2        : WELL                          
   FLD.        Block : FIELD                         
   LOC.             Offshore : LOCATION                      
  PROV.                      : PROVINCE                      
  CNTY.                      : COUNTY                        
  STAT.                State : STATE                         
  CTRY.                India : COUNTRY                       
  SRVC.                      : SERVICE COMPANY               
  DATE.           09-DEC-2006 10:32:50 : LOG DATE                      
   UWI.                      : UNIQUE WELL ID                
   API.                      : API NUMBER                    
#
~Curve Information Block
#MNEM.UNIT                     : Curve Description
#---------                     --------------------
TIME	    .HHMMSS	       : 
DATE	    .D		       : 
RM_DEPTH    .M                 : LWDRM 1HZ River Depth                                           
APRS_ARC    .PSI               : ARC Annular Pressure                                            
ECD_ARC     .PPG               : Equivalent Circulating Density                                  
ATMP        .DEGC              : ARC Annular Temperature                                         
#
~Parameter Information Block
#MNEM.UNIT                       Value:Description
#__________________________________________________________
#
~Other Information Block

#
~A TIME       DATE   RM_DEPTH   APRS_ARC    ECD_ARC       ATMP
# ...
05:23:00 12-Dec-06    1424.33    2844.00      11.87      73.00
05:23:10 12-Dec-06    1424.97    2844.00      11.86      73.00
05:23:20 12-Dec-06    1425.70    2846.00      11.87      73.00
05:23:30 12-Dec-06    1426.28    2849.00      11.87      73.00
05:23:40 12-Dec-06    1426.95    2852.00      11.88      73.00
05:23:50 12-Dec-06    1427.53    2854.00      11.88      73.00
05:24:00 12-Dec-06    1428.17    2855.00      11.88      73.00
05:24:10 12-Dec-06    1428.78    2854.00      11.87      73.00
05:24:20 12-Dec-06    1429.51    2855.00      11.87      73.00
05:24:30 12-Dec-06    1430.18    2859.00      11.88      73.00
05:24:40 12-Dec-06    1430.61    2860.00      11.88      73.00
05:24:50 12-Dec-06    1430.64    2856.00      11.87      73.00
05:25:00 12-Dec-06    1431.01    2857.00      11.87      73.00
05:25:10 12-Dec-06    1431.52    2861.00      11.88      73.00
05:25:20 12-Dec-06    1432.01    2863.00      11.88      73.00
05:25:30 12-Dec-06    1432.53    2862.00      11.88      73.00
05:25:40 12-Dec-06    1433.17    2863.00      11.87      73.00
05:25:50 12-Dec-06    1433.78    2867.00      11.89      73.00
05:26:00 12-Dec-06    1434.39    2870.00      11.89      73.00
05:26:10 12-Dec-06    1434.97    2871.00      11.89      73.00
05:26:20 12-Dec-06    1435.61    2870.00      11.88      73.00
05:26:30 12-Dec-06    1436.25    2871.00      11.88      73.00
05:26:40 12-Dec-06    1436.83    2873.00      11.89      73.00
05:26:50 12-Dec-06    1437.35    2875.00      11.89      73.00
05:27:00 12-Dec-06    1438.05    2877.00      11.89      73.00
05:27:10 12-Dec-06    1438.63    2879.00      11.90      73.00
05:27:20 12-Dec-06    1439.30    2880.00      11.89      73.00
05:27:30 12-Dec-06    1439.75    2878.00      11.88      73.00
05:27:40 12-Dec-06    1440.45    2880.00      11.88      73.00
05:27:50 12-Dec-06    1441.12    2883.00      11.89      73.00
05:28:00 12-Dec-06    1441.67    2882.00      11.88      73.00
05:28:10 12-Dec-06    1441.98    2879.00      11.87      73.00
05:28:20 12-Dec-06    1442.53    2884.00      11.88      73.00
05:28:30 12-Dec-06    1442.95    2887.00      11.89      73.00
05:28:40 12-Dec-06    1443.38    2886.00      11.88      73.00
05:28:50 12-Dec-06    1443.72    2886.00      11.88      73.00
05:29:00 12-Dec-06    1444.39    2892.00      11.90      73.00
05:29:10 12-Dec-06    1444.87    2894.00      11.91      73.00
05:29:20 12-Dec-06    1445.21    2892.00      11.89      73.00
05:29:30 12-Dec-06    1445.18    2888.00      11.88      73.00
05:29:40 12-Dec-06    1445.06    2887.00      11.87      73.00
05:29:50 12-Dec-06    1444.88    2892.00      11.90      73.00
05:30:00 12-Dec-06    1444.79    2893.00      11.90      73.00
05:30:10 12-Dec-06    1444.66    2890.00      11.89      73.00
05:30:20 12-Dec-06    1444.40    2884.00      11.87      73.00
05:30:30 12-Dec-06    1444.14    2884.00      11.87      73.00
05:30:40 12-Dec-06    1443.99    2888.00      11.89      73.00
05:30:50 12-Dec-06    1443.81    2890.00      11.90      73.00
05:31:00 12-Dec-06    1443.54    2889.00      11.90      73.00
05:31:10 12-Dec-06    1443.41    2889.00      11.90      73.00
05:31:20 12-Dec-06    1443.25    2889.00      11.90      73.00
05:31:30 12-Dec-06    1443.09    2888.00      11.90      73.00
05:31:40 12-Dec-06    1442.83    2886.00      11.89      73.00
05:31:50 12-Dec-06    1442.70    2886.00      11.89      73.00
05:32:00 12-Dec-06    1442.50    2886.00      11.89      73.00
05:32:10 12-Dec-06    1442.41    2886.00      11.89      73.00
05:32:20 12-Dec-06    1442.10    2883.00      11.88      73.00
05:32:30 12-Dec-06    1441.95    2883.00      11.88      73.00
05:32:40 12-Dec-06    1441.74    2885.00      11.89      73.00
05:32:50 12-Dec-06    1441.63    2885.00      11.90      73.00
05:33:00 12-Dec-06    1441.46    2882.00      11.88      73.00
05:33:10 12-Dec-06    1441.25    2879.00      11.87      73.00
05:33:20 12-Dec-06    1441.01    2882.00      11.89      73.00
05:33:30 12-Dec-06    1440.92    2886.00      11.91      73.00
05:33:40 12-Dec-06    1440.73    2883.00      11.89      73.00
05:33:50 12-Dec-06    1440.48    2880.00      11.88      73.00
05:34:00 12-Dec-06    1440.30    2882.00      11.89      73.00
05:34:10 12-Dec-06    1440.21    2885.00      11.91      73.00
05:34:20 12-Dec-06    1439.94    2883.00      11.90      73.00
05:34:30 12-Dec-06    1439.79    2882.00      11.90      73.00
05:34:40 12-Dec-06    1439.63    2883.00      11.90      73.00
05:34:50 12-Dec-06    1439.48    2881.00      11.90      73.00
05:35:00 12-Dec-06    1439.28    2880.00      11.89      73.00
05:35:10 12-Dec-06    1439.10    2879.00      11.89      73.00
05:35:20 12-Dec-06    1438.92    2879.00      11.89      73.00
05:35:30 12-Dec-06    1438.78    2879.00      11.89      73.00
05:35:40 12-Dec-06    1438.57    2882.00      11.91      73.00
05:35:50 12-Dec-06    1438.32    2881.00      11.91      73.00
05:36:00 12-Dec-06    1438.17    2882.00      11.91      73.00
05:36:10 12-Dec-06    1438.08    2882.00      11.91      73.00
05:36:20 12-Dec-06    1437.90    2879.00      11.90      73.00
05:36:30 12-Dec-06    1437.74    2877.00      11.89      73.00
05:36:40 12-Dec-06    1437.56    2875.00      11.89      73.00
05:36:50 12-Dec-06    1437.42    2873.00      11.88      73.00
05:37:00 12-Dec-06    1437.20    2873.00      11.88      73.00
05:37:10 12-Dec-06    1437.01    2875.00      11.89      73.00
05:37:20 12-Dec-06    1436.81    2876.00      11.90      73.00
05:37:30 12-Dec-06    1436.68    2876.00      11.90      73.00
05:37:40 12-Dec-06    1436.46    2876.00      11.90      73.00
05:37:50 12-Dec-06    1436.29    2876.00      11.90      73.00
05:38:00 12-Dec-06    1436.10    2875.00      11.90      73.00
05:38:10 12-Dec-06    1435.95    2875.00      11.90      73.00
05:38:20 12-Dec-06    1435.79    2876.00      11.91      73.00
05:38:30 12-Dec-06    1435.64    2875.00      11.90      73.00
05:38:40 12-Dec-06    1435.40    2872.00      11.89      73.00
05:38:50 12-Dec-06    1435.24    2871.00      11.89      73.00
05:39:00 12-Dec-06    1435.06    2872.00      11.90      73.00
05:39:10 12-Dec-06    1434.91    2872.00      11.90      73.00
05:39:20 12-Dec-06    1434.72    2871.00      11.90      73.00
05:39:30 12-Dec-06    1434.53    2871.00      11.90      73.00
05:39:40 12-Dec-06    1434.33    2874.00      11.91      73.00
05:39:50 12-Dec-06    1434.24    2875.00      11.92      73.00
05:40:00 12-Dec-06    1434.04    2870.00      11.90      73.00
05:40:10 12-Dec-06    1433.84    2867.00      11.89      73.00
05:40:20 12-Dec-06    1433.60    2869.00      11.90      73.00
05:40:30 12-Dec-06    1433.51    2872.00      11.91      73.00
05:40:40 12-Dec-06    1433.31    2871.00      11.91      73.00
05:40:50 12-Dec-06    1433.16    2869.00      11.90      73.00
05:41:00 12-Dec-06    1432.96    2869.00      11.90      73.00
05:41:10 12-Dec-06    1432.81    2869.00      11.90      73.00
05:41:20 12-Dec-06    1432.62    2868.00      11.90      73.00
05:41:30 12-Dec-06    1432.41    2867.00      11.90      73.00
05:41:40 12-Dec-06    1432.23    2869.00      11.91      73.00
05:41:50 12-Dec-06    1432.14    2870.00      11.91      73.00
05:42:00 12-Dec-06    1431.93    2869.00      11.91      73.00
05:42:10 12-Dec-06    1431.68    2864.00      11.89      73.00
05:42:20 12-Dec-06    1431.53    2866.00      11.90      73.00
05:42:30 12-Dec-06    1431.39    2869.00      11.91      73.00
05:42:40 12-Dec-06    1431.22    2866.00      11.90      73.00
05:42:50 12-Dec-06    1430.98    2865.00      11.90      74.00
05:43:00 12-Dec-06    1430.86    2868.00      11.92      74.00
05:43:10 12-Dec-06    1430.70    2871.00      11.93      74.00
05:43:20 12-Dec-06    1430.60    2869.00      11.92      74.00
05:43:30 12-Dec-06    1430.44    2865.00      11.91      74.00
05:43:40 12-Dec-06    1430.25    2861.00      11.89      74.00
05:43:50 12-Dec-06    1430.05    2861.00      11.89      74.00
05:44:00 12-Dec-06    1429.88    2865.00      11.91      74.00
