~Version Information
VERS.             2.0 : CWLS log ASCII standard - Version 2.0
WRAP.             NO  : One line per depth step
#
~Well Information Block
#MNEM.UNIT                   Data Type:Information
#__________________________________________________________
  STRT.           09-DEC-2006 16:00:00 : START INDEX                   
  STOP.           12-DEC-2006 10:00:00 : STOP INDEX                    
  STEP.SEC           10.0000 : STEP                          
  NULL.              -999.25 : NULL VALUE                    
  COMP.              Company : COMPANY                       
  WELL.            W2        : WELL                          
   FLD.        Block : FIELD                         
   LOC.             Offshore : LOCATION                      
  PROV.                      : PROVINCE                      
  CNTY.                      : COUNTY                        
  STAT.                State : STATE                         
  CTRY.                India : COUNTRY                       
  SRVC.                      : SERVICE COMPANY               
  DATE.           09-DEC-2006 10:32:50 : LOG DATE                      
   UWI.                      : UNIQUE WELL ID                
   API.                      : API NUMBER                    
#
~Curve Information Block
#MNEM.UNIT                     : Curve Description
#---------                     --------------------
TIME	    .HHMMSS	       : 
DATE	    .D		       : 
RM_DEPTH    .M                 : LWDRM 1HZ River Depth                                           
APRS_ARC    .PSI               : ARC Annular Pressure                                            
ECD_ARC     .PPG               : Equivalent Circulating Density                                  
ATMP        .DEGC              : ARC Annular Temperature                                         
#
~Parameter Information Block
#MNEM.UNIT                       Value:Description
#__________________________________________________________
#
~Other Information Block

#
~A TIME       DATE   RM_DEPTH   APRS_ARC    ECD_ARC       ATMP
# ...
02:55:30 11-Dec-06    1245.78    2314.00      11.06      71.00
02:55:40 11-Dec-06    1245.88    2314.00      11.06      71.00
02:55:50 11-Dec-06    1245.96    2315.00      11.07      71.00
02:56:00 11-Dec-06    1246.05    2315.00      11.06      71.00
02:56:10 11-Dec-06    1246.14    2314.00      11.06      71.00
02:56:20 11-Dec-06    1246.24    2315.00      11.06      71.00
02:56:30 11-Dec-06    1246.36    2315.00      11.06      71.00
02:56:40 11-Dec-06    1246.45    2314.00      11.06      71.00
02:56:50 11-Dec-06    1246.53    2315.00      11.06      71.00
02:57:00 11-Dec-06    1246.62    2315.00      11.06      71.00
02:57:10 11-Dec-06    1246.70    2316.00      11.06      71.00
02:57:20 11-Dec-06    1246.79    2315.00      11.06      71.00
02:57:30 11-Dec-06    1246.88    2315.00      11.06      71.00
02:57:40 11-Dec-06    1246.96    2316.00      11.06      71.00
02:57:50 11-Dec-06    1247.03    2316.00      11.06      71.00
02:58:00 11-Dec-06    1247.10    2316.00      11.06      71.00
02:58:10 11-Dec-06    1247.19    2316.00      11.06      71.00
02:58:20 11-Dec-06    1247.26    2316.00      11.06      71.00
02:58:30 11-Dec-06    1247.33    2316.00      11.06      71.00
02:58:40 11-Dec-06    1247.42    2316.00      11.06      71.00
02:58:50 11-Dec-06    1247.50    2316.00      11.06      71.00
02:59:00 11-Dec-06    1247.58    2316.00      11.06      72.00
02:59:10 11-Dec-06    1247.65    2316.00      11.06      71.00
02:59:20 11-Dec-06    1247.71    2316.00      11.05      72.00
02:59:30 11-Dec-06    1247.79    2316.00      11.05      71.00
02:59:40 11-Dec-06    1247.89    2316.00      11.05      72.00
02:59:50 11-Dec-06    1247.97    2316.00      11.05      71.00
03:00:00 11-Dec-06    1248.07    2316.00      11.05      72.00
03:00:10 11-Dec-06    1248.12    2316.00      11.05      72.00
03:00:20 11-Dec-06    1248.23    2317.00      11.05      72.00
03:00:30 11-Dec-06    1248.32    2316.00      11.05      72.00
03:00:40 11-Dec-06    1248.43    2316.00      11.05      72.00
03:00:50 11-Dec-06    1248.52    2316.00      11.05      72.00
03:01:00 11-Dec-06    1248.61    2317.00      11.05      72.00
03:01:10 11-Dec-06    1248.70    2317.00      11.05      72.00
03:01:20 11-Dec-06    1248.79    2317.00      11.05      72.00
03:01:30 11-Dec-06    1248.86    2317.00      11.05      72.00
03:01:40 11-Dec-06    1248.96    2318.00      11.05      72.00
03:01:50 11-Dec-06    1249.02    2317.00      11.05      72.00
03:02:00 11-Dec-06    1249.10    2317.00      11.05      72.00
03:02:10 11-Dec-06    1249.19    2317.00      11.05      72.00
03:02:20 11-Dec-06    1249.25    2318.00      11.05      72.00
03:02:30 11-Dec-06    1249.35    2318.00      11.05      72.00
03:02:40 11-Dec-06    1249.44    2318.00      11.05      72.00
03:02:50 11-Dec-06    1249.51    2318.00      11.05      72.00
03:03:00 11-Dec-06    1249.60    2318.00      11.05      72.00
03:03:10 11-Dec-06    1249.70    2318.00      11.05      72.00
03:03:20 11-Dec-06    1249.79    2318.00      11.05      72.00
03:03:30 11-Dec-06    1249.86    2318.00      11.05      72.00
03:03:40 11-Dec-06    1249.93    2319.00      11.05      72.00
03:03:50 11-Dec-06    1250.03    2319.00      11.05      72.00
03:04:00 11-Dec-06    1250.12    2319.00      11.05      72.00
03:04:10 11-Dec-06    1250.20    2319.00      11.05      72.00
03:04:20 11-Dec-06    1250.29    2319.00      11.05      72.00
03:04:30 11-Dec-06    1250.41    2319.00      11.04      72.00
03:04:40 11-Dec-06    1250.50    2320.00      11.05      72.00
03:04:50 11-Dec-06    1250.59    2320.00      11.05      72.00
03:05:00 11-Dec-06    1250.72    2320.00      11.05      72.00
03:05:10 11-Dec-06    1250.81    2320.00      11.05      72.00
03:05:20 11-Dec-06    1250.89    2320.00      11.05      72.00
03:05:30 11-Dec-06    1251.01    2321.00      11.05      72.00
03:05:40 11-Dec-06    1251.11    2320.00      11.04      72.00
03:05:50 11-Dec-06    1251.17    2321.00      11.05      72.00
03:06:00 11-Dec-06    1251.25    2321.00      11.05      72.00
03:06:10 11-Dec-06    1251.34    2321.00      11.05      72.00
03:06:20 11-Dec-06    1251.42    2321.00      11.05      72.00
03:06:30 11-Dec-06    1251.48    2322.00      11.05      72.00
03:06:40 11-Dec-06    1251.56    2321.00      11.04      72.00
03:06:50 11-Dec-06    1251.65    2321.00      11.04      72.00
03:07:00 11-Dec-06    1251.75    2322.00      11.05      72.00
03:07:10 11-Dec-06    1251.82    2322.00      11.05      72.00
03:07:20 11-Dec-06    1251.89    2323.00      11.05      72.00
03:07:30 11-Dec-06    1251.98    2323.00      11.05      72.00
03:07:40 11-Dec-06    1252.03    2323.00      11.05      72.00
03:07:50 11-Dec-06    1252.12    2322.00      11.04      72.00
03:08:00 11-Dec-06    1252.18    2323.00      11.05      72.00
03:08:10 11-Dec-06    1252.25    2323.00      11.05      72.00
03:08:20 11-Dec-06    1252.37    2323.00      11.05      72.00
03:08:30 11-Dec-06    1252.46    2323.00      11.05      72.00
03:08:40 11-Dec-06    1252.56    2323.00      11.04      72.00
03:08:50 11-Dec-06    1252.70    2323.00      11.04      72.00
03:09:00 11-Dec-06    1252.75    2324.00      11.05      72.00
03:09:10 11-Dec-06    1252.87    2324.00      11.05      72.00
03:09:20 11-Dec-06    1253.01    2324.00      11.05      72.00
03:09:30 11-Dec-06    1253.11    2324.00      11.04      72.00
03:09:40 11-Dec-06    1253.23    2325.00      11.05      72.00
03:09:50 11-Dec-06    1253.34    2325.00      11.05      72.00
03:10:00 11-Dec-06    1253.47    2325.00      11.05      72.00
03:10:10 11-Dec-06    1253.58    2326.00      11.05      72.00
03:10:20 11-Dec-06    1253.67    2326.00      11.05      72.00
03:10:30 11-Dec-06    1253.76    2326.00      11.05      72.00
03:10:40 11-Dec-06    1253.87    2326.00      11.05      72.00
03:10:50 11-Dec-06    1253.95    2326.00      11.05      72.00
03:11:00 11-Dec-06    1254.05    2326.00      11.05      72.00
03:11:10 11-Dec-06    1254.11    2327.00      11.05      72.00
03:11:20 11-Dec-06    1254.22    2327.00      11.05      72.00
03:11:30 11-Dec-06    1254.35    2327.00      11.05      72.00
03:11:40 11-Dec-06    1254.46    2328.00      11.05      72.00
03:11:50 11-Dec-06    1254.53    2328.00      11.05      72.00
03:12:00 11-Dec-06    1254.62    2328.00      11.05      72.00
03:12:10 11-Dec-06    1254.72    2328.00      11.05      72.00
03:12:20 11-Dec-06    1254.82    2329.00      11.05      72.00
03:12:30 11-Dec-06    1254.91    2329.00      11.05      72.00
03:12:40 11-Dec-06    1255.01    2329.00      11.05      72.00
03:12:50 11-Dec-06    1255.12    2329.00      11.05      72.00
03:13:00 11-Dec-06    1255.22    2330.00      11.05      72.00
03:13:10 11-Dec-06    1255.33    2330.00      11.05      72.00
03:13:20 11-Dec-06    1255.44    2330.00      11.05      72.00
03:13:30 11-Dec-06    1255.55    2331.00      11.06      72.00
03:13:40 11-Dec-06    1255.66    2331.00      11.05      72.00
03:13:50 11-Dec-06    1255.79    2331.00      11.05      72.00
03:14:00 11-Dec-06    1255.90    2332.00      11.06      72.00
03:14:10 11-Dec-06    1256.00    2331.00      11.05      72.00
03:14:20 11-Dec-06    1256.12    2332.00      11.06      72.00
03:14:30 11-Dec-06    1256.25    2333.00      11.06      72.00
03:14:40 11-Dec-06    1256.34    2333.00      11.06      72.00
03:14:50 11-Dec-06    1256.43    2333.00      11.06      72.00
03:15:00 11-Dec-06    1256.53    2334.00      11.06      72.00
03:15:10 11-Dec-06    1256.65    2334.00      11.06      72.00
03:15:20 11-Dec-06    1256.75    2334.00      11.06      72.00
03:15:30 11-Dec-06    1256.87    2334.00      11.06      72.00
03:15:40 11-Dec-06    1256.99    2334.00      11.06      72.00
03:15:50 11-Dec-06    1257.12    2335.00      11.06      72.00
03:16:00 11-Dec-06    1257.22    2335.00      11.06      72.00
03:16:10 11-Dec-06    1257.35    2335.00      11.06      72.00
03:16:20 11-Dec-06    1257.48    2335.00      11.06      72.00
03:16:30 11-Dec-06    1257.59    2336.00      11.06      72.00
