~Version Information
VERS.             2.0 : CWLS log ASCII standard - Version 2.0
WRAP.             NO  : One line per depth step
#
~Well Information Block
#MNEM.UNIT                   Data Type:Information
#__________________________________________________________
  STRT.           09-DEC-2006 16:00:00 : START INDEX                   
  STOP.           12-DEC-2006 10:00:00 : STOP INDEX                    
  STEP.SEC           10.0000 : STEP                          
  NULL.              -999.25 : NULL VALUE                    
  COMP.              Company : COMPANY                       
  WELL.            W2        : WELL                          
   FLD.        Block : FIELD                         
   LOC.             Offshore : LOCATION                      
  PROV.                      : PROVINCE                      
  CNTY.                      : COUNTY                        
  STAT.                State : STATE                         
  CTRY.                India : COUNTRY                       
  SRVC.                      : SERVICE COMPANY               
  DATE.           09-DEC-2006 10:32:50 : LOG DATE                      
   UWI.                      : UNIQUE WELL ID                
   API.                      : API NUMBER                    
#
~Curve Information Block
#MNEM.UNIT                     : Curve Description
#---------                     --------------------
TIME	    .HHMMSS	       : 
DATE	    .D		       : 
RM_DEPTH    .M                 : LWDRM 1HZ River Depth                                           
APRS_ARC    .PSI               : ARC Annular Pressure                                            
ECD_ARC     .PPG               : Equivalent Circulating Density                                  
ATMP        .DEGC              : ARC Annular Temperature                                         
#
~Parameter Information Block
#MNEM.UNIT                       Value:Description
#__________________________________________________________
#
~Other Information Block

#
~A TIME       DATE   RM_DEPTH   APRS_ARC    ECD_ARC       ATMP
# ...
09:38:20 10-Dec-06     796.19    1382.00      10.42      60.00
09:38:30 10-Dec-06     796.28    1381.00      10.41      60.00
09:38:40 10-Dec-06     796.35    1382.00      10.42      60.00
09:38:50 10-Dec-06     796.42    1383.00      10.43      60.00
09:39:00 10-Dec-06     796.51    1382.00      10.42      60.00
09:39:10 10-Dec-06     796.63    1383.00      10.43      60.00
09:39:20 10-Dec-06     796.73    1383.00      10.42      60.00
09:39:30 10-Dec-06     796.84    1384.00      10.43      60.00
09:39:40 10-Dec-06     796.99    1384.00      10.43      60.00
09:39:50 10-Dec-06     797.11    1385.00      10.43      60.00
09:40:00 10-Dec-06     797.23    1384.00      10.42      60.00
09:40:10 10-Dec-06     797.39    1385.00      10.43      60.00
09:40:20 10-Dec-06     797.59    1386.00      10.43      60.00
09:40:30 10-Dec-06     797.80    1386.00      10.43      60.00
09:40:40 10-Dec-06     798.00    1387.00      10.44      61.00
09:40:50 10-Dec-06     798.16    1388.00      10.44      61.00
09:41:00 10-Dec-06     798.39    1389.00      10.45      61.00
09:41:10 10-Dec-06     798.58    1389.00      10.44      61.00
09:41:20 10-Dec-06     798.79    1390.00      10.45      61.00
09:41:30 10-Dec-06     798.97    1391.00      10.45      61.00
09:41:40 10-Dec-06     799.17    1391.00      10.45      61.00
09:41:50 10-Dec-06     799.37    1392.00      10.46      61.00
09:42:00 10-Dec-06     799.52    1392.00      10.45      61.00
09:42:10 10-Dec-06     799.68    1393.00      10.46      61.00
09:42:20 10-Dec-06     799.82    1394.00      10.47      61.00
09:42:30 10-Dec-06     799.93    1395.00      10.47      61.00
09:42:40 10-Dec-06     800.05    1395.00      10.47      61.00
09:42:50 10-Dec-06     800.16    1395.00      10.47      61.00
09:43:00 10-Dec-06     800.27    1396.00      10.47      61.00
09:43:10 10-Dec-06     800.38    1397.00      10.48      61.00
09:43:20 10-Dec-06     800.46    1397.00      10.48      61.00
09:43:30 10-Dec-06     800.56    1398.00      10.49      61.00
09:43:40 10-Dec-06     800.67    1398.00      10.48      61.00
09:43:50 10-Dec-06     800.79    1399.00      10.49      61.00
09:44:00 10-Dec-06     800.89    1399.00      10.49      61.00
09:44:10 10-Dec-06     801.00    1399.00      10.49      61.00
09:44:20 10-Dec-06     801.13    1400.00      10.49      61.00
09:44:30 10-Dec-06     801.28    1400.00      10.49      61.00
09:44:40 10-Dec-06     801.37    1401.00      10.50      61.00
09:44:50 10-Dec-06     801.46    1401.00      10.50      61.00
09:45:00 10-Dec-06     801.58    1402.00      10.50      61.00
09:45:10 10-Dec-06     801.71    1402.00      10.50      61.00
09:45:20 10-Dec-06     801.81    1402.00      10.50      61.00
09:45:30 10-Dec-06     801.91    1402.00      10.50      61.00
09:45:40 10-Dec-06     802.02    1403.00      10.50      61.00
09:45:50 10-Dec-06     802.09    1403.00      10.50      61.00
09:46:00 10-Dec-06     802.20    1404.00      10.51      61.00
09:46:10 10-Dec-06     802.33    1405.00      10.51      61.00
09:46:20 10-Dec-06     802.45    1404.00      10.50      61.00
09:46:30 10-Dec-06     802.55    1405.00      10.51      61.00
09:46:40 10-Dec-06     802.67    1406.00      10.52      61.00
09:46:50 10-Dec-06     802.80    1406.00      10.52      61.00
09:47:00 10-Dec-06     802.95    1406.00      10.51      61.00
09:47:10 10-Dec-06     803.08    1407.00      10.52      61.00
09:47:20 10-Dec-06     803.21    1408.00      10.52      61.00
09:47:30 10-Dec-06     803.36    1407.00      10.52      61.00
09:47:40 10-Dec-06     803.51    1408.00      10.52      61.00
09:47:50 10-Dec-06     803.64    1409.00      10.53      61.00
09:48:00 10-Dec-06     803.79    1409.00      10.52      61.00
09:48:10 10-Dec-06     803.91    1410.00      10.53      61.00
09:48:20 10-Dec-06     804.00    1410.00      10.53      61.00
09:48:30 10-Dec-06     804.05    1411.00      10.54      61.00
09:48:40 10-Dec-06     803.82    1410.00      10.53      61.00
09:48:50 10-Dec-06     802.75    1410.00      10.55      61.00
09:49:00 10-Dec-06     801.38    1407.00      10.54      61.00
09:49:10 10-Dec-06     799.86    1405.00      10.55      61.00
09:49:20 10-Dec-06     798.06    1402.00      10.55      61.00
09:49:30 10-Dec-06     796.48    1399.00      10.55      61.00
09:49:40 10-Dec-06     794.83    1395.00      10.54      61.00
09:49:50 10-Dec-06     793.12    1393.00      10.55      61.00
09:50:00 10-Dec-06     791.32    1391.00      10.56      61.00
09:50:10 10-Dec-06     789.28    1387.00      10.55      61.00
09:50:20 10-Dec-06     787.00    1382.00      10.55      61.00
09:50:30 10-Dec-06     784.71    1378.00      10.55      61.00
09:50:40 10-Dec-06     782.36    1373.00      10.54      61.00
09:50:50 10-Dec-06     780.20    1370.00      10.55      61.00
09:51:00 10-Dec-06     777.97    1365.00      10.54      61.00
09:51:10 10-Dec-06     775.60    1363.00      10.56      61.00
09:51:20 10-Dec-06     775.29    1367.00      10.59      61.00
09:51:30 10-Dec-06     776.51    1364.00      10.55      61.00
09:51:40 10-Dec-06     778.22    1367.00      10.55      61.00
09:51:50 10-Dec-06     780.17    1369.00      10.54      61.00
09:52:00 10-Dec-06     782.24    1374.00      10.55      61.00
09:52:10 10-Dec-06     784.40    1377.00      10.55      61.00
09:52:20 10-Dec-06     784.72    1381.00      10.57      61.00
09:52:30 10-Dec-06     785.65    1379.00      10.54      61.00
09:52:40 10-Dec-06     788.03    1385.00      10.56      61.00
09:52:50 10-Dec-06     789.89    1387.00      10.55      61.00
09:53:00 10-Dec-06     791.29    1389.00      10.54      61.00
09:53:10 10-Dec-06     792.63    1390.00      10.53      61.00
09:53:20 10-Dec-06     792.67    1390.00      10.53      61.00
09:53:30 10-Dec-06     793.58    1394.00      10.55      61.00
09:53:40 10-Dec-06     794.55    1395.00      10.54      61.00
09:53:50 10-Dec-06     796.14    1397.00      10.54      61.00
09:54:00 10-Dec-06     798.09    1402.00      10.55      61.00
09:54:10 10-Dec-06     800.13    1405.00      10.54      61.00
09:54:20 10-Dec-06     801.59    1406.00      10.53      61.00
09:54:30 10-Dec-06     802.66    1409.00      10.54      61.00
09:54:40 10-Dec-06     803.79    1411.00      10.54      61.00
09:54:50 10-Dec-06     803.03    1408.00      10.53      61.00
09:55:00 10-Dec-06     801.38    1407.00      10.54      61.00
09:55:10 10-Dec-06     800.89    1407.00      10.55      61.00
09:55:20 10-Dec-06     801.56    1405.00      10.52      61.00
09:55:30 10-Dec-06     802.39    1406.00      10.52      61.00
09:55:40 10-Dec-06     803.30    1409.00      10.53      61.00
09:55:50 10-Dec-06     803.70    1410.00      10.53      61.00
09:56:00 10-Dec-06     803.69    1393.00      10.41      61.00
09:56:10 10-Dec-06     803.69    1397.00      10.44      61.00
09:56:20 10-Dec-06     803.69    1396.00      10.43      61.00
09:56:30 10-Dec-06     803.69    1394.00      10.41      61.00
09:56:40 10-Dec-06     803.68    1396.00      10.43      61.00
09:56:50 10-Dec-06     803.68    1398.00      10.44      61.00
09:57:00 10-Dec-06     803.68    1402.00      10.47      61.00
09:57:10 10-Dec-06     803.67    1401.00      10.47      61.00
09:57:20 10-Dec-06     803.67    1395.00      10.42      61.00
09:57:30 10-Dec-06     803.67    1398.00      10.44      61.00
09:57:40 10-Dec-06     803.67    1397.00      10.44      61.00
09:57:50 10-Dec-06     803.66    1397.00      10.44      61.00
09:58:00 10-Dec-06     803.66    1401.00      10.47      61.00
09:58:10 10-Dec-06     803.66    1401.00      10.47      61.00
09:58:20 10-Dec-06     803.65    1396.00      10.43      61.00
09:58:30 10-Dec-06     803.65    1402.00      10.47      61.00
09:58:40 10-Dec-06     803.65    1402.00      10.47      61.00
09:58:50 10-Dec-06     803.65    1399.00      10.45      61.00
09:59:00 10-Dec-06     803.64    1393.00      10.41      61.00
09:59:10 10-Dec-06     803.64    1393.00      10.41      61.00
09:59:20 10-Dec-06     803.64    1398.00      10.44      61.00
