~VERSION INFORMATION
VERS.           2.0   :CWLS Log ASCII Standard - VERSION 2.0
WRAP.           NO    :One Line per depth step
PROD.  Company   :LAS Producer
PROG.  DLIS to ASCII 12C0-302                          :LAS Program name and version
CREA.        2006/12/12 13:31                          :LAS Creation date {YYYY/MM/DD hh:mm}
SOURCE.     KGIII6-B1_17in_RIL-DLIS_RM_500-1445m.DLIS  :DLIS File Name
FILE-ID.     Run_1                                     :File Identification Number
#--------------------------------------------------
~WELL INFORMATION
#MNEM.UNIT      DATA             DESCRIPTION
#---- ------ --------------   -----------------------------
STRT .M       499.8720       :START DEPTH     
STOP .M      1445.2092       :STOP DEPTH     
STEP .M         0.1524       :STEP     
NULL .          -999.25      :NULL VALUE
COMP .        Company:COMPANY
WELL .        W2:WELL
FLD  .        Block                  :FIELD
LOC  .        Offshore                                 :LOCATION
CNTY .        Actinia                                  :COUNTY
STAT .        State                                    :STATE
CTRY .                                                 :COUNTRY
API  .        06INM0159                                :Service Order NUMBER
UWI  .                                                 :UNIQUE WELL ID
DATE .        09-Dec-2006                              :LOG DATE {DD-MMM-YYYY}
SRVC .        Company                             :SERVICE COMPANY
LATI .DEG     N 16.2763                                :LATITUDE
LONG .DEG     E 82.0962                                :LONGITUDE
GDAT .                                                 :GeoDetic Datum
SECT .        17.5 in.                                 :Section
#-----------------------------------------------------------------------------
~PARAMETER INFORMATION
#MNEM.UNIT    VALUE                      DESCRIPTION
#---- -----   --------------------       ------------------------
TN1 .        PowerPulse                  :Tool Number 1
TN2 .        ARC                         :Tool Number 2
OS3  .          N/A                      :Other Services Line 3
OS2  .          InterACT                 :Other Services Line 2
OS1  .          Directional Surveys      :Other Services Line 1
MST  .DEGC      66.00000                 :Mud Sample Temperature
BHT  .DEGC      81.00000                 :Bottom Hole Temperature
RMS.OHMM      1000.00000                 :Resistivity of Mud Sample (RM)
MST.DEGC        66.00000                 :Mud Sample temperature (RM)
MW.LB/G         11.60000                 :Mud Weight (RM)
SHT.DEGC        25.00000                 :Surface Hole Temperature (RM)
BSAL .PPM     75900.00000                :Mud Salinity
MRT  .DEGC      81.00000                 :Maximum Recorded Temperature
RMB  .OHMM    1000.00000                 :Resistivity of Mud - BHT
MCST .DEGC      66.00000                 :Mud Cake Sample Temperature
RMCS .OHMM    1000.00000                 :Resistivity of Mud Cake Sample
MFST .DEGC      66.00000                 :Mud Filtrate Sample Temperature
RMFS .OHMM    1000.00000                 :Resistivity of Mud Filtrate Sample
RMS  .OHMM    1000.00000                 :Resistivity of Mud Sample
MSS  .        Shakers                    :Mud Sample Source
MFSS  .       Shakers                    :Mud Filtrate Sample Source
MCSS  .       Shakers                    :Mud Cake Sample Source
TCS  .         20 10                     :End Log Time
DCS  .         11-Dec-2006               :End Log Date
DFT  .        SOBM                       :Drilling Fluid Type
DFPH .           N/A                     :Drilling Fluid PH
DFV  .S       80.00000                   :Drilling Fluid Viscosity
DFD  .LB/G    10.500000                  :Drilling Fluid Density
DOWR .        70/30                      :Oil/Water Ratio
DFTS .        19.00                      :Drilling Fluid Total Solids
DHGS .        242.31                     :Drilling Fluid High Gravity Solids
TLAB .        16 00                      :Begin Log Time
DLAB .        09-Dec-2006                :Begin Log Date
RUN  .        1                          :Run Number
BLI  .M       1445.00000                 :Bottom Log Interval
TLI  .M        500.00000                 :Top Log Interval
WITN .        Sven                       :Witness's Name
ENGI .        Hatim/Harsh/Sidy           :Engineer's Name
LUL  .        Zone 2                     :Logging Unit Location
LUN  .        OLU-KC-0103                :Logging Unit Number
RR5  .        No Barite and Potassium in mud :Remark Line 5
RR2  .        ARC6 Resistivity is environmentally corrected for mud resistivity and bit size. :Remark Line 2
RR1  .        GR is corrected for bit size, tool size and mud weight               :Remark Line 1
PDAT .        Lowest Astronomical Tide   :Permanent Datum
EPD  .M          0.00000                 :Elevation of Permanent Datum
DMF  .        Driller's Depth            :Drilling Measured From
LMF  .        Rotary table               :Log Measured From
APD  .M         25.60000                 :Above Permanent Datum
EDF  .M         25.60000                 :Elevation of Derrick Floor
EGL  .M       -80.360000                 :Elevation of Ground Level
EKB  .M         25.60000                 :Elevation of Kelly Bushing
TDL  .M       1445.00000                 :Total Depth - Logger
TDD  .M       1445.00000                 :Total Depth - Driller
MHD  .DEG       2.03                     :Maximum Hole Deviation
AMD  .DEG     181.420000                 :Azimuth of Maximum Hole Deviation
BS   .IN        17.50                    :Bit Size
BSDT .M       500.00000                  :Bit Size Depth To
BSDF .M       1445.00000                 :Bit Size Depth From
CWEI .LB/M     436.00000                 :Casing Weight
CSIZ .IN        20.0000                  :Current Casing Size
CASG .         P-110                     :Casing Grade
CADT .        500.000                    :Casing Depth To
CDF  .        102.5000                   :Casing Depth From
CBLO .M       500.0000                   :Casing Bottom Logger
CBDR .M       500.0000                   :Casing Bottom Driller
#-----------------------------------------------------------------------------
~CURVE INFORMATION
#MNEM.UNIT   API CODE                                  DESCRIPTION
#---- -----  --------                                  -----------------------
DEPT .M                                                :DEPTH (BOREHOLE) {F10.4}
ROP5_RM.M/HR                                           :Rate of Penetration, Averaged over Last 5ft {F13.4}
TAB_ARC_RES.HR                                         :ARC Resistivity Time After Bit {F13.4}
GR_ARC.GAPI                                            :ARC Gamma Ray {F13.4}
A16H .OHMM                                             :ARC Attenuation Resistivity 16-in. at 2 MHz {F13.4}
A22H .OHMM                                             :ARC Attenuation Resistivity 22-in. at 2 MHz {F13.4}
A28H .OHMM                                             :ARC Attenuation Resistivity 28-in. at 2 MHz {F13.4}
A34H .OHMM                                             :ARC Attenuation Resistivity 34-in. at 2 MHz {F13.4}
A40H .OHMM                                             :ARC Attenuation Resistivity 40-in. at 2 MHz {F13.4}
A16L .OHMM                                             :ARC Attenuation Resistivity 16-in. at 400 KHz {F13.4}
A22L .OHMM                                             :ARC Attenuation Resistivity 22-in. at 400 KHz {F13.4}
A28L .OHMM                                             :ARC Attenuation Resistivity 28-in. at 400 KHz {F13.4}
A34L .OHMM                                             :ARC Attenuation Resistivity 34-in. at 400 KHz {F13.4}
A40L .OHMM                                             :ARC Attenuation Resistivity 40-in. at 400 KHz {F13.4}
P16H .OHMM                                             :ARC Phase-Shift Resistivity 16-in. at 2 MHz {F13.4}
P22H .OHMM                                             :ARC Phase-Shift Resistivity 22-in. at 2 MHz {F13.4}
P28H .OHMM                                             :ARC Phase-Shift Resistivity 28-in. at 2 MHz {F13.4}
P34H .OHMM                                             :ARC Phase-Shift Resistivity 34-in. at 2 MHz {F13.4}
P40H .OHMM                                             :ARC Phase-Shift Resistivity 40-in. at 2 MHz {F13.4}
P16L .OHMM                                             :ARC Phase-Shift Resistivity 16-in. at 400 KHz {F13.4}
P22L .OHMM                                             :ARC Phase-Shift Resistivity 22-in. at 400 KHz {F13.4}
P28L .OHMM                                             :ARC Phase-Shift Resistivity 28-in. at 400 KHz {F13.4}
P34L .OHMM                                             :ARC Phase-Shift Resistivity 34-in. at 400 KHz {F13.4}
P40L .OHMM                                             :ARC Phase-Shift Resistivity 40-in. at 400 KHz {F13.4}
ATMP .DEGC                                             :ARC Annular Temperature {F13.4}
APRS_ARC.PSI                                           :ARC Annular Pressure {F13.4}
ECD_ARC.LB/G                                           :Equivalent Circulating Density {F13.4}
#-----------------------------------------------------------------------------
# 
#     DEPT      ROP5_RM    TAB_ARC_RES     GR_ARC        A16H         A22H         A28H         A34H         A40H         A16L         A22L         A28L         A34L         A40L         P16H         P22H         P28H         P34H         P40H         P16L         P22L         P28L         P34L         P40L         ATMP       APRS_ARC     ECD_ARC
#
~A  
# ...
  994.1052      43.9271       0.6972     111.2598       0.7781       0.7888       0.8060       0.8286       0.8491       0.8115       0.8275       0.8344       0.8325       0.8279       0.8590       0.8276       0.8080       0.8081       0.8174       0.8433       0.8382       0.8353       0.8322       0.8267      69.0000    1820.0007      10.7664
  994.2576      43.0022       0.6972     114.1485       0.8063       0.8066       0.8184       0.8413       0.8638       0.8218       0.8327       0.8370       0.8342       0.8291       0.8385       0.8101       0.7906       0.7872       0.7919       0.8488       0.8378       0.8313       0.8267       0.8204      69.0000    1820.0007      10.7647
  994.4100      42.5534       0.6944     121.1515       0.7906       0.8105       0.8253       0.8354       0.8447       0.8216       0.8311       0.8369       0.8348       0.8277       0.8367       0.8100       0.7894       0.7776       0.7695       0.8498       0.8345       0.8259       0.8242       0.8236      69.0000    1820.0007      10.7631
  994.5624      39.8638       0.6972     123.6463       0.8011       0.8118       0.8182       0.8102       0.7922       0.8166       0.8303       0.8378       0.8324       0.8191       0.8351       0.8099       0.7817       0.7489       0.7159       0.8453       0.8292       0.8202       0.8178       0.8159      69.0000    1820.0007      10.7615
  994.7148      38.7883       0.6972     121.6330       0.7714       0.7714       0.7871       0.8105       0.8259       0.8188       0.8229       0.8272       0.8222       0.8087       0.8258       0.8030       0.7837       0.7737       0.7698       0.8243       0.8184       0.8179       0.8170       0.8104      69.0000    1820.0007      10.7599
  994.8672      37.5922       0.6944     121.1953       0.7979       0.7800       0.7769       0.7887       0.8024       0.8058       0.8174       0.8253       0.8220       0.8105       0.8156       0.7944       0.7706       0.7508       0.7376       0.8214       0.8134       0.8135       0.8136       0.8065      69.0000    1820.0007      10.7581
  995.0196      36.2201       0.6972     119.2695       0.7521       0.7496       0.7617       0.7826       0.7979       0.7995       0.8077       0.8145       0.8154       0.8110       0.8072       0.7771       0.7558       0.7455       0.7383       0.8039       0.7946       0.7901       0.7855       0.7768      69.0000    1820.0007      10.7565
  995.1720      35.5924       0.6944     119.0944       0.7251       0.7468       0.7706       0.7861       0.7903       0.7785       0.7973       0.8109       0.8163       0.8158       0.7818       0.7455       0.7271       0.7229       0.7164       0.7887       0.7734       0.7687       0.7692       0.7654      69.0000    1820.0007      10.7549
  995.3244      34.3661       0.6972     113.6671       0.7047       0.7272       0.7458       0.7611       0.7757       0.7678       0.7906       0.8035       0.8098       0.8150       0.7455       0.7181       0.6987       0.6866       0.6749       0.7663       0.7569       0.7494       0.7455       0.7436      69.0000    1820.0007      10.7533
  995.4768      34.3018       0.7000     114.7175       0.7306       0.7429       0.7545       0.7715       0.7937       0.7687       0.7899       0.8033       0.8080       0.8083       0.7500       0.7277       0.7020       0.6881       0.6896       0.7614       0.7605       0.7569       0.7550       0.7573      69.0000    1820.0007      10.7515
  995.6292      34.5980       0.7000     116.7747       0.7342       0.7589       0.7784       0.7943       0.8104       0.7618       0.7880       0.8023       0.8063       0.8073       0.7731       0.7556       0.7418       0.7365       0.7363       0.7805       0.7758       0.7716       0.7714       0.7747      69.0000    1822.0008      10.7617
  995.7816      35.9129       0.7028     120.5825       0.7473       0.7698       0.7832       0.7878       0.7911       0.7699       0.7882       0.7992       0.8025       0.8021       0.8086       0.7866       0.7649       0.7431       0.7215       0.8008       0.7912       0.7848       0.7842       0.7868      69.0000    1821.0009      10.7542
  995.9340      37.1125       0.7056     117.3436       0.7669       0.7616       0.7630       0.7763       0.7951       0.7764       0.7916       0.7994       0.7972       0.7902       0.8188       0.7856       0.7567       0.7404       0.7335       0.8046       0.7899       0.7830       0.7828       0.7826      69.0000    1822.0008      10.7585
  996.0864      38.4767       0.7056     112.8355       0.7214       0.7345       0.7597       0.7884       0.8073       0.7713       0.7886       0.7976       0.7994       0.7990       0.8122       0.7712       0.7436       0.7346       0.7327       0.8009       0.7818       0.7743       0.7734       0.7688      69.0000    1823.0008      10.7626
  996.2388      38.6536       0.7028     110.8221       0.7390       0.7260       0.7268       0.7539       0.7958       0.7770       0.7894       0.7971       0.8010       0.8034       0.7896       0.7461       0.7149       0.7063       0.7102       0.7951       0.7787       0.7698       0.7640       0.7552      69.0000    1823.0008      10.7610
  996.3912      40.6032       0.7056     113.9297       0.7334       0.7293       0.7355       0.7561       0.7812       0.7796       0.7914       0.7957       0.7936       0.7903       0.7964       0.7620       0.7322       0.7165       0.7112       0.7862       0.7795       0.7722       0.7648       0.7582      69.0000    1823.0008      10.7594
  996.5436      42.0085       0.7056     120.1886       0.7448       0.7498       0.7602       0.7797       0.8027       0.7851       0.7913       0.7963       0.7992       0.8004       0.7895       0.7606       0.7374       0.7275       0.7259       0.7868       0.7820       0.7787       0.7727       0.7630      69.0000    1823.0008      10.7578
  996.6960      43.1606       0.7056     125.4408       0.7307       0.7533       0.7795       0.8049       0.8246       0.7746       0.7925       0.8041       0.8054       0.8005       0.8031       0.7757       0.7569       0.7503       0.7481       0.7966       0.7885       0.7840       0.7812       0.7768      69.0000    1823.0008      10.7560
  996.8484      43.2213       0.7028     126.3162       0.7366       0.7550       0.7794       0.8034       0.8198       0.7806       0.7920       0.8014       0.8038       0.8001       0.8229       0.7903       0.7700       0.7651       0.7644       0.8094       0.7953       0.7894       0.7869       0.7807      69.0000    1823.0008      10.7544
  997.0008      43.2213       0.7000     122.9898       0.7500       0.7682       0.7870       0.7990       0.8024       0.7797       0.7930       0.8049       0.8064       0.7980       0.8166       0.7876       0.7663       0.7518       0.7376       0.8087       0.7943       0.7889       0.7875       0.7823      69.0000    1824.0008      10.7587
  997.1532      41.5692       0.7028     120.0573       0.7120       0.7210       0.7449       0.7766       0.8004       0.7795       0.7877       0.7964       0.8036       0.8076       0.7957       0.7522       0.7244       0.7162       0.7143       0.7886       0.7749       0.7664       0.7609       0.7540      69.0000    1824.0008      10.7571
  997.3056      41.0350       0.7000     121.0640       0.6963       0.7118       0.7394       0.7743       0.8040       0.7806       0.7914       0.8007       0.8042       0.8019       0.7799       0.7392       0.7112       0.7039       0.7065       0.7847       0.7720       0.7636       0.7583       0.7524      69.0000    1824.0008      10.7553
  997.4580      39.4872       0.7000     125.1345       0.7303       0.7515       0.7684       0.7830       0.7985       0.7771       0.7939       0.8025       0.8050       0.8066       0.7881       0.7596       0.7382       0.7293       0.7266       0.7917       0.7808       0.7749       0.7720       0.7677      69.0000    1824.0008      10.7537
