~VERSION INFORMATION
VERS.           2.0   :CWLS Log ASCII Standard - VERSION 2.0
WRAP.           NO    :One Line per depth step
PROD.  Company   :LAS Producer
PROG.  DLIS to ASCII 12C0-302                          :LAS Program name and version
CREA.        2006/12/12 13:31                          :LAS Creation date {YYYY/MM/DD hh:mm}
SOURCE.     KGIII6-B1_17in_RIL-DLIS_RM_500-1445m.DLIS  :DLIS File Name
FILE-ID.     Run_1                                     :File Identification Number
#--------------------------------------------------
~WELL INFORMATION
#MNEM.UNIT      DATA             DESCRIPTION
#---- ------ --------------   -----------------------------
STRT .M       499.8720       :START DEPTH     
STOP .M      1445.2092       :STOP DEPTH     
STEP .M         0.1524       :STEP     
NULL .          -999.25      :NULL VALUE
COMP .        Company:COMPANY
WELL .        W2:WELL
FLD  .        Block                  :FIELD
LOC  .        Offshore                                 :LOCATION
CNTY .        Actinia                                  :COUNTY
STAT .        State                                    :STATE
CTRY .                                                 :COUNTRY
API  .        06INM0159                                :Service Order NUMBER
UWI  .                                                 :UNIQUE WELL ID
DATE .        09-Dec-2006                              :LOG DATE {DD-MMM-YYYY}
SRVC .        Company                             :SERVICE COMPANY
LATI .DEG     N 16.2763                                :LATITUDE
LONG .DEG     E 82.0962                                :LONGITUDE
GDAT .                                                 :GeoDetic Datum
SECT .        17.5 in.                                 :Section
#-----------------------------------------------------------------------------
~PARAMETER INFORMATION
#MNEM.UNIT    VALUE                      DESCRIPTION
#---- -----   --------------------       ------------------------
TN1 .        PowerPulse                  :Tool Number 1
TN2 .        ARC                         :Tool Number 2
OS3  .          N/A                      :Other Services Line 3
OS2  .          InterACT                 :Other Services Line 2
OS1  .          Directional Surveys      :Other Services Line 1
MST  .DEGC      66.00000                 :Mud Sample Temperature
BHT  .DEGC      81.00000                 :Bottom Hole Temperature
RMS.OHMM      1000.00000                 :Resistivity of Mud Sample (RM)
MST.DEGC        66.00000                 :Mud Sample temperature (RM)
MW.LB/G         11.60000                 :Mud Weight (RM)
SHT.DEGC        25.00000                 :Surface Hole Temperature (RM)
BSAL .PPM     75900.00000                :Mud Salinity
MRT  .DEGC      81.00000                 :Maximum Recorded Temperature
RMB  .OHMM    1000.00000                 :Resistivity of Mud - BHT
MCST .DEGC      66.00000                 :Mud Cake Sample Temperature
RMCS .OHMM    1000.00000                 :Resistivity of Mud Cake Sample
MFST .DEGC      66.00000                 :Mud Filtrate Sample Temperature
RMFS .OHMM    1000.00000                 :Resistivity of Mud Filtrate Sample
RMS  .OHMM    1000.00000                 :Resistivity of Mud Sample
MSS  .        Shakers                    :Mud Sample Source
MFSS  .       Shakers                    :Mud Filtrate Sample Source
MCSS  .       Shakers                    :Mud Cake Sample Source
TCS  .         20 10                     :End Log Time
DCS  .         11-Dec-2006               :End Log Date
DFT  .        SOBM                       :Drilling Fluid Type
DFPH .           N/A                     :Drilling Fluid PH
DFV  .S       80.00000                   :Drilling Fluid Viscosity
DFD  .LB/G    10.500000                  :Drilling Fluid Density
DOWR .        70/30                      :Oil/Water Ratio
DFTS .        19.00                      :Drilling Fluid Total Solids
DHGS .        242.31                     :Drilling Fluid High Gravity Solids
TLAB .        16 00                      :Begin Log Time
DLAB .        09-Dec-2006                :Begin Log Date
RUN  .        1                          :Run Number
BLI  .M       1445.00000                 :Bottom Log Interval
TLI  .M        500.00000                 :Top Log Interval
WITN .        Sven                       :Witness's Name
ENGI .        Hatim/Harsh/Sidy           :Engineer's Name
LUL  .        Zone 2                     :Logging Unit Location
LUN  .        OLU-KC-0103                :Logging Unit Number
RR5  .        No Barite and Potassium in mud :Remark Line 5
RR2  .        ARC6 Resistivity is environmentally corrected for mud resistivity and bit size. :Remark Line 2
RR1  .        GR is corrected for bit size, tool size and mud weight               :Remark Line 1
PDAT .        Lowest Astronomical Tide   :Permanent Datum
EPD  .M          0.00000                 :Elevation of Permanent Datum
DMF  .        Driller's Depth            :Drilling Measured From
LMF  .        Rotary table               :Log Measured From
APD  .M         25.60000                 :Above Permanent Datum
EDF  .M         25.60000                 :Elevation of Derrick Floor
EGL  .M       -80.360000                 :Elevation of Ground Level
EKB  .M         25.60000                 :Elevation of Kelly Bushing
TDL  .M       1445.00000                 :Total Depth - Logger
TDD  .M       1445.00000                 :Total Depth - Driller
MHD  .DEG       2.03                     :Maximum Hole Deviation
AMD  .DEG     181.420000                 :Azimuth of Maximum Hole Deviation
BS   .IN        17.50                    :Bit Size
BSDT .M       500.00000                  :Bit Size Depth To
BSDF .M       1445.00000                 :Bit Size Depth From
CWEI .LB/M     436.00000                 :Casing Weight
CSIZ .IN        20.0000                  :Current Casing Size
CASG .         P-110                     :Casing Grade
CADT .        500.000                    :Casing Depth To
CDF  .        102.5000                   :Casing Depth From
CBLO .M       500.0000                   :Casing Bottom Logger
CBDR .M       500.0000                   :Casing Bottom Driller
#-----------------------------------------------------------------------------
~CURVE INFORMATION
#MNEM.UNIT   API CODE                                  DESCRIPTION
#---- -----  --------                                  -----------------------
DEPT .M                                                :DEPTH (BOREHOLE) {F10.4}
ROP5_RM.M/HR                                           :Rate of Penetration, Averaged over Last 5ft {F13.4}
TAB_ARC_RES.HR                                         :ARC Resistivity Time After Bit {F13.4}
GR_ARC.GAPI                                            :ARC Gamma Ray {F13.4}
A16H .OHMM                                             :ARC Attenuation Resistivity 16-in. at 2 MHz {F13.4}
A22H .OHMM                                             :ARC Attenuation Resistivity 22-in. at 2 MHz {F13.4}
A28H .OHMM                                             :ARC Attenuation Resistivity 28-in. at 2 MHz {F13.4}
A34H .OHMM                                             :ARC Attenuation Resistivity 34-in. at 2 MHz {F13.4}
A40H .OHMM                                             :ARC Attenuation Resistivity 40-in. at 2 MHz {F13.4}
A16L .OHMM                                             :ARC Attenuation Resistivity 16-in. at 400 KHz {F13.4}
A22L .OHMM                                             :ARC Attenuation Resistivity 22-in. at 400 KHz {F13.4}
A28L .OHMM                                             :ARC Attenuation Resistivity 28-in. at 400 KHz {F13.4}
A34L .OHMM                                             :ARC Attenuation Resistivity 34-in. at 400 KHz {F13.4}
A40L .OHMM                                             :ARC Attenuation Resistivity 40-in. at 400 KHz {F13.4}
P16H .OHMM                                             :ARC Phase-Shift Resistivity 16-in. at 2 MHz {F13.4}
P22H .OHMM                                             :ARC Phase-Shift Resistivity 22-in. at 2 MHz {F13.4}
P28H .OHMM                                             :ARC Phase-Shift Resistivity 28-in. at 2 MHz {F13.4}
P34H .OHMM                                             :ARC Phase-Shift Resistivity 34-in. at 2 MHz {F13.4}
P40H .OHMM                                             :ARC Phase-Shift Resistivity 40-in. at 2 MHz {F13.4}
P16L .OHMM                                             :ARC Phase-Shift Resistivity 16-in. at 400 KHz {F13.4}
P22L .OHMM                                             :ARC Phase-Shift Resistivity 22-in. at 400 KHz {F13.4}
P28L .OHMM                                             :ARC Phase-Shift Resistivity 28-in. at 400 KHz {F13.4}
P34L .OHMM                                             :ARC Phase-Shift Resistivity 34-in. at 400 KHz {F13.4}
P40L .OHMM                                             :ARC Phase-Shift Resistivity 40-in. at 400 KHz {F13.4}
ATMP .DEGC                                             :ARC Annular Temperature {F13.4}
APRS_ARC.PSI                                           :ARC Annular Pressure {F13.4}
ECD_ARC.LB/G                                           :Equivalent Circulating Density {F13.4}
#-----------------------------------------------------------------------------
# 
#     DEPT      ROP5_RM    TAB_ARC_RES     GR_ARC        A16H         A22H         A28H         A34H         A40H         A16L         A22L         A28L         A34L         A40L         P16H         P22H         P28H         P34H         P40H         P16L         P22L         P28L         P34L         P40L         ATMP       APRS_ARC     ECD_ARC
#
~A  
# ...
 1362.1512      25.6415       0.9139     118.7004       0.5468       0.5139       0.5125       0.5614       0.6408       0.6337       0.6377       0.6433       0.6452       0.6419       0.7724       0.6631       0.5735       0.4953       0.4271       0.7131       0.6874       0.6716       0.6607       0.6469      79.0000    2723.0012      11.7504
 1362.3036      25.3140       0.9194     122.4645       0.5347       0.4985       0.4922       0.5462       0.6535       0.6336       0.6386       0.6468       0.6493       0.6433       0.7997       0.6660       0.5642       0.4768       0.4005       0.7147       0.6883       0.6714       0.6625       0.6537      79.0000    2723.0012      11.7491
 1362.4560      25.3673       0.9278     126.9726       0.5703       0.5574       0.5606       0.6033       0.6773       0.6417       0.6559       0.6604       0.6581       0.6561       0.7409       0.6509       0.5821       0.5235       0.4680       0.7002       0.6830       0.6713       0.6621       0.6511      79.0000    2723.0012      11.7478
 1362.6084      25.3104       0.9361     119.9697       0.5812       0.5672       0.5721       0.6298       0.7385       0.6506       0.6608       0.6677       0.6718       0.6748       0.7622       0.6601       0.5884       0.5395       0.4968       0.7121       0.6932       0.6788       0.6674       0.6554      79.0000    2724.0012      11.7508
 1362.7608      26.0870       0.9417     113.5357       0.5907       0.5827       0.5879       0.6419       0.7481       0.6525       0.6656       0.6741       0.6765       0.6759       0.7793       0.6812       0.6070       0.5541       0.5102       0.7295       0.7098       0.6944       0.6826       0.6714      79.0000    2724.0012      11.7495
 1362.9132      26.8229       0.9472     109.5965       0.5934       0.5733       0.5764       0.6257       0.7082       0.6653       0.6725       0.6772       0.6771       0.6737       0.7993       0.6977       0.6204       0.5598       0.5054       0.7435       0.7189       0.7035       0.6956       0.6880      79.0000    2724.0012      11.7482
 1363.0656      32.0185       0.9528     116.2056       0.5943       0.5693       0.5714       0.6257       0.7186       0.6708       0.6763       0.6805       0.6838       0.6864       0.8059       0.7001       0.6211       0.5496       0.4785       0.7482       0.7247       0.7104       0.7012       0.6892      79.0000    2726.0011      11.7554
 1363.2180      32.8677       0.9556     130.3866       0.5913       0.5558       0.5438       0.5896       0.6852       0.6679       0.6761       0.6799       0.6804       0.6808       0.8151       0.7034       0.6081       0.5274       0.4603       0.7582       0.7308       0.7146       0.7045       0.6918      79.0000    2727.0011      11.7584
 1363.3704      34.6666       0.9611     131.1307       0.5907       0.5673       0.5605       0.6070       0.7038       0.6727       0.6819       0.6865       0.6861       0.6842       0.8143       0.7078       0.6193       0.5508       0.4964       0.7563       0.7339       0.7201       0.7101       0.6974      79.0000    2727.0011      11.7572
 1363.5228      35.5068       0.9639     138.2650       0.6015       0.5864       0.5733       0.6011       0.6750       0.6730       0.6868       0.6939       0.6944       0.6933       0.8085       0.7159       0.6305       0.5630       0.5135       0.7608       0.7389       0.7249       0.7168       0.7084      79.0000    2728.0013      11.7602
 1363.6752      36.1139       0.9667     132.0060       0.5864       0.5730       0.5526       0.5710       0.6407       0.6774       0.6872       0.6900       0.6855       0.6793       0.8394       0.7318       0.6317       0.5523       0.4954       0.7684       0.7496       0.7364       0.7261       0.7145      79.0000    2728.0013      11.7588
 1363.8276      35.7953       0.9722     132.4437       0.6065       0.5812       0.5541       0.5659       0.6227       0.6753       0.6847       0.6888       0.6875       0.6849       0.8358       0.7394       0.6458       0.5708       0.5182       0.7725       0.7515       0.7390       0.7324       0.7247      79.0000    2728.0013      11.7575
 1363.9800      34.3211       0.9722     128.9422       0.5973       0.5733       0.5526       0.5710       0.6305       0.6762       0.6834       0.6831       0.6776       0.6729       0.8449       0.7448       0.6497       0.5738       0.5202       0.7726       0.7519       0.7386       0.7293       0.7181      79.0000    2729.0013      11.7605
 1364.1324      32.8374       0.9722     128.0669       0.5823       0.5389       0.5108       0.5323       0.5983       0.6746       0.6766       0.6778       0.6780       0.6778       0.8656       0.7443       0.6302       0.5334       0.4609       0.7785       0.7532       0.7374       0.7272       0.7152      79.0000    2730.0013      11.7635
 1364.2848      32.4914       0.9750     125.2657       0.5528       0.4847       0.4509       0.4565       0.4843       0.6546       0.6581       0.6615       0.6589       0.6506       0.8747       0.7404       0.6078       0.4604       0.3418       0.7645       0.7410       0.7270       0.7177       0.7054      79.0000    2731.0012      11.7665
 1364.4372      29.4860       0.9750     125.3970       0.5619       0.4785       0.4411       0.4442       0.4631       0.6523       0.6527       0.6566       0.6573       0.6518       0.8590       0.7349       0.6085       0.4571       0.3331       0.7596       0.7371       0.7225       0.7128       0.7015      79.0000    2731.0012      11.7652
 1364.5896      28.6324       0.9778     126.2724       0.5468       0.4707       0.4363       0.4413       0.4621       0.6443       0.6495       0.6534       0.6518       0.6460       0.8626       0.7249       0.5978       0.4335       0.2976       0.7457       0.7271       0.7145       0.7054       0.6951      79.0000    2731.0012      11.7639
 1364.7420      28.3994       1.0389     129.6425       0.6277       0.5660       0.5046       0.4877       0.5137       0.6473       0.6629       0.6702       0.6616       0.6446       0.7393       0.6665       0.5672       0.3552       0.1996       0.7181       0.6963       0.6843       0.6824       0.6816      79.0000    2731.0012      11.7626
 1364.8944      27.7345       1.0417     129.8176       0.6399       0.4963       0.4251       0.4380       0.5206       0.6556       0.6670       0.6694       0.6602       0.6473       0.7522       0.6536       0.5341       0.4175       0.3354       0.6977       0.6847       0.6788       0.6767       0.6722      79.0000    2731.0012      11.7613
 1365.0468      28.5751       1.0444     131.6997       0.5510       0.4625       0.4425       0.5088       0.6493       0.6568       0.6580       0.6542       0.6516       0.6542       0.7954       0.6721       0.5747       0.5254       0.5082       0.6920       0.6873       0.6849       0.6811       0.6742      79.0000    2732.0012      11.7642
 1365.1992      29.7016       1.0500     128.8109       0.6372       0.6152       0.5689       0.5380       0.5413       0.6472       0.6594       0.6650       0.6596       0.6488       0.7115       0.6597       0.5844       0.4320       0.2949       0.7039       0.6845       0.6742       0.6721       0.6704      80.0000    2734.0011      11.7715
 1365.3516      29.9690       1.0500     123.2523       0.6264       0.4763       0.4204       0.4641       0.5960       0.6480       0.6590       0.6603       0.6507       0.6386       0.7621       0.6474       0.5405       0.4489       0.3808       0.6939       0.6820       0.6770       0.6735       0.6655      80.0000    2733.0012      11.7659
 1365.5040      31.5438       1.0528     121.8079       0.4827       0.4980       0.5435       0.6019       0.6409       0.6271       0.6384       0.6495       0.6629       0.6769       0.8187       0.6951       0.6232       0.5578       0.4785       0.7239       0.7018       0.6842       0.6693       0.6538      80.0000    2738.0013      11.7861
