~VERSION INFORMATION
VERS.           2.0   :CWLS Log ASCII Standard - VERSION 2.0
WRAP.           NO    :One Line per depth step
PROD.  Company   :LAS Producer
PROG.  DLIS to ASCII 12C0-302                          :LAS Program name and version
CREA.        2006/12/12 13:31                          :LAS Creation date {YYYY/MM/DD hh:mm}
SOURCE.     KGIII6-B1_17in_RIL-DLIS_RM_500-1445m.DLIS  :DLIS File Name
FILE-ID.     Run_1                                     :File Identification Number
#--------------------------------------------------
~WELL INFORMATION
#MNEM.UNIT      DATA             DESCRIPTION
#---- ------ --------------   -----------------------------
STRT .M       499.8720       :START DEPTH     
STOP .M      1445.2092       :STOP DEPTH     
STEP .M         0.1524       :STEP     
NULL .          -999.25      :NULL VALUE
COMP .        Company:COMPANY
WELL .        W2:WELL
FLD  .        Block                  :FIELD
LOC  .        Offshore                                 :LOCATION
CNTY .        Actinia                                  :COUNTY
STAT .        State                                    :STATE
CTRY .                                                 :COUNTRY
API  .        06INM0159                                :Service Order NUMBER
UWI  .                                                 :UNIQUE WELL ID
DATE .        09-Dec-2006                              :LOG DATE {DD-MMM-YYYY}
SRVC .        Company                             :SERVICE COMPANY
LATI .DEG     N 16.2763                                :LATITUDE
LONG .DEG     E 82.0962                                :LONGITUDE
GDAT .                                                 :GeoDetic Datum
SECT .        17.5 in.                                 :Section
#-----------------------------------------------------------------------------
~PARAMETER INFORMATION
#MNEM.UNIT    VALUE                      DESCRIPTION
#---- -----   --------------------       ------------------------
TN1 .        PowerPulse                  :Tool Number 1
TN2 .        ARC                         :Tool Number 2
OS3  .          N/A                      :Other Services Line 3
OS2  .          InterACT                 :Other Services Line 2
OS1  .          Directional Surveys      :Other Services Line 1
MST  .DEGC      66.00000                 :Mud Sample Temperature
BHT  .DEGC      81.00000                 :Bottom Hole Temperature
RMS.OHMM      1000.00000                 :Resistivity of Mud Sample (RM)
MST.DEGC        66.00000                 :Mud Sample temperature (RM)
MW.LB/G         11.60000                 :Mud Weight (RM)
SHT.DEGC        25.00000                 :Surface Hole Temperature (RM)
BSAL .PPM     75900.00000                :Mud Salinity
MRT  .DEGC      81.00000                 :Maximum Recorded Temperature
RMB  .OHMM    1000.00000                 :Resistivity of Mud - BHT
MCST .DEGC      66.00000                 :Mud Cake Sample Temperature
RMCS .OHMM    1000.00000                 :Resistivity of Mud Cake Sample
MFST .DEGC      66.00000                 :Mud Filtrate Sample Temperature
RMFS .OHMM    1000.00000                 :Resistivity of Mud Filtrate Sample
RMS  .OHMM    1000.00000                 :Resistivity of Mud Sample
MSS  .        Shakers                    :Mud Sample Source
MFSS  .       Shakers                    :Mud Filtrate Sample Source
MCSS  .       Shakers                    :Mud Cake Sample Source
TCS  .         20 10                     :End Log Time
DCS  .         11-Dec-2006               :End Log Date
DFT  .        SOBM                       :Drilling Fluid Type
DFPH .           N/A                     :Drilling Fluid PH
DFV  .S       80.00000                   :Drilling Fluid Viscosity
DFD  .LB/G    10.500000                  :Drilling Fluid Density
DOWR .        70/30                      :Oil/Water Ratio
DFTS .        19.00                      :Drilling Fluid Total Solids
DHGS .        242.31                     :Drilling Fluid High Gravity Solids
TLAB .        16 00                      :Begin Log Time
DLAB .        09-Dec-2006                :Begin Log Date
RUN  .        1                          :Run Number
BLI  .M       1445.00000                 :Bottom Log Interval
TLI  .M        500.00000                 :Top Log Interval
WITN .        Sven                       :Witness's Name
ENGI .        Hatim/Harsh/Sidy           :Engineer's Name
LUL  .        Zone 2                     :Logging Unit Location
LUN  .        OLU-KC-0103                :Logging Unit Number
RR5  .        No Barite and Potassium in mud :Remark Line 5
RR2  .        ARC6 Resistivity is environmentally corrected for mud resistivity and bit size. :Remark Line 2
RR1  .        GR is corrected for bit size, tool size and mud weight               :Remark Line 1
PDAT .        Lowest Astronomical Tide   :Permanent Datum
EPD  .M          0.00000                 :Elevation of Permanent Datum
DMF  .        Driller's Depth            :Drilling Measured From
LMF  .        Rotary table               :Log Measured From
APD  .M         25.60000                 :Above Permanent Datum
EDF  .M         25.60000                 :Elevation of Derrick Floor
EGL  .M       -80.360000                 :Elevation of Ground Level
EKB  .M         25.60000                 :Elevation of Kelly Bushing
TDL  .M       1445.00000                 :Total Depth - Logger
TDD  .M       1445.00000                 :Total Depth - Driller
MHD  .DEG       2.03                     :Maximum Hole Deviation
AMD  .DEG     181.420000                 :Azimuth of Maximum Hole Deviation
BS   .IN        17.50                    :Bit Size
BSDT .M       500.00000                  :Bit Size Depth To
BSDF .M       1445.00000                 :Bit Size Depth From
CWEI .LB/M     436.00000                 :Casing Weight
CSIZ .IN        20.0000                  :Current Casing Size
CASG .         P-110                     :Casing Grade
CADT .        500.000                    :Casing Depth To
CDF  .        102.5000                   :Casing Depth From
CBLO .M       500.0000                   :Casing Bottom Logger
CBDR .M       500.0000                   :Casing Bottom Driller
#-----------------------------------------------------------------------------
~CURVE INFORMATION
#MNEM.UNIT   API CODE                                  DESCRIPTION
#---- -----  --------                                  -----------------------
DEPT .M                                                :DEPTH (BOREHOLE) {F10.4}
ROP5_RM.M/HR                                           :Rate of Penetration, Averaged over Last 5ft {F13.4}
TAB_ARC_RES.HR                                         :ARC Resistivity Time After Bit {F13.4}
GR_ARC.GAPI                                            :ARC Gamma Ray {F13.4}
A16H .OHMM                                             :ARC Attenuation Resistivity 16-in. at 2 MHz {F13.4}
A22H .OHMM                                             :ARC Attenuation Resistivity 22-in. at 2 MHz {F13.4}
A28H .OHMM                                             :ARC Attenuation Resistivity 28-in. at 2 MHz {F13.4}
A34H .OHMM                                             :ARC Attenuation Resistivity 34-in. at 2 MHz {F13.4}
A40H .OHMM                                             :ARC Attenuation Resistivity 40-in. at 2 MHz {F13.4}
A16L .OHMM                                             :ARC Attenuation Resistivity 16-in. at 400 KHz {F13.4}
A22L .OHMM                                             :ARC Attenuation Resistivity 22-in. at 400 KHz {F13.4}
A28L .OHMM                                             :ARC Attenuation Resistivity 28-in. at 400 KHz {F13.4}
A34L .OHMM                                             :ARC Attenuation Resistivity 34-in. at 400 KHz {F13.4}
A40L .OHMM                                             :ARC Attenuation Resistivity 40-in. at 400 KHz {F13.4}
P16H .OHMM                                             :ARC Phase-Shift Resistivity 16-in. at 2 MHz {F13.4}
P22H .OHMM                                             :ARC Phase-Shift Resistivity 22-in. at 2 MHz {F13.4}
P28H .OHMM                                             :ARC Phase-Shift Resistivity 28-in. at 2 MHz {F13.4}
P34H .OHMM                                             :ARC Phase-Shift Resistivity 34-in. at 2 MHz {F13.4}
P40H .OHMM                                             :ARC Phase-Shift Resistivity 40-in. at 2 MHz {F13.4}
P16L .OHMM                                             :ARC Phase-Shift Resistivity 16-in. at 400 KHz {F13.4}
P22L .OHMM                                             :ARC Phase-Shift Resistivity 22-in. at 400 KHz {F13.4}
P28L .OHMM                                             :ARC Phase-Shift Resistivity 28-in. at 400 KHz {F13.4}
P34L .OHMM                                             :ARC Phase-Shift Resistivity 34-in. at 400 KHz {F13.4}
P40L .OHMM                                             :ARC Phase-Shift Resistivity 40-in. at 400 KHz {F13.4}
ATMP .DEGC                                             :ARC Annular Temperature {F13.4}
APRS_ARC.PSI                                           :ARC Annular Pressure {F13.4}
ECD_ARC.LB/G                                           :Equivalent Circulating Density {F13.4}
#-----------------------------------------------------------------------------
# 
#     DEPT      ROP5_RM    TAB_ARC_RES     GR_ARC        A16H         A22H         A28H         A34H         A40H         A16L         A22L         A28L         A34L         A40L         P16H         P22H         P28H         P34H         P40H         P16L         P22L         P28L         P34L         P40L         ATMP       APRS_ARC     ECD_ARC
#
~A  
# ...
  808.3296      37.2942       0.3139     122.2020       0.9213       0.9383       0.9644       0.9841       0.9874       0.9719       0.9934       1.0081       1.0166       1.0231       1.0318       0.9885       0.9565       0.9348       0.9131       1.0170       1.0012       0.9933       0.9919       0.9898      62.0000    1476.0007      10.7428
  808.4820      39.6915       0.3139     117.3875       0.9325       0.9280       0.9360       0.9554       0.9744       0.9842       1.0040       1.0145       1.0153       1.0156       1.0262       0.9811       0.9456       0.9219       0.9017       1.0125       1.0004       0.9951       0.9934       0.9891      62.0000    1477.0006      10.7480
  808.6344      40.2869       0.3111     119.3133       0.9519       0.9723       0.9845       0.9827       0.9743       0.9840       1.0053       1.0206       1.0242       1.0228       1.0139       0.9782       0.9490       0.9280       0.9097       1.0268       1.0063       0.9930       0.9872       0.9833      62.0000    1479.0006      10.7606
  808.7868      40.1882       0.3194     120.4950       0.9558       0.9675       0.9818       0.9987       1.0165       0.9739       0.9985       1.0162       1.0208       1.0206       1.0092       0.9800       0.9563       0.9420       0.9318       1.0173       1.0042       0.9943       0.9885       0.9841      62.0000    1479.0006      10.7585
  808.9392      40.1258       0.3417     120.3200       0.9361       0.9692       0.9782       0.9552       0.9239       0.9772       0.9976       1.0142       1.0189       1.0171       1.0191       0.9826       0.9482       0.9059       0.8567       1.0178       1.0088       1.0009       0.9942       0.9884      62.0000    1479.0006      10.7565
  809.0916      39.6854       0.3417     114.3236       0.9238       0.9331       0.9511       0.9745       0.9942       0.9716       0.9886       0.9992       1.0034       1.0034       1.0349       0.9997       0.9663       0.9502       0.9491       1.0213       1.0099       1.0010       0.9972       0.9967      62.0000    1480.0007      10.7617
  809.2440      40.7930       0.3444     107.6270       0.9463       0.9608       0.9610       0.9416       0.9168       0.9646       0.9887       1.0014       1.0030       1.0004       1.0301       0.9946       0.9618       0.9297       0.8965       1.0173       1.0012       0.9898       0.9848       0.9818      62.0000    1480.0007      10.7597
  809.3964      41.7384       0.3444     106.0514       0.9163       0.9172       0.9310       0.9612       0.9953       0.9644       0.9796       0.9879       0.9891       0.9875       1.0115       0.9634       0.9285       0.9157       0.9135       0.9989       0.9830       0.9738       0.9689       0.9629      62.0000    1480.0007      10.7576
  809.5488      44.0848       0.3444     106.4891       0.9067       0.9054       0.9157       0.9328       0.9452       0.9622       0.9726       0.9772       0.9780       0.9788       0.9855       0.9426       0.9076       0.8857       0.8708       0.9776       0.9627       0.9542       0.9507       0.9465      62.0000    1484.0007      10.7847
  809.7012      47.5283       0.3444     108.8088       0.9251       0.9322       0.9350       0.9297       0.9205       0.9349       0.9612       0.9758       0.9737       0.9631       0.9550       0.9280       0.9020       0.8764       0.8512       0.9641       0.9496       0.9412       0.9376       0.9338      62.0000    1485.0007      10.7899
  809.8536      49.4379       0.3417     113.3170       0.9251       0.9322       0.9350       0.9297       0.9205       0.9349       0.9612       0.9758       0.9737       0.9631       0.9550       0.9280       0.9020       0.8764       0.8512       0.9641       0.9496       0.9412       0.9376       0.9338      62.0000    1486.0006      10.7952
  810.0060      50.2345       0.3417     116.3808       0.8679       0.8826       0.9062       0.9324       0.9512       0.9237       0.9466       0.9639       0.9736       0.9779       0.9560       0.9180       0.8901       0.8775       0.8714       0.9542       0.9381       0.9278       0.9216       0.9150      62.0000    1486.0006      10.7931
  810.1584      50.3358       0.3389     119.0069       0.8504       0.8741       0.8990       0.9208       0.9372       0.9251       0.9417       0.9512       0.9524       0.9499       0.9327       0.8930       0.8660       0.8564       0.8535       0.9242       0.9135       0.9090       0.9047       0.8954      62.0000    1487.0006      10.7983
  810.3108      50.8020       0.3389     118.2628       0.8876       0.8675       0.8617       0.8778       0.9033       0.9290       0.9396       0.9480       0.9525       0.9540       0.9005       0.8724       0.8455       0.8277       0.8180       0.9145       0.9066       0.9035       0.9007       0.8939      62.0000    1487.0006      10.7963
  810.4632      50.9238       0.3389     116.0744       0.8402       0.8631       0.8894       0.9061       0.9084       0.9211       0.9365       0.9465       0.9499       0.9498       0.9330       0.8938       0.8684       0.8523       0.8337       0.9326       0.9161       0.9038       0.8963       0.8905      62.0000    1487.0006      10.7943
  810.6156      50.4527       0.3389     115.6367       0.8588       0.8644       0.8763       0.8935       0.9096       0.9223       0.9408       0.9509       0.9534       0.9531       0.9236       0.8862       0.8542       0.8344       0.8225       0.9166       0.9104       0.9033       0.8968       0.8919      62.0000    1488.0007      10.7994
  810.7680      49.2947       0.3389     117.1248       0.8879       0.8964       0.9002       0.9028       0.9080       0.9138       0.9354       0.9448       0.9442       0.9418       0.9209       0.8940       0.8683       0.8481       0.8328       0.9319       0.9191       0.9073       0.9023       0.9035      62.0000    1488.0007      10.7974
  810.9204      50.0414       0.3389     121.5017       0.8866       0.8995       0.9120       0.9192       0.9206       0.9179       0.9375       0.9471       0.9523       0.9589       0.9418       0.9144       0.8909       0.8723       0.8557       0.9433       0.9333       0.9251       0.9193       0.9147      62.0000    1489.0007      10.8027
  811.0728      50.4384       0.3389     122.3771       0.8812       0.9101       0.9313       0.9449       0.9570       0.9235       0.9389       0.9471       0.9517       0.9568       1.0023       0.9628       0.9350       0.9302       0.9382       0.9696       0.9591       0.9523       0.9477       0.9423      62.0000    1489.0007      10.8007
  811.2252      50.8856       0.3389     120.0136       0.9484       0.9277       0.9192       0.9243       0.9326       0.9358       0.9492       0.9505       0.9423       0.9340       1.0084       0.9811       0.9569       0.9334       0.9083       0.9851       0.9694       0.9611       0.9565       0.9497      62.0000    1490.0006      10.8058
  811.3776      51.2860       0.3361     113.8860       0.9484       0.9277       0.9192       0.9243       0.9326       0.9358       0.9492       0.9505       0.9423       0.9340       1.0084       0.9811       0.9569       0.9334       0.9083       0.9851       0.9694       0.9611       0.9565       0.9497      62.0000    1491.0006      10.8110
  811.5300      53.2468       0.3361     108.1960       0.8977       0.8989       0.9126       0.9256       0.9255       0.9241       0.9418       0.9495       0.9479       0.9441       0.9692       0.9255       0.8964       0.8804       0.8654       0.9677       0.9400       0.9256       0.9193       0.9104      62.0000    1492.0006      10.8163
  811.6824      52.9576       0.3361     104.6946       0.8736       0.8777       0.8910       0.9129       0.9342       0.9216       0.9354       0.9452       0.9499       0.9514       0.9598       0.9164       0.8896       0.8793       0.8711       0.9518       0.9329       0.9209       0.9137       0.9059      62.0000    1492.0006      10.8143
