~VERSION INFORMATION
VERS.           2.0   :CWLS Log ASCII Standard - VERSION 2.0
WRAP.           NO    :One Line per depth step
PROD.  Company   :LAS Producer
PROG.  DLIS to ASCII 12C0-302                          :LAS Program name and version
CREA.        2006/12/12 13:31                          :LAS Creation date {YYYY/MM/DD hh:mm}
SOURCE.     KGIII6-B1_17in_RIL-DLIS_RM_500-1445m.DLIS  :DLIS File Name
FILE-ID.     Run_1                                     :File Identification Number
#--------------------------------------------------
~WELL INFORMATION
#MNEM.UNIT      DATA             DESCRIPTION
#---- ------ --------------   -----------------------------
STRT .M       499.8720       :START DEPTH     
STOP .M      1445.2092       :STOP DEPTH     
STEP .M         0.1524       :STEP     
NULL .          -999.25      :NULL VALUE
COMP .        Company:COMPANY
WELL .        W2:WELL
FLD  .        Block                  :FIELD
LOC  .        Offshore                                 :LOCATION
CNTY .        Actinia                                  :COUNTY
STAT .        State                                    :STATE
CTRY .                                                 :COUNTRY
API  .        06INM0159                                :Service Order NUMBER
UWI  .                                                 :UNIQUE WELL ID
DATE .        09-Dec-2006                              :LOG DATE {DD-MMM-YYYY}
SRVC .        Company                             :SERVICE COMPANY
LATI .DEG     N 16.2763                                :LATITUDE
LONG .DEG     E 82.0962                                :LONGITUDE
GDAT .                                                 :GeoDetic Datum
SECT .        17.5 in.                                 :Section
#-----------------------------------------------------------------------------
~PARAMETER INFORMATION
#MNEM.UNIT    VALUE                      DESCRIPTION
#---- -----   --------------------       ------------------------
TN1 .        PowerPulse                  :Tool Number 1
TN2 .        ARC                         :Tool Number 2
OS3  .          N/A                      :Other Services Line 3
OS2  .          InterACT                 :Other Services Line 2
OS1  .          Directional Surveys      :Other Services Line 1
MST  .DEGC      66.00000                 :Mud Sample Temperature
BHT  .DEGC      81.00000                 :Bottom Hole Temperature
RMS.OHMM      1000.00000                 :Resistivity of Mud Sample (RM)
MST.DEGC        66.00000                 :Mud Sample temperature (RM)
MW.LB/G         11.60000                 :Mud Weight (RM)
SHT.DEGC        25.00000                 :Surface Hole Temperature (RM)
BSAL .PPM     75900.00000                :Mud Salinity
MRT  .DEGC      81.00000                 :Maximum Recorded Temperature
RMB  .OHMM    1000.00000                 :Resistivity of Mud - BHT
MCST .DEGC      66.00000                 :Mud Cake Sample Temperature
RMCS .OHMM    1000.00000                 :Resistivity of Mud Cake Sample
MFST .DEGC      66.00000                 :Mud Filtrate Sample Temperature
RMFS .OHMM    1000.00000                 :Resistivity of Mud Filtrate Sample
RMS  .OHMM    1000.00000                 :Resistivity of Mud Sample
MSS  .        Shakers                    :Mud Sample Source
MFSS  .       Shakers                    :Mud Filtrate Sample Source
MCSS  .       Shakers                    :Mud Cake Sample Source
TCS  .         20 10                     :End Log Time
DCS  .         11-Dec-2006               :End Log Date
DFT  .        SOBM                       :Drilling Fluid Type
DFPH .           N/A                     :Drilling Fluid PH
DFV  .S       80.00000                   :Drilling Fluid Viscosity
DFD  .LB/G    10.500000                  :Drilling Fluid Density
DOWR .        70/30                      :Oil/Water Ratio
DFTS .        19.00                      :Drilling Fluid Total Solids
DHGS .        242.31                     :Drilling Fluid High Gravity Solids
TLAB .        16 00                      :Begin Log Time
DLAB .        09-Dec-2006                :Begin Log Date
RUN  .        1                          :Run Number
BLI  .M       1445.00000                 :Bottom Log Interval
TLI  .M        500.00000                 :Top Log Interval
WITN .        Sven                       :Witness's Name
ENGI .        Hatim/Harsh/Sidy           :Engineer's Name
LUL  .        Zone 2                     :Logging Unit Location
LUN  .        OLU-KC-0103                :Logging Unit Number
RR5  .        No Barite and Potassium in mud :Remark Line 5
RR2  .        ARC6 Resistivity is environmentally corrected for mud resistivity and bit size. :Remark Line 2
RR1  .        GR is corrected for bit size, tool size and mud weight               :Remark Line 1
PDAT .        Lowest Astronomical Tide   :Permanent Datum
EPD  .M          0.00000                 :Elevation of Permanent Datum
DMF  .        Driller's Depth            :Drilling Measured From
LMF  .        Rotary table               :Log Measured From
APD  .M         25.60000                 :Above Permanent Datum
EDF  .M         25.60000                 :Elevation of Derrick Floor
EGL  .M       -80.360000                 :Elevation of Ground Level
EKB  .M         25.60000                 :Elevation of Kelly Bushing
TDL  .M       1445.00000                 :Total Depth - Logger
TDD  .M       1445.00000                 :Total Depth - Driller
MHD  .DEG       2.03                     :Maximum Hole Deviation
AMD  .DEG     181.420000                 :Azimuth of Maximum Hole Deviation
BS   .IN        17.50                    :Bit Size
BSDT .M       500.00000                  :Bit Size Depth To
BSDF .M       1445.00000                 :Bit Size Depth From
CWEI .LB/M     436.00000                 :Casing Weight
CSIZ .IN        20.0000                  :Current Casing Size
CASG .         P-110                     :Casing Grade
CADT .        500.000                    :Casing Depth To
CDF  .        102.5000                   :Casing Depth From
CBLO .M       500.0000                   :Casing Bottom Logger
CBDR .M       500.0000                   :Casing Bottom Driller
#-----------------------------------------------------------------------------
~CURVE INFORMATION
#MNEM.UNIT   API CODE                                  DESCRIPTION
#---- -----  --------                                  -----------------------
DEPT .M                                                :DEPTH (BOREHOLE) {F10.4}
ROP5_RM.M/HR                                           :Rate of Penetration, Averaged over Last 5ft {F13.4}
TAB_ARC_RES.HR                                         :ARC Resistivity Time After Bit {F13.4}
GR_ARC.GAPI                                            :ARC Gamma Ray {F13.4}
A16H .OHMM                                             :ARC Attenuation Resistivity 16-in. at 2 MHz {F13.4}
A22H .OHMM                                             :ARC Attenuation Resistivity 22-in. at 2 MHz {F13.4}
A28H .OHMM                                             :ARC Attenuation Resistivity 28-in. at 2 MHz {F13.4}
A34H .OHMM                                             :ARC Attenuation Resistivity 34-in. at 2 MHz {F13.4}
A40H .OHMM                                             :ARC Attenuation Resistivity 40-in. at 2 MHz {F13.4}
A16L .OHMM                                             :ARC Attenuation Resistivity 16-in. at 400 KHz {F13.4}
A22L .OHMM                                             :ARC Attenuation Resistivity 22-in. at 400 KHz {F13.4}
A28L .OHMM                                             :ARC Attenuation Resistivity 28-in. at 400 KHz {F13.4}
A34L .OHMM                                             :ARC Attenuation Resistivity 34-in. at 400 KHz {F13.4}
A40L .OHMM                                             :ARC Attenuation Resistivity 40-in. at 400 KHz {F13.4}
P16H .OHMM                                             :ARC Phase-Shift Resistivity 16-in. at 2 MHz {F13.4}
P22H .OHMM                                             :ARC Phase-Shift Resistivity 22-in. at 2 MHz {F13.4}
P28H .OHMM                                             :ARC Phase-Shift Resistivity 28-in. at 2 MHz {F13.4}
P34H .OHMM                                             :ARC Phase-Shift Resistivity 34-in. at 2 MHz {F13.4}
P40H .OHMM                                             :ARC Phase-Shift Resistivity 40-in. at 2 MHz {F13.4}
P16L .OHMM                                             :ARC Phase-Shift Resistivity 16-in. at 400 KHz {F13.4}
P22L .OHMM                                             :ARC Phase-Shift Resistivity 22-in. at 400 KHz {F13.4}
P28L .OHMM                                             :ARC Phase-Shift Resistivity 28-in. at 400 KHz {F13.4}
P34L .OHMM                                             :ARC Phase-Shift Resistivity 34-in. at 400 KHz {F13.4}
P40L .OHMM                                             :ARC Phase-Shift Resistivity 40-in. at 400 KHz {F13.4}
ATMP .DEGC                                             :ARC Annular Temperature {F13.4}
APRS_ARC.PSI                                           :ARC Annular Pressure {F13.4}
ECD_ARC.LB/G                                           :Equivalent Circulating Density {F13.4}
#-----------------------------------------------------------------------------
# 
#     DEPT      ROP5_RM    TAB_ARC_RES     GR_ARC        A16H         A22H         A28H         A34H         A40H         A16L         A22L         A28L         A34L         A40L         P16H         P22H         P28H         P34H         P40H         P16L         P22L         P28L         P34L         P40L         ATMP       APRS_ARC     ECD_ARC
#
~A  
# ...
  871.4232      37.0014       0.5889     100.3177       0.9347       0.9218       0.9193       0.9366       0.9645       0.9413       0.9615       0.9718       0.9732       0.9720       0.9654       0.9384       0.9117       0.8966       0.8934       0.9759       0.9636       0.9565       0.9518       0.9453      65.0000    1598.0007      10.7868
  871.5756      38.3994       0.5917     100.4490       0.9247       0.9451       0.9618       0.9673       0.9645       0.9228       0.9538       0.9709       0.9750       0.9751       0.9811       0.9620       0.9483       0.9364       0.9216       0.9879       0.9753       0.9661       0.9596       0.9531      65.0000    1598.0007      10.7849
  871.7280      39.1463       0.5944     107.2769       0.9055       0.9167       0.9348       0.9527       0.9629       0.9308       0.9572       0.9761       0.9822       0.9796       1.0137       0.9729       0.9424       0.9295       0.9248       0.9927       0.9778       0.9682       0.9629       0.9576      65.0000    1599.0008      10.7897
  871.8804      39.2022       0.5944     107.8896       0.9349       0.9391       0.9388       0.9348       0.9312       0.9360       0.9619       0.9801       0.9853       0.9817       0.9669       0.9356       0.9082       0.8859       0.8658       0.9779       0.9572       0.9478       0.9490       0.9515      65.0000    1599.0008      10.7879
  872.0328      39.8430       0.6000     104.3881       0.9105       0.9196       0.9238       0.9193       0.9105       0.9279       0.9554       0.9737       0.9812       0.9831       0.9400       0.9054       0.8775       0.8502       0.8190       0.9631       0.9441       0.9332       0.9296       0.9265      65.0000    1599.0008      10.7860
  872.1852      42.3080       0.6056      97.5602       0.8890       0.9111       0.9339       0.9450       0.9426       0.9296       0.9553       0.9738       0.9833       0.9872       0.9325       0.9086       0.8892       0.8732       0.8569       0.9525       0.9383       0.9320       0.9318       0.9311      65.0000    1599.0008      10.7840
  872.3376      43.3018       0.6056     100.7553       0.8918       0.8960       0.9077       0.9269       0.9460       0.9247       0.9528       0.9712       0.9757       0.9718       0.9631       0.9367       0.9117       0.8965       0.8897       0.9556       0.9492       0.9433       0.9392       0.9366      65.0000    1599.0008      10.7822
  872.4900      42.1931       0.6083     100.1426       0.8909       0.9164       0.9413       0.9484       0.9374       0.9204       0.9500       0.9685       0.9780       0.9847       0.9628       0.9308       0.9095       0.8942       0.8756       0.9663       0.9513       0.9397       0.9317       0.9249      65.0000    1599.0008      10.7803
  872.6424      43.4553       0.6111      98.6982       0.8973       0.8941       0.9004       0.9183       0.9384       0.9303       0.9582       0.9756       0.9826       0.9852       0.9396       0.9051       0.8755       0.8568       0.8451       0.9477       0.9374       0.9334       0.9336       0.9322      65.0000    1599.0008      10.7785
  872.7948      43.2949       0.6139      96.9475       0.9187       0.9302       0.9328       0.9315       0.9341       0.9261       0.9555       0.9725       0.9795       0.9841       0.9377       0.9124       0.8891       0.8697       0.8528       0.9591       0.9469       0.9402       0.9389       0.9382      65.0000    1600.0007      10.7834
  872.9472      43.2186       0.6139     101.6307       0.9020       0.9137       0.9313       0.9528       0.9719       0.9367       0.9635       0.9814       0.9908       0.9964       0.9758       0.9434       0.9171       0.9041       0.8994       0.9717       0.9611       0.9554       0.9543       0.9539      65.0000    1600.0007      10.7814
  873.0996      43.2213       0.6167     107.0143       0.9042       0.9322       0.9587       0.9727       0.9741       0.9377       0.9645       0.9850       0.9962       1.0003       0.9872       0.9572       0.9359       0.9214       0.9060       0.9822       0.9699       0.9634       0.9600       0.9549      65.0000    1600.0007      10.7795
  873.2520      43.2213       0.6167     109.2027       0.9183       0.9240       0.9437       0.9679       0.9819       0.9503       0.9664       0.9761       0.9818       0.9869       0.9816       0.9488       0.9259       0.9139       0.9043       0.9838       0.9687       0.9650       0.9666       0.9632      65.0000    1600.0007      10.7777
  873.4044      41.7845       0.6194     110.5157       0.9225       0.9286       0.9437       0.9676       0.9909       0.9418       0.9675       0.9856       0.9963       1.0036       0.9656       0.9322       0.9120       0.9074       0.9064       0.9812       0.9654       0.9591       0.9566       0.9498      65.0000    1601.0007      10.7825
  873.5568      40.5246       0.6194     110.5157       0.9361       0.9454       0.9509       0.9442       0.9292       0.9595       0.9820       0.9964       1.0049       1.0109       0.9553       0.9301       0.9091       0.8823       0.8474       0.9809       0.9647       0.9583       0.9561       0.9495      65.0000    1601.0007      10.7806
  873.7092      40.3293       0.6194     110.8221       0.9090       0.9324       0.9546       0.9747       0.9927       0.9520       0.9781       0.9951       1.0030       1.0063       0.9526       0.9238       0.9016       0.8938       0.8948       0.9773       0.9677       0.9598       0.9546       0.9509      65.0000    1601.0007      10.7787
  873.8616      40.6057       0.6222     111.8726       0.9329       0.9554       0.9668       0.9641       0.9575       0.9430       0.9779       0.9983       1.0029       0.9995       0.9700       0.9490       0.9271       0.9035       0.8797       0.9894       0.9792       0.9724       0.9698       0.9687      65.0000    1602.0007      10.7836
  874.0140      42.2221       0.6250     115.2428       0.9197       0.9467       0.9714       0.9927       1.0131       0.9483       0.9775       0.9958       1.0036       1.0063       0.9871       0.9578       0.9371       0.9326       0.9368       0.9945       0.9849       0.9799       0.9800       0.9815      65.0000    1601.0007      10.7750
  874.1664      41.7032       0.6250     116.9935       0.9262       0.9558       0.9806       0.9903       0.9887       0.9506       0.9789       0.9971       1.0074       1.0133       0.9963       0.9702       0.9482       0.9304       0.9135       1.0026       0.9945       0.9886       0.9863       0.9859      65.0000    1602.0007      10.7798
  874.3188      41.2262       0.6278     114.9364       0.9285       0.9461       0.9712       0.9973       1.0176       0.9543       0.9793       0.9978       1.0062       1.0048       1.0506       1.0135       0.9891       0.9805       0.9761       1.0353       1.0139       1.0023       1.0012       1.0026      66.0000    1602.0007      10.7779
  874.4712      40.5173       0.6278     114.6300       0.9602       0.9318       0.9299       0.9574       0.9913       0.9619       0.9811       0.9942       0.9988       0.9981       1.0180       0.9804       0.9515       0.9348       0.9225       1.0152       0.9955       0.9852       0.9818       0.9771      66.0000    1602.0007      10.7760
  874.6236      39.0327       0.6306     113.0106       0.9508       0.9671       0.9808       0.9805       0.9685       0.9605       0.9887       1.0082       1.0144       1.0129       0.9753       0.9425       0.9213       0.8994       0.8674       1.0058       0.9821       0.9716       0.9704       0.9674      66.0000    1602.0007      10.7742
  874.7760      39.8463       0.6333     112.5729       0.9713       0.9572       0.9467       0.9503       0.9649       0.9660       0.9894       1.0021       1.0039       1.0018       0.9692       0.9419       0.9130       0.8890       0.8721       0.9992       0.9825       0.9712       0.9665       0.9641      66.0000    1603.0006      10.7789
