~VERSION INFORMATION
VERS.           2.0   :CWLS Log ASCII Standard - VERSION 2.0
WRAP.           NO    :One Line per depth step
PROD.  Company   :LAS Producer
PROG.  DLIS to ASCII 12C0-302                          :LAS Program name and version
CREA.        2006/12/12 13:31                          :LAS Creation date {YYYY/MM/DD hh:mm}
SOURCE.     KGIII6-B1_17in_RIL-DLIS_RM_500-1445m.DLIS  :DLIS File Name
FILE-ID.     Run_1                                     :File Identification Number
#--------------------------------------------------
~WELL INFORMATION
#MNEM.UNIT      DATA             DESCRIPTION
#---- ------ --------------   -----------------------------
STRT .M       499.8720       :START DEPTH     
STOP .M      1445.2092       :STOP DEPTH     
STEP .M         0.1524       :STEP     
NULL .          -999.25      :NULL VALUE
COMP .        Company:COMPANY
WELL .        W2:WELL
FLD  .        Block                  :FIELD
LOC  .        Offshore                                 :LOCATION
CNTY .        Actinia                                  :COUNTY
STAT .        State                                    :STATE
CTRY .                                                 :COUNTRY
API  .        06INM0159                                :Service Order NUMBER
UWI  .                                                 :UNIQUE WELL ID
DATE .        09-Dec-2006                              :LOG DATE {DD-MMM-YYYY}
SRVC .        Company                             :SERVICE COMPANY
LATI .DEG     N 16.2763                                :LATITUDE
LONG .DEG     E 82.0962                                :LONGITUDE
GDAT .                                                 :GeoDetic Datum
SECT .        17.5 in.                                 :Section
#-----------------------------------------------------------------------------
~PARAMETER INFORMATION
#MNEM.UNIT    VALUE                      DESCRIPTION
#---- -----   --------------------       ------------------------
TN1 .        PowerPulse                  :Tool Number 1
TN2 .        ARC                         :Tool Number 2
OS3  .          N/A                      :Other Services Line 3
OS2  .          InterACT                 :Other Services Line 2
OS1  .          Directional Surveys      :Other Services Line 1
MST  .DEGC      66.00000                 :Mud Sample Temperature
BHT  .DEGC      81.00000                 :Bottom Hole Temperature
RMS.OHMM      1000.00000                 :Resistivity of Mud Sample (RM)
MST.DEGC        66.00000                 :Mud Sample temperature (RM)
MW.LB/G         11.60000                 :Mud Weight (RM)
SHT.DEGC        25.00000                 :Surface Hole Temperature (RM)
BSAL .PPM     75900.00000                :Mud Salinity
MRT  .DEGC      81.00000                 :Maximum Recorded Temperature
RMB  .OHMM    1000.00000                 :Resistivity of Mud - BHT
MCST .DEGC      66.00000                 :Mud Cake Sample Temperature
RMCS .OHMM    1000.00000                 :Resistivity of Mud Cake Sample
MFST .DEGC      66.00000                 :Mud Filtrate Sample Temperature
RMFS .OHMM    1000.00000                 :Resistivity of Mud Filtrate Sample
RMS  .OHMM    1000.00000                 :Resistivity of Mud Sample
MSS  .        Shakers                    :Mud Sample Source
MFSS  .       Shakers                    :Mud Filtrate Sample Source
MCSS  .       Shakers                    :Mud Cake Sample Source
TCS  .         20 10                     :End Log Time
DCS  .         11-Dec-2006               :End Log Date
DFT  .        SOBM                       :Drilling Fluid Type
DFPH .           N/A                     :Drilling Fluid PH
DFV  .S       80.00000                   :Drilling Fluid Viscosity
DFD  .LB/G    10.500000                  :Drilling Fluid Density
DOWR .        70/30                      :Oil/Water Ratio
DFTS .        19.00                      :Drilling Fluid Total Solids
DHGS .        242.31                     :Drilling Fluid High Gravity Solids
TLAB .        16 00                      :Begin Log Time
DLAB .        09-Dec-2006                :Begin Log Date
RUN  .        1                          :Run Number
BLI  .M       1445.00000                 :Bottom Log Interval
TLI  .M        500.00000                 :Top Log Interval
WITN .        Sven                       :Witness's Name
ENGI .        Hatim/Harsh/Sidy           :Engineer's Name
LUL  .        Zone 2                     :Logging Unit Location
LUN  .        OLU-KC-0103                :Logging Unit Number
RR5  .        No Barite and Potassium in mud :Remark Line 5
RR2  .        ARC6 Resistivity is environmentally corrected for mud resistivity and bit size. :Remark Line 2
RR1  .        GR is corrected for bit size, tool size and mud weight               :Remark Line 1
PDAT .        Lowest Astronomical Tide   :Permanent Datum
EPD  .M          0.00000                 :Elevation of Permanent Datum
DMF  .        Driller's Depth            :Drilling Measured From
LMF  .        Rotary table               :Log Measured From
APD  .M         25.60000                 :Above Permanent Datum
EDF  .M         25.60000                 :Elevation of Derrick Floor
EGL  .M       -80.360000                 :Elevation of Ground Level
EKB  .M         25.60000                 :Elevation of Kelly Bushing
TDL  .M       1445.00000                 :Total Depth - Logger
TDD  .M       1445.00000                 :Total Depth - Driller
MHD  .DEG       2.03                     :Maximum Hole Deviation
AMD  .DEG     181.420000                 :Azimuth of Maximum Hole Deviation
BS   .IN        17.50                    :Bit Size
BSDT .M       500.00000                  :Bit Size Depth To
BSDF .M       1445.00000                 :Bit Size Depth From
CWEI .LB/M     436.00000                 :Casing Weight
CSIZ .IN        20.0000                  :Current Casing Size
CASG .         P-110                     :Casing Grade
CADT .        500.000                    :Casing Depth To
CDF  .        102.5000                   :Casing Depth From
CBLO .M       500.0000                   :Casing Bottom Logger
CBDR .M       500.0000                   :Casing Bottom Driller
#-----------------------------------------------------------------------------
~CURVE INFORMATION
#MNEM.UNIT   API CODE                                  DESCRIPTION
#---- -----  --------                                  -----------------------
DEPT .M                                                :DEPTH (BOREHOLE) {F10.4}
ROP5_RM.M/HR                                           :Rate of Penetration, Averaged over Last 5ft {F13.4}
TAB_ARC_RES.HR                                         :ARC Resistivity Time After Bit {F13.4}
GR_ARC.GAPI                                            :ARC Gamma Ray {F13.4}
A16H .OHMM                                             :ARC Attenuation Resistivity 16-in. at 2 MHz {F13.4}
A22H .OHMM                                             :ARC Attenuation Resistivity 22-in. at 2 MHz {F13.4}
A28H .OHMM                                             :ARC Attenuation Resistivity 28-in. at 2 MHz {F13.4}
A34H .OHMM                                             :ARC Attenuation Resistivity 34-in. at 2 MHz {F13.4}
A40H .OHMM                                             :ARC Attenuation Resistivity 40-in. at 2 MHz {F13.4}
A16L .OHMM                                             :ARC Attenuation Resistivity 16-in. at 400 KHz {F13.4}
A22L .OHMM                                             :ARC Attenuation Resistivity 22-in. at 400 KHz {F13.4}
A28L .OHMM                                             :ARC Attenuation Resistivity 28-in. at 400 KHz {F13.4}
A34L .OHMM                                             :ARC Attenuation Resistivity 34-in. at 400 KHz {F13.4}
A40L .OHMM                                             :ARC Attenuation Resistivity 40-in. at 400 KHz {F13.4}
P16H .OHMM                                             :ARC Phase-Shift Resistivity 16-in. at 2 MHz {F13.4}
P22H .OHMM                                             :ARC Phase-Shift Resistivity 22-in. at 2 MHz {F13.4}
P28H .OHMM                                             :ARC Phase-Shift Resistivity 28-in. at 2 MHz {F13.4}
P34H .OHMM                                             :ARC Phase-Shift Resistivity 34-in. at 2 MHz {F13.4}
P40H .OHMM                                             :ARC Phase-Shift Resistivity 40-in. at 2 MHz {F13.4}
P16L .OHMM                                             :ARC Phase-Shift Resistivity 16-in. at 400 KHz {F13.4}
P22L .OHMM                                             :ARC Phase-Shift Resistivity 22-in. at 400 KHz {F13.4}
P28L .OHMM                                             :ARC Phase-Shift Resistivity 28-in. at 400 KHz {F13.4}
P34L .OHMM                                             :ARC Phase-Shift Resistivity 34-in. at 400 KHz {F13.4}
P40L .OHMM                                             :ARC Phase-Shift Resistivity 40-in. at 400 KHz {F13.4}
ATMP .DEGC                                             :ARC Annular Temperature {F13.4}
APRS_ARC.PSI                                           :ARC Annular Pressure {F13.4}
ECD_ARC.LB/G                                           :Equivalent Circulating Density {F13.4}
#-----------------------------------------------------------------------------
# 
#     DEPT      ROP5_RM    TAB_ARC_RES     GR_ARC        A16H         A22H         A28H         A34H         A40H         A16L         A22L         A28L         A34L         A40L         P16H         P22H         P28H         P34H         P40H         P16L         P22L         P28L         P34L         P40L         ATMP       APRS_ARC     ECD_ARC
#
~A  
# ...
 1179.8808      40.1484       0.7250     111.8288       0.7260       0.7467       0.7768       0.8030       0.8145       0.8000       0.8209       0.8340       0.8389       0.8397       0.8436       0.7960       0.7645       0.7467       0.7293       0.8298       0.8126       0.8047       0.8028       0.7987      72.0000    2211.0010      11.0170
 1180.0332      39.7745       0.7278     108.6337       0.7059       0.7399       0.7770       0.8011       0.8069       0.8042       0.8153       0.8236       0.8265       0.8251       0.8369       0.7891       0.7561       0.7362       0.7175       0.8214       0.8072       0.7977       0.7927       0.7884      72.0000    2211.0010      11.0156
 1180.1856      39.7745       0.7278     106.0513       0.7760       0.7772       0.7723       0.7569       0.7376       0.7895       0.8175       0.8332       0.8346       0.8299       0.7995       0.7738       0.7452       0.6975       0.6386       0.8254       0.8051       0.7940       0.7887       0.7815      72.0000    2212.0009      11.0191
 1180.3380      39.7768       0.7306     106.0513       0.7592       0.7405       0.7335       0.7420       0.7563       0.7969       0.8171       0.8247       0.8182       0.8073       0.8038       0.7692       0.7334       0.6965       0.6615       0.8045       0.7954       0.7914       0.7905       0.7883      72.0000    2214.0010      11.0277
 1180.4904      40.1670       0.7333     108.2398       0.7747       0.7589       0.7531       0.7601       0.7715       0.7967       0.8216       0.8335       0.8316       0.8252       0.8101       0.7809       0.7495       0.7126       0.6742       0.8134       0.8049       0.7986       0.7951       0.7927      72.0000    2215.0010      11.0313
 1180.6428      40.3256       0.7306     109.5528       0.7322       0.7595       0.7878       0.8069       0.8140       0.7953       0.8162       0.8272       0.8298       0.8302       0.8317       0.7987       0.7721       0.7531       0.7364       0.8311       0.8148       0.8058       0.8036       0.8020      72.0000    2215.0010      11.0298
 1180.7952      39.9505       0.7306     111.8726       0.7443       0.7537       0.7551       0.7584       0.7703       0.8109       0.8224       0.8254       0.8247       0.8260       0.8455       0.8058       0.7653       0.7338       0.7129       0.8230       0.8153       0.8114       0.8101       0.8080      72.0000    2215.0010      11.0284
 1180.9476      40.7222       0.7333     110.2531       0.7502       0.7377       0.7395       0.7706       0.8196       0.8080       0.8186       0.8260       0.8277       0.8254       0.8504       0.7995       0.7590       0.7415       0.7386       0.8302       0.8189       0.8110       0.8038       0.7948      72.0000    2215.0010      11.0270
 1181.1000      40.9603       0.7333     108.0647       0.7428       0.7606       0.7879       0.8033       0.7964       0.8045       0.8211       0.8319       0.8320       0.8252       0.8352       0.7989       0.7712       0.7448       0.7136       0.8305       0.8124       0.8027       0.7993       0.7950      72.0000    2215.0010      11.0255
 1181.2524      40.9600       0.7333     103.9942       0.7516       0.7812       0.8052       0.8099       0.7998       0.8000       0.8192       0.8305       0.8279       0.8174       0.8351       0.7998       0.7756       0.7531       0.7236       0.8335       0.8180       0.8096       0.8059       0.8007      72.0000    2216.0010      11.0291
 1181.4048      40.9600       0.7306     103.2501       0.7196       0.7314       0.7576       0.7962       0.8324       0.8050       0.8196       0.8266       0.8280       0.8284       0.8574       0.8046       0.7669       0.7543       0.7546       0.8268       0.8135       0.8091       0.8085       0.8035      72.0000    2216.0010      11.0277
 1181.5572      39.5379       0.7333     108.3273       0.7427       0.7484       0.7684       0.8021       0.8350       0.7987       0.8166       0.8252       0.8280       0.8304       0.8382       0.7976       0.7667       0.7571       0.7609       0.8303       0.8170       0.8082       0.8009       0.7915      72.0000    2217.0009      11.0312
 1181.7096      38.8386       0.7306     115.0239       0.7943       0.7718       0.7574       0.7626       0.7808       0.8013       0.8200       0.8325       0.8328       0.8251       0.8301       0.7969       0.7652       0.7399       0.7205       0.8250       0.8136       0.8081       0.8067       0.8040      72.0000    2217.0009      11.0298
 1181.8620      38.1124       0.7306     119.7072       0.7908       0.7679       0.7582       0.7721       0.7988       0.8077       0.8267       0.8361       0.8360       0.8327       0.8301       0.7973       0.7648       0.7413       0.7269       0.8311       0.8153       0.8080       0.8059       0.8017      72.0000    2217.0009      11.0284
 1182.0144      37.2388       0.7306     115.5054       0.7509       0.7474       0.7626       0.8015       0.8465       0.8026       0.8207       0.8297       0.8310       0.8304       0.8543       0.8081       0.7786       0.7718       0.7734       0.8384       0.8225       0.8145       0.8110       0.8052      72.0000    2218.0010      11.0320
 1182.1668      37.0551       0.7333     114.9364       0.7341       0.7613       0.7914       0.8129       0.8210       0.8086       0.8218       0.8303       0.8331       0.8326       0.8541       0.8046       0.7723       0.7565       0.7428       0.8315       0.8172       0.8079       0.8004       0.7903      72.0000    2218.0010      11.0305
 1182.3192      36.7291       0.7306     117.1248       0.7844       0.7504       0.7490       0.7841       0.8284       0.8135       0.8267       0.8334       0.8341       0.8330       0.8204       0.7832       0.7535       0.7388       0.7328       0.8215       0.8120       0.8070       0.8029       0.7955      72.0000    2218.0010      11.0291
 1182.4716      36.2729       0.7278     118.8318       0.7464       0.7747       0.7975       0.8055       0.8030       0.8076       0.8247       0.8318       0.8315       0.8304       0.8248       0.7901       0.7637       0.7431       0.7217       0.8260       0.8125       0.8033       0.7959       0.7868      72.0000    2219.0010      11.0326
 1182.6240      35.3442       0.7306     117.2123       0.7447       0.7817       0.8105       0.8204       0.8184       0.8019       0.8229       0.8351       0.8366       0.8329       0.8466       0.8113       0.7842       0.7665       0.7515       0.8424       0.8268       0.8160       0.8124       0.8121      72.0000    2220.0010      11.0362
 1182.7764      35.2374       0.7333     115.8993       0.7858       0.8053       0.8069       0.7948       0.7854       0.8063       0.8270       0.8411       0.8426       0.8359       0.8520       0.8241       0.7932       0.7613       0.7323       0.8485       0.8348       0.8247       0.8190       0.8152      72.0000    2220.0010      11.0347
 1182.9288      35.4271       0.7306     113.8859       0.7781       0.7754       0.7793       0.8017       0.8367       0.8095       0.8285       0.8422       0.8450       0.8397       0.8686       0.8273       0.7946       0.7838       0.7881       0.8502       0.8356       0.8272       0.8225       0.8165      72.0000    2220.0010      11.0333
 1183.0812      35.8661       0.7306     111.3911       0.7960       0.7991       0.8017       0.7918       0.7709       0.8095       0.8245       0.8376       0.8433       0.8419       0.8337       0.8033       0.7737       0.7371       0.6954       0.8435       0.8226       0.8107       0.8076       0.8055      72.0000    2221.0009      11.0369
 1183.2336      31.9049       0.6861     105.8325       0.7434       0.7522       0.7781       0.8040       0.8118       0.8086       0.8247       0.8341       0.8352       0.8320       0.8444       0.8085       0.7815       0.7614       0.7406       0.8404       0.8196       0.8069       0.8007       0.7941      72.0000    2221.0009      11.0355
