~VERSION INFORMATION
VERS.           2.0   :CWLS Log ASCII Standard - VERSION 2.0
WRAP.           NO    :One Line per depth step
PROD.  Company   :LAS Producer
PROG.  DLIS to ASCII 12C0-302                          :LAS Program name and version
CREA.        2006/12/12 13:31                          :LAS Creation date {YYYY/MM/DD hh:mm}
SOURCE.     KGIII6-B1_17in_RIL-DLIS_RM_500-1445m.DLIS  :DLIS File Name
FILE-ID.     Run_1                                     :File Identification Number
#--------------------------------------------------
~WELL INFORMATION
#MNEM.UNIT      DATA             DESCRIPTION
#---- ------ --------------   -----------------------------
STRT .M       499.8720       :START DEPTH     
STOP .M      1445.2092       :STOP DEPTH     
STEP .M         0.1524       :STEP     
NULL .          -999.25      :NULL VALUE
COMP .        Company:COMPANY
WELL .        W2:WELL
FLD  .        Block                  :FIELD
LOC  .        Offshore                                 :LOCATION
CNTY .        Actinia                                  :COUNTY
STAT .        State                                    :STATE
CTRY .                                                 :COUNTRY
API  .        06INM0159                                :Service Order NUMBER
UWI  .                                                 :UNIQUE WELL ID
DATE .        09-Dec-2006                              :LOG DATE {DD-MMM-YYYY}
SRVC .        Company                             :SERVICE COMPANY
LATI .DEG     N 16.2763                                :LATITUDE
LONG .DEG     E 82.0962                                :LONGITUDE
GDAT .                                                 :GeoDetic Datum
SECT .        17.5 in.                                 :Section
#-----------------------------------------------------------------------------
~PARAMETER INFORMATION
#MNEM.UNIT    VALUE                      DESCRIPTION
#---- -----   --------------------       ------------------------
TN1 .        PowerPulse                  :Tool Number 1
TN2 .        ARC                         :Tool Number 2
OS3  .          N/A                      :Other Services Line 3
OS2  .          InterACT                 :Other Services Line 2
OS1  .          Directional Surveys      :Other Services Line 1
MST  .DEGC      66.00000                 :Mud Sample Temperature
BHT  .DEGC      81.00000                 :Bottom Hole Temperature
RMS.OHMM      1000.00000                 :Resistivity of Mud Sample (RM)
MST.DEGC        66.00000                 :Mud Sample temperature (RM)
MW.LB/G         11.60000                 :Mud Weight (RM)
SHT.DEGC        25.00000                 :Surface Hole Temperature (RM)
BSAL .PPM     75900.00000                :Mud Salinity
MRT  .DEGC      81.00000                 :Maximum Recorded Temperature
RMB  .OHMM    1000.00000                 :Resistivity of Mud - BHT
MCST .DEGC      66.00000                 :Mud Cake Sample Temperature
RMCS .OHMM    1000.00000                 :Resistivity of Mud Cake Sample
MFST .DEGC      66.00000                 :Mud Filtrate Sample Temperature
RMFS .OHMM    1000.00000                 :Resistivity of Mud Filtrate Sample
RMS  .OHMM    1000.00000                 :Resistivity of Mud Sample
MSS  .        Shakers                    :Mud Sample Source
MFSS  .       Shakers                    :Mud Filtrate Sample Source
MCSS  .       Shakers                    :Mud Cake Sample Source
TCS  .         20 10                     :End Log Time
DCS  .         11-Dec-2006               :End Log Date
DFT  .        SOBM                       :Drilling Fluid Type
DFPH .           N/A                     :Drilling Fluid PH
DFV  .S       80.00000                   :Drilling Fluid Viscosity
DFD  .LB/G    10.500000                  :Drilling Fluid Density
DOWR .        70/30                      :Oil/Water Ratio
DFTS .        19.00                      :Drilling Fluid Total Solids
DHGS .        242.31                     :Drilling Fluid High Gravity Solids
TLAB .        16 00                      :Begin Log Time
DLAB .        09-Dec-2006                :Begin Log Date
RUN  .        1                          :Run Number
BLI  .M       1445.00000                 :Bottom Log Interval
TLI  .M        500.00000                 :Top Log Interval
WITN .        Sven                       :Witness's Name
ENGI .        Hatim/Harsh/Sidy           :Engineer's Name
LUL  .        Zone 2                     :Logging Unit Location
LUN  .        OLU-KC-0103                :Logging Unit Number
RR5  .        No Barite and Potassium in mud :Remark Line 5
RR2  .        ARC6 Resistivity is environmentally corrected for mud resistivity and bit size. :Remark Line 2
RR1  .        GR is corrected for bit size, tool size and mud weight               :Remark Line 1
PDAT .        Lowest Astronomical Tide   :Permanent Datum
EPD  .M          0.00000                 :Elevation of Permanent Datum
DMF  .        Driller's Depth            :Drilling Measured From
LMF  .        Rotary table               :Log Measured From
APD  .M         25.60000                 :Above Permanent Datum
EDF  .M         25.60000                 :Elevation of Derrick Floor
EGL  .M       -80.360000                 :Elevation of Ground Level
EKB  .M         25.60000                 :Elevation of Kelly Bushing
TDL  .M       1445.00000                 :Total Depth - Logger
TDD  .M       1445.00000                 :Total Depth - Driller
MHD  .DEG       2.03                     :Maximum Hole Deviation
AMD  .DEG     181.420000                 :Azimuth of Maximum Hole Deviation
BS   .IN        17.50                    :Bit Size
BSDT .M       500.00000                  :Bit Size Depth To
BSDF .M       1445.00000                 :Bit Size Depth From
CWEI .LB/M     436.00000                 :Casing Weight
CSIZ .IN        20.0000                  :Current Casing Size
CASG .         P-110                     :Casing Grade
CADT .        500.000                    :Casing Depth To
CDF  .        102.5000                   :Casing Depth From
CBLO .M       500.0000                   :Casing Bottom Logger
CBDR .M       500.0000                   :Casing Bottom Driller
#-----------------------------------------------------------------------------
~CURVE INFORMATION
#MNEM.UNIT   API CODE                                  DESCRIPTION
#---- -----  --------                                  -----------------------
DEPT .M                                                :DEPTH (BOREHOLE) {F10.4}
ROP5_RM.M/HR                                           :Rate of Penetration, Averaged over Last 5ft {F13.4}
TAB_ARC_RES.HR                                         :ARC Resistivity Time After Bit {F13.4}
GR_ARC.GAPI                                            :ARC Gamma Ray {F13.4}
A16H .OHMM                                             :ARC Attenuation Resistivity 16-in. at 2 MHz {F13.4}
A22H .OHMM                                             :ARC Attenuation Resistivity 22-in. at 2 MHz {F13.4}
A28H .OHMM                                             :ARC Attenuation Resistivity 28-in. at 2 MHz {F13.4}
A34H .OHMM                                             :ARC Attenuation Resistivity 34-in. at 2 MHz {F13.4}
A40H .OHMM                                             :ARC Attenuation Resistivity 40-in. at 2 MHz {F13.4}
A16L .OHMM                                             :ARC Attenuation Resistivity 16-in. at 400 KHz {F13.4}
A22L .OHMM                                             :ARC Attenuation Resistivity 22-in. at 400 KHz {F13.4}
A28L .OHMM                                             :ARC Attenuation Resistivity 28-in. at 400 KHz {F13.4}
A34L .OHMM                                             :ARC Attenuation Resistivity 34-in. at 400 KHz {F13.4}
A40L .OHMM                                             :ARC Attenuation Resistivity 40-in. at 400 KHz {F13.4}
P16H .OHMM                                             :ARC Phase-Shift Resistivity 16-in. at 2 MHz {F13.4}
P22H .OHMM                                             :ARC Phase-Shift Resistivity 22-in. at 2 MHz {F13.4}
P28H .OHMM                                             :ARC Phase-Shift Resistivity 28-in. at 2 MHz {F13.4}
P34H .OHMM                                             :ARC Phase-Shift Resistivity 34-in. at 2 MHz {F13.4}
P40H .OHMM                                             :ARC Phase-Shift Resistivity 40-in. at 2 MHz {F13.4}
P16L .OHMM                                             :ARC Phase-Shift Resistivity 16-in. at 400 KHz {F13.4}
P22L .OHMM                                             :ARC Phase-Shift Resistivity 22-in. at 400 KHz {F13.4}
P28L .OHMM                                             :ARC Phase-Shift Resistivity 28-in. at 400 KHz {F13.4}
P34L .OHMM                                             :ARC Phase-Shift Resistivity 34-in. at 400 KHz {F13.4}
P40L .OHMM                                             :ARC Phase-Shift Resistivity 40-in. at 400 KHz {F13.4}
ATMP .DEGC                                             :ARC Annular Temperature {F13.4}
APRS_ARC.PSI                                           :ARC Annular Pressure {F13.4}
ECD_ARC.LB/G                                           :Equivalent Circulating Density {F13.4}
#-----------------------------------------------------------------------------
# 
#     DEPT      ROP5_RM    TAB_ARC_RES     GR_ARC        A16H         A22H         A28H         A34H         A40H         A16L         A22L         A28L         A34L         A40L         P16H         P22H         P28H         P34H         P40H         P16L         P22L         P28L         P34L         P40L         ATMP       APRS_ARC     ECD_ARC
#
~A  
# ...
  622.5540      57.6693       0.6528      94.3215       0.9593       0.9851       1.0076       1.0186       1.0201       1.0080       1.0299       1.0384       1.0384       1.0378       1.0683       1.0278       0.9959       0.9763       0.9619       1.0495       1.0303       1.0197       1.0159       1.0120      54.0000    1101.0005      10.4122
  622.7064      56.5677       0.6528      93.4461       0.9974       0.9994       1.0024       1.0078       1.0143       0.9944       1.0209       1.0385       1.0409       1.0346       1.0742       1.0447       1.0138       0.9801       0.9468       1.0632       1.0447       1.0309       1.0236       1.0192      54.0000    1102.0005      10.4190
  622.8588      56.5677       0.6556      93.0084       1.0006       0.9989       1.0040       1.0081       1.0049       0.9980       1.0237       1.0379       1.0372       1.0296       1.0822       1.0482       1.0190       0.9919       0.9632       1.0623       1.0421       1.0318       1.0253       1.0144      54.0000    1101.0005      10.4070
  623.0112      57.0479       0.6694      94.1902       0.9833       0.9713       0.9766       0.9953       1.0127       0.9991       1.0301       1.0415       1.0388       1.0352       1.0375       0.9941       0.9646       0.9502       0.9376       1.0346       1.0144       1.0050       1.0026       0.9979      54.0000    1103.0005      10.4234
  623.1636      57.6895       0.6722      95.1968       0.9937       0.9663       0.9512       0.9493       0.9507       1.0035       1.0297       1.0397       1.0402       1.0411       1.0132       0.9724       0.9345       0.9027       0.8753       1.0273       1.0065       0.9957       0.9905       0.9822      54.0000    1103.0005      10.4209
  623.3160      57.3445       0.6722      94.0151       0.9686       0.9598       0.9548       0.9568       0.9624       0.9883       1.0250       1.0466       1.0446       1.0323       1.0115       0.9812       0.9517       0.9262       0.9046       1.0204       1.0066       0.9980       0.9910       0.9815      54.0000    1103.0005      10.4182
  623.4684      55.4614       0.6722      93.7087       0.9609       0.9798       0.9973       1.0079       1.0103       0.9932       1.0176       1.0319       1.0358       1.0364       1.0149       0.9866       0.9672       0.9533       0.9366       1.0244       1.0097       1.0023       0.9986       0.9923      54.0000    1103.0005      10.4157
  623.6208      55.9152       0.6750      96.6412       0.9658       0.9652       0.9567       0.9467       0.9426       0.9977       1.0290       1.0398       1.0347       1.0282       1.0082       0.9831       0.9529       0.9208       0.8924       1.0162       1.0080       1.0042       1.0009       0.9938      54.0000    1104.0005      10.4226
  623.7732      54.4962       0.6750     102.0685       0.9274       0.9535       0.9824       1.0109       1.0345       0.9845       1.0123       1.0248       1.0250       1.0261       1.0423       1.0042       0.9770       0.9682       0.9674       1.0206       1.0178       1.0149       1.0103       1.0044      54.0000    1105.0005      10.4295
  623.9256      53.5773       0.6778     103.6880       0.9603       0.9628       0.9715       0.9822       0.9885       1.0020       1.0232       1.0323       1.0327       1.0317       1.0437       1.0087       0.9795       0.9602       0.9453       1.0279       1.0191       1.0120       1.0069       1.0026      54.0000    1104.0005      10.4174
  624.0780      52.8653       0.6778      97.1227       0.9502       0.9620       0.9873       1.0193       1.0410       1.0021       1.0255       1.0347       1.0329       1.0292       1.0358       1.0030       0.9791       0.9689       0.9635       1.0290       1.0190       1.0142       1.0116       1.0070      54.0000    1105.0005      10.4243
  624.2304      51.8571       0.6778      89.3756       0.9862       0.9927       0.9961       0.9925       0.9845       0.9962       1.0202       1.0363       1.0413       1.0400       1.0037       0.9838       0.9642       0.9434       0.9217       1.0213       1.0124       1.0064       1.0020       0.9969      54.0000    1105.0005      10.4218
  624.3828      51.7585       0.6778      82.0662       0.9577       0.9821       1.0036       1.0100       1.0023       0.9977       1.0200       1.0327       1.0366       1.0375       1.0051       0.9800       0.9581       0.9381       0.9176       1.0215       1.0107       1.0047       1.0007       0.9946      54.0000    1105.0005      10.4193
  624.5352      49.3931       0.6778      85.5677       0.9689       0.9824       0.9912       0.9874       0.9755       0.9959       1.0246       1.0418       1.0391       1.0256       0.9936       0.9746       0.9559       0.9352       0.9131       1.0169       1.0070       1.0031       1.0026       1.0004      54.0000    1105.0005      10.4166
  624.6876      48.8773       0.6778      92.1330       0.9531       0.9513       0.9581       0.9762       0.9972       0.9935       1.0158       1.0311       1.0333       1.0281       1.0235       0.9983       0.9723       0.9560       0.9493       1.0144       1.0089       1.0083       1.0078       1.0031      54.0000    1106.0005      10.4235
  624.8400      48.5522       0.6778      95.5032       0.9678       0.9800       0.9887       0.9892       0.9844       0.9856       1.0124       1.0331       1.0396       1.0378       1.0163       0.9895       0.9661       0.9481       0.9323       1.0231       1.0114       1.0037       0.9975       0.9896      54.0000    1106.0005      10.4210
  624.9924      47.6818       0.6778      94.4965       0.9390       0.9546       0.9792       1.0041       1.0200       0.9897       1.0176       1.0335       1.0388       1.0425       1.0180       0.9833       0.9574       0.9435       0.9336       1.0173       1.0074       1.0034       1.0022       0.9986      54.0000    1106.0005      10.4185
  625.1448      47.2950       0.6750      92.0017       0.9595       0.9653       0.9772       1.0013       1.0346       1.0062       1.0312       1.0435       1.0457       1.0454       0.9998       0.9684       0.9464       0.9392       0.9383       1.0127       1.0030       0.9978       0.9978       0.9988      54.0000    1107.0005      10.4254
  625.2972      46.4949       0.6778      90.6887       0.9744       0.9818       0.9888       1.0015       1.0218       1.0049       1.0332       1.0463       1.0497       1.0522       1.0321       1.0082       0.9869       0.9778       0.9782       1.0331       1.0227       1.0160       1.0125       1.0093      55.0000    1107.0005      10.4228
  625.4496      48.6608       0.6806      92.4394       0.9852       0.9908       0.9988       1.0081       1.0146       1.0046       1.0326       1.0448       1.0433       1.0383       1.0333       1.0080       0.9867       0.9708       0.9565       1.0324       1.0237       1.0203       1.0206       1.0203      55.0000    1107.0005      10.4203
  625.6020      48.9857       0.6833      97.2540       1.0002       1.0042       1.0129       1.0237       1.0314       1.0235       1.0529       1.0640       1.0611       1.0560       1.0133       0.9905       0.9722       0.9609       0.9522       1.0412       1.0277       1.0195       1.0172       1.0163      55.0000    1108.0005      10.4272
  625.7544      48.3517       0.6806     105.4387       1.0017       1.0154       1.0231       1.0260       1.0286       1.0285       1.0528       1.0672       1.0703       1.0677       1.0566       1.0338       1.0137       1.0001       0.9901       1.0630       1.0477       1.0383       1.0354       1.0341      55.0000    1109.0005      10.4341
  625.9068      47.0524       0.6806     106.7080       0.9995       1.0183       1.0339       1.0409       1.0413       1.0341       1.0572       1.0678       1.0639       1.0543       1.0849       1.0543       1.0332       1.0219       1.0118       1.0713       1.0596       1.0532       1.0475       1.0384      55.0000    1109.0005      10.4314
