~VERSION INFORMATION
VERS.           2.0   :CWLS Log ASCII Standard - VERSION 2.0
WRAP.           NO    :One Line per depth step
PROD.  Company   :LAS Producer
PROG.  DLIS to ASCII 12C0-302                          :LAS Program name and version
CREA.        2006/12/12 13:31                          :LAS Creation date {YYYY/MM/DD hh:mm}
SOURCE.     KGIII6-B1_17in_RIL-DLIS_RM_500-1445m.DLIS  :DLIS File Name
FILE-ID.     Run_1                                     :File Identification Number
#--------------------------------------------------
~WELL INFORMATION
#MNEM.UNIT      DATA             DESCRIPTION
#---- ------ --------------   -----------------------------
STRT .M       499.8720       :START DEPTH     
STOP .M      1445.2092       :STOP DEPTH     
STEP .M         0.1524       :STEP     
NULL .          -999.25      :NULL VALUE
COMP .        Company:COMPANY
WELL .        W2:WELL
FLD  .        Block                  :FIELD
LOC  .        Offshore                                 :LOCATION
CNTY .        Actinia                                  :COUNTY
STAT .        State                                    :STATE
CTRY .                                                 :COUNTRY
API  .        06INM0159                                :Service Order NUMBER
UWI  .                                                 :UNIQUE WELL ID
DATE .        09-Dec-2006                              :LOG DATE {DD-MMM-YYYY}
SRVC .        Company                             :SERVICE COMPANY
LATI .DEG     N 16.2763                                :LATITUDE
LONG .DEG     E 82.0962                                :LONGITUDE
GDAT .                                                 :GeoDetic Datum
SECT .        17.5 in.                                 :Section
#-----------------------------------------------------------------------------
~PARAMETER INFORMATION
#MNEM.UNIT    VALUE                      DESCRIPTION
#---- -----   --------------------       ------------------------
TN1 .        PowerPulse                  :Tool Number 1
TN2 .        ARC                         :Tool Number 2
OS3  .          N/A                      :Other Services Line 3
OS2  .          InterACT                 :Other Services Line 2
OS1  .          Directional Surveys      :Other Services Line 1
MST  .DEGC      66.00000                 :Mud Sample Temperature
BHT  .DEGC      81.00000                 :Bottom Hole Temperature
RMS.OHMM      1000.00000                 :Resistivity of Mud Sample (RM)
MST.DEGC        66.00000                 :Mud Sample temperature (RM)
MW.LB/G         11.60000                 :Mud Weight (RM)
SHT.DEGC        25.00000                 :Surface Hole Temperature (RM)
BSAL .PPM     75900.00000                :Mud Salinity
MRT  .DEGC      81.00000                 :Maximum Recorded Temperature
RMB  .OHMM    1000.00000                 :Resistivity of Mud - BHT
MCST .DEGC      66.00000                 :Mud Cake Sample Temperature
RMCS .OHMM    1000.00000                 :Resistivity of Mud Cake Sample
MFST .DEGC      66.00000                 :Mud Filtrate Sample Temperature
RMFS .OHMM    1000.00000                 :Resistivity of Mud Filtrate Sample
RMS  .OHMM    1000.00000                 :Resistivity of Mud Sample
MSS  .        Shakers                    :Mud Sample Source
MFSS  .       Shakers                    :Mud Filtrate Sample Source
MCSS  .       Shakers                    :Mud Cake Sample Source
TCS  .         20 10                     :End Log Time
DCS  .         11-Dec-2006               :End Log Date
DFT  .        SOBM                       :Drilling Fluid Type
DFPH .           N/A                     :Drilling Fluid PH
DFV  .S       80.00000                   :Drilling Fluid Viscosity
DFD  .LB/G    10.500000                  :Drilling Fluid Density
DOWR .        70/30                      :Oil/Water Ratio
DFTS .        19.00                      :Drilling Fluid Total Solids
DHGS .        242.31                     :Drilling Fluid High Gravity Solids
TLAB .        16 00                      :Begin Log Time
DLAB .        09-Dec-2006                :Begin Log Date
RUN  .        1                          :Run Number
BLI  .M       1445.00000                 :Bottom Log Interval
TLI  .M        500.00000                 :Top Log Interval
WITN .        Sven                       :Witness's Name
ENGI .        Hatim/Harsh/Sidy           :Engineer's Name
LUL  .        Zone 2                     :Logging Unit Location
LUN  .        OLU-KC-0103                :Logging Unit Number
RR5  .        No Barite and Potassium in mud :Remark Line 5
RR2  .        ARC6 Resistivity is environmentally corrected for mud resistivity and bit size. :Remark Line 2
RR1  .        GR is corrected for bit size, tool size and mud weight               :Remark Line 1
PDAT .        Lowest Astronomical Tide   :Permanent Datum
EPD  .M          0.00000                 :Elevation of Permanent Datum
DMF  .        Driller's Depth            :Drilling Measured From
LMF  .        Rotary table               :Log Measured From
APD  .M         25.60000                 :Above Permanent Datum
EDF  .M         25.60000                 :Elevation of Derrick Floor
EGL  .M       -80.360000                 :Elevation of Ground Level
EKB  .M         25.60000                 :Elevation of Kelly Bushing
TDL  .M       1445.00000                 :Total Depth - Logger
TDD  .M       1445.00000                 :Total Depth - Driller
MHD  .DEG       2.03                     :Maximum Hole Deviation
AMD  .DEG     181.420000                 :Azimuth of Maximum Hole Deviation
BS   .IN        17.50                    :Bit Size
BSDT .M       500.00000                  :Bit Size Depth To
BSDF .M       1445.00000                 :Bit Size Depth From
CWEI .LB/M     436.00000                 :Casing Weight
CSIZ .IN        20.0000                  :Current Casing Size
CASG .         P-110                     :Casing Grade
CADT .        500.000                    :Casing Depth To
CDF  .        102.5000                   :Casing Depth From
CBLO .M       500.0000                   :Casing Bottom Logger
CBDR .M       500.0000                   :Casing Bottom Driller
#-----------------------------------------------------------------------------
~CURVE INFORMATION
#MNEM.UNIT   API CODE                                  DESCRIPTION
#---- -----  --------                                  -----------------------
DEPT .M                                                :DEPTH (BOREHOLE) {F10.4}
ROP5_RM.M/HR                                           :Rate of Penetration, Averaged over Last 5ft {F13.4}
TAB_ARC_RES.HR                                         :ARC Resistivity Time After Bit {F13.4}
GR_ARC.GAPI                                            :ARC Gamma Ray {F13.4}
A16H .OHMM                                             :ARC Attenuation Resistivity 16-in. at 2 MHz {F13.4}
A22H .OHMM                                             :ARC Attenuation Resistivity 22-in. at 2 MHz {F13.4}
A28H .OHMM                                             :ARC Attenuation Resistivity 28-in. at 2 MHz {F13.4}
A34H .OHMM                                             :ARC Attenuation Resistivity 34-in. at 2 MHz {F13.4}
A40H .OHMM                                             :ARC Attenuation Resistivity 40-in. at 2 MHz {F13.4}
A16L .OHMM                                             :ARC Attenuation Resistivity 16-in. at 400 KHz {F13.4}
A22L .OHMM                                             :ARC Attenuation Resistivity 22-in. at 400 KHz {F13.4}
A28L .OHMM                                             :ARC Attenuation Resistivity 28-in. at 400 KHz {F13.4}
A34L .OHMM                                             :ARC Attenuation Resistivity 34-in. at 400 KHz {F13.4}
A40L .OHMM                                             :ARC Attenuation Resistivity 40-in. at 400 KHz {F13.4}
P16H .OHMM                                             :ARC Phase-Shift Resistivity 16-in. at 2 MHz {F13.4}
P22H .OHMM                                             :ARC Phase-Shift Resistivity 22-in. at 2 MHz {F13.4}
P28H .OHMM                                             :ARC Phase-Shift Resistivity 28-in. at 2 MHz {F13.4}
P34H .OHMM                                             :ARC Phase-Shift Resistivity 34-in. at 2 MHz {F13.4}
P40H .OHMM                                             :ARC Phase-Shift Resistivity 40-in. at 2 MHz {F13.4}
P16L .OHMM                                             :ARC Phase-Shift Resistivity 16-in. at 400 KHz {F13.4}
P22L .OHMM                                             :ARC Phase-Shift Resistivity 22-in. at 400 KHz {F13.4}
P28L .OHMM                                             :ARC Phase-Shift Resistivity 28-in. at 400 KHz {F13.4}
P34L .OHMM                                             :ARC Phase-Shift Resistivity 34-in. at 400 KHz {F13.4}
P40L .OHMM                                             :ARC Phase-Shift Resistivity 40-in. at 400 KHz {F13.4}
ATMP .DEGC                                             :ARC Annular Temperature {F13.4}
APRS_ARC.PSI                                           :ARC Annular Pressure {F13.4}
ECD_ARC.LB/G                                           :Equivalent Circulating Density {F13.4}
#-----------------------------------------------------------------------------
# 
#     DEPT      ROP5_RM    TAB_ARC_RES     GR_ARC        A16H         A22H         A28H         A34H         A40H         A16L         A22L         A28L         A34L         A40L         P16H         P22H         P28H         P34H         P40H         P16L         P22L         P28L         P34L         P40L         ATMP       APRS_ARC     ECD_ARC
#
~A  
# ...
  685.6476      42.1545       0.7972      94.3214       0.8547       0.8592       0.8642       0.8671       0.8672       0.8655       0.8939       0.9081       0.9108       0.9112       0.8673       0.8454       0.8259       0.8061       0.7844       0.8832       0.8733       0.8667       0.8633       0.8604      57.0000    1215.0006      10.4298
  685.8000      42.0957       0.8028      93.7525       0.8407       0.8298       0.8326       0.8543       0.8822       0.8748       0.8951       0.9048       0.9024       0.8956       0.8768       0.8475       0.8246       0.8130       0.8070       0.8767       0.8686       0.8642       0.8632       0.8625      57.0000    1215.0006      10.4275
  685.9524      41.8797       0.8000      94.6278       0.8482       0.8550       0.8596       0.8556       0.8451       0.8781       0.8960       0.9046       0.9083       0.9125       0.8662       0.8445       0.8237       0.7992       0.7711       0.8806       0.8714       0.8656       0.8629       0.8602      57.0000    1216.0006      10.4338
  686.1048      42.4098       0.8028      94.4965       0.8104       0.8346       0.8587       0.8804       0.8983       0.8741       0.8924       0.8994       0.9001       0.9018       0.8987       0.8612       0.8370       0.8290       0.8253       0.8857       0.8781       0.8740       0.8718       0.8684      57.0000    1217.0005      10.4401
  686.2572      42.6742       0.8056      97.8667       0.8572       0.8667       0.8691       0.8612       0.8494       0.8717       0.8978       0.9116       0.9137       0.9121       0.8912       0.8655       0.8406       0.8097       0.7739       0.9007       0.8886       0.8815       0.8781       0.8743      57.0000    1217.0005      10.4377
  686.4096      42.7211       0.8056      99.3111       0.8309       0.8622       0.8901       0.9048       0.9083       0.8887       0.9027       0.9095       0.9114       0.9129       0.9099       0.8785       0.8562       0.8475       0.8442       0.9002       0.8923       0.8886       0.8866       0.8825      57.0000    1217.0005      10.4354
  686.5620      41.8816       0.8056     101.0618       0.8613       0.8523       0.8523       0.8697       0.8964       0.8848       0.9025       0.9090       0.9062       0.9021       0.9057       0.8734       0.8452       0.8348       0.8387       0.9015       0.8900       0.8826       0.8783       0.8736      57.0000    1217.0005      10.4331
  686.7144      41.8822       0.8056      98.2606       0.8615       0.8723       0.8860       0.8926       0.8890       0.8731       0.8933       0.9052       0.9069       0.9036       0.8837       0.8600       0.8411       0.8261       0.8108       0.9070       0.8877       0.8761       0.8711       0.8664      57.0000    1218.0005      10.4394
  686.8668      41.3106       0.8111      93.7525       0.8507       0.8462       0.8503       0.8618       0.8723       0.8756       0.8931       0.9047       0.9049       0.8974       0.8794       0.8541       0.8291       0.8118       0.8021       0.8864       0.8773       0.8729       0.8708       0.8667      57.0000    1218.0005      10.4370
  687.0192      40.1401       0.8139      90.9513       0.8173       0.8424       0.8680       0.8817       0.8816       0.8657       0.8867       0.9011       0.9058       0.9042       0.8859       0.8583       0.8360       0.8235       0.8159       0.8846       0.8733       0.8676       0.8623       0.8528      57.0000    1218.0005      10.4347
  687.1716      39.3400       0.8139      91.8704       0.8334       0.8227       0.8219       0.8356       0.8547       0.8628       0.8834       0.8973       0.8981       0.8901       0.8767       0.8469       0.8196       0.8047       0.8002       0.8717       0.8618       0.8584       0.8569       0.8515      57.0000    1218.0005      10.4324
  687.3240      39.1881       0.8139      95.3719       0.8289       0.8448       0.8601       0.8666       0.8642       0.8554       0.8792       0.8953       0.8999       0.8973       0.8711       0.8461       0.8273       0.8106       0.7907       0.8712       0.8615       0.8589       0.8586       0.8540      57.0000    1219.0006      10.4387
  687.4764      39.3790       0.8139      98.1731       0.8100       0.8123       0.8271       0.8540       0.8805       0.8679       0.8849       0.8948       0.8962       0.8936       0.8605       0.8257       0.8040       0.8014       0.8060       0.8567       0.8474       0.8437       0.8423       0.8383      57.0000    1219.0006      10.4362
  687.6288      38.7145       0.8167      97.9980       0.8171       0.8307       0.8423       0.8485       0.8507       0.8565       0.8776       0.8915       0.8978       0.9001       0.8363       0.8105       0.7883       0.7636       0.7342       0.8519       0.8400       0.8349       0.8345       0.8331      57.0000    1219.0006      10.4339
  687.7812      38.6292       0.8167      94.9342       0.8042       0.8084       0.8191       0.8392       0.8622       0.8503       0.8756       0.8888       0.8930       0.8955       0.8594       0.8255       0.8006       0.7936       0.7964       0.8572       0.8467       0.8422       0.8424       0.8419      57.0000    1219.0006      10.4317
  687.9336      38.0948       0.8194      89.0692       0.8316       0.8434       0.8565       0.8668       0.8723       0.8593       0.8846       0.8989       0.8976       0.8883       0.8658       0.8423       0.8211       0.8026       0.7851       0.8684       0.8621       0.8574       0.8528       0.8470      57.0000    1220.0006      10.4379
  688.0860      38.0464       0.8194      89.0692       0.8055       0.8261       0.8534       0.8770       0.8889       0.8639       0.8852       0.8970       0.9024       0.9067       0.9020       0.8627       0.8370       0.8294       0.8279       0.8840       0.8724       0.8665       0.8662       0.8664      57.0000    1220.0006      10.4355
  688.2384      37.3689       0.8222      94.1464       0.8460       0.8446       0.8487       0.8580       0.8674       0.8738       0.8930       0.9031       0.9055       0.9061       0.8964       0.8605       0.8321       0.8111       0.7916       0.8911       0.8767       0.8702       0.8693       0.8671      57.0000    1221.0005      10.4418
  688.3908      13.6551       0.5333      96.6412       0.8287       0.8523       0.8711       0.8824       0.8896       0.8730       0.8853       0.8934       0.8998       0.9059       0.9102       0.8737       0.8480       0.8359       0.8283       0.8978       0.8830       0.8739       0.8709       0.8693      57.0000    1221.0005      10.4395
  688.5432      13.0635       0.5333      97.5165       0.8565       0.8421       0.8361       0.8507       0.8788       0.8783       0.8922       0.8980       0.8980       0.8974       0.9007       0.8671       0.8385       0.8248       0.8219       0.8952       0.8831       0.8772       0.8738       0.8675      57.0000    1221.0005      10.4372
  688.6956      13.1600       0.5361      98.2606       0.8299       0.8605       0.8847       0.8950       0.8963       0.8791       0.8934       0.9024       0.9050       0.9041       0.9149       0.8786       0.8541       0.8418       0.8315       0.9010       0.8918       0.8863       0.8804       0.8709      57.0000    1222.0005      10.4433
  688.8480      13.1646       0.5361     101.3244       0.8705       0.8605       0.8553       0.8629       0.8788       0.8882       0.9032       0.9128       0.9146       0.9117       0.8947       0.8671       0.8409       0.8215       0.8079       0.8920       0.8847       0.8801       0.8754       0.8683      57.0000    1222.0005      10.4410
  689.0004      13.0016       0.5389     100.8867       0.8633       0.8745       0.8884       0.8956       0.8929       0.8772       0.8921       0.9030       0.9063       0.9040       0.8932       0.8688       0.8498       0.8399       0.8345       0.9066       0.8895       0.8795       0.8733       0.8650      57.0000    1222.0005      10.4388
