~VERSION INFORMATION
VERS.           2.0   :CWLS Log ASCII Standard - VERSION 2.0
WRAP.           NO    :One Line per depth step
PROD.  Company   :LAS Producer
PROG.  DLIS to ASCII 12C0-302                          :LAS Program name and version
CREA.        2006/12/12 13:31                          :LAS Creation date {YYYY/MM/DD hh:mm}
SOURCE.     KGIII6-B1_17in_RIL-DLIS_RM_500-1445m.DLIS  :DLIS File Name
FILE-ID.     Run_1                                     :File Identification Number
#--------------------------------------------------
~WELL INFORMATION
#MNEM.UNIT      DATA             DESCRIPTION
#---- ------ --------------   -----------------------------
STRT .M       499.8720       :START DEPTH     
STOP .M      1445.2092       :STOP DEPTH     
STEP .M         0.1524       :STEP     
NULL .          -999.25      :NULL VALUE
COMP .        Company:COMPANY
WELL .        W2:WELL
FLD  .        Block                  :FIELD
LOC  .        Offshore                                 :LOCATION
CNTY .        Actinia                                  :COUNTY
STAT .        State                                    :STATE
CTRY .                                                 :COUNTRY
API  .        06INM0159                                :Service Order NUMBER
UWI  .                                                 :UNIQUE WELL ID
DATE .        09-Dec-2006                              :LOG DATE {DD-MMM-YYYY}
SRVC .        Company                             :SERVICE COMPANY
LATI .DEG     N 16.2763                                :LATITUDE
LONG .DEG     E 82.0962                                :LONGITUDE
GDAT .                                                 :GeoDetic Datum
SECT .        17.5 in.                                 :Section
#-----------------------------------------------------------------------------
~PARAMETER INFORMATION
#MNEM.UNIT    VALUE                      DESCRIPTION
#---- -----   --------------------       ------------------------
TN1 .        PowerPulse                  :Tool Number 1
TN2 .        ARC                         :Tool Number 2
OS3  .          N/A                      :Other Services Line 3
OS2  .          InterACT                 :Other Services Line 2
OS1  .          Directional Surveys      :Other Services Line 1
MST  .DEGC      66.00000                 :Mud Sample Temperature
BHT  .DEGC      81.00000                 :Bottom Hole Temperature
RMS.OHMM      1000.00000                 :Resistivity of Mud Sample (RM)
MST.DEGC        66.00000                 :Mud Sample temperature (RM)
MW.LB/G         11.60000                 :Mud Weight (RM)
SHT.DEGC        25.00000                 :Surface Hole Temperature (RM)
BSAL .PPM     75900.00000                :Mud Salinity
MRT  .DEGC      81.00000                 :Maximum Recorded Temperature
RMB  .OHMM    1000.00000                 :Resistivity of Mud - BHT
MCST .DEGC      66.00000                 :Mud Cake Sample Temperature
RMCS .OHMM    1000.00000                 :Resistivity of Mud Cake Sample
MFST .DEGC      66.00000                 :Mud Filtrate Sample Temperature
RMFS .OHMM    1000.00000                 :Resistivity of Mud Filtrate Sample
RMS  .OHMM    1000.00000                 :Resistivity of Mud Sample
MSS  .        Shakers                    :Mud Sample Source
MFSS  .       Shakers                    :Mud Filtrate Sample Source
MCSS  .       Shakers                    :Mud Cake Sample Source
TCS  .         20 10                     :End Log Time
DCS  .         11-Dec-2006               :End Log Date
DFT  .        SOBM                       :Drilling Fluid Type
DFPH .           N/A                     :Drilling Fluid PH
DFV  .S       80.00000                   :Drilling Fluid Viscosity
DFD  .LB/G    10.500000                  :Drilling Fluid Density
DOWR .        70/30                      :Oil/Water Ratio
DFTS .        19.00                      :Drilling Fluid Total Solids
DHGS .        242.31                     :Drilling Fluid High Gravity Solids
TLAB .        16 00                      :Begin Log Time
DLAB .        09-Dec-2006                :Begin Log Date
RUN  .        1                          :Run Number
BLI  .M       1445.00000                 :Bottom Log Interval
TLI  .M        500.00000                 :Top Log Interval
WITN .        Sven                       :Witness's Name
ENGI .        Hatim/Harsh/Sidy           :Engineer's Name
LUL  .        Zone 2                     :Logging Unit Location
LUN  .        OLU-KC-0103                :Logging Unit Number
RR5  .        No Barite and Potassium in mud :Remark Line 5
RR2  .        ARC6 Resistivity is environmentally corrected for mud resistivity and bit size. :Remark Line 2
RR1  .        GR is corrected for bit size, tool size and mud weight               :Remark Line 1
PDAT .        Lowest Astronomical Tide   :Permanent Datum
EPD  .M          0.00000                 :Elevation of Permanent Datum
DMF  .        Driller's Depth            :Drilling Measured From
LMF  .        Rotary table               :Log Measured From
APD  .M         25.60000                 :Above Permanent Datum
EDF  .M         25.60000                 :Elevation of Derrick Floor
EGL  .M       -80.360000                 :Elevation of Ground Level
EKB  .M         25.60000                 :Elevation of Kelly Bushing
TDL  .M       1445.00000                 :Total Depth - Logger
TDD  .M       1445.00000                 :Total Depth - Driller
MHD  .DEG       2.03                     :Maximum Hole Deviation
AMD  .DEG     181.420000                 :Azimuth of Maximum Hole Deviation
BS   .IN        17.50                    :Bit Size
BSDT .M       500.00000                  :Bit Size Depth To
BSDF .M       1445.00000                 :Bit Size Depth From
CWEI .LB/M     436.00000                 :Casing Weight
CSIZ .IN        20.0000                  :Current Casing Size
CASG .         P-110                     :Casing Grade
CADT .        500.000                    :Casing Depth To
CDF  .        102.5000                   :Casing Depth From
CBLO .M       500.0000                   :Casing Bottom Logger
CBDR .M       500.0000                   :Casing Bottom Driller
#-----------------------------------------------------------------------------
~CURVE INFORMATION
#MNEM.UNIT   API CODE                                  DESCRIPTION
#---- -----  --------                                  -----------------------
DEPT .M                                                :DEPTH (BOREHOLE) {F10.4}
ROP5_RM.M/HR                                           :Rate of Penetration, Averaged over Last 5ft {F13.4}
TAB_ARC_RES.HR                                         :ARC Resistivity Time After Bit {F13.4}
GR_ARC.GAPI                                            :ARC Gamma Ray {F13.4}
A16H .OHMM                                             :ARC Attenuation Resistivity 16-in. at 2 MHz {F13.4}
A22H .OHMM                                             :ARC Attenuation Resistivity 22-in. at 2 MHz {F13.4}
A28H .OHMM                                             :ARC Attenuation Resistivity 28-in. at 2 MHz {F13.4}
A34H .OHMM                                             :ARC Attenuation Resistivity 34-in. at 2 MHz {F13.4}
A40H .OHMM                                             :ARC Attenuation Resistivity 40-in. at 2 MHz {F13.4}
A16L .OHMM                                             :ARC Attenuation Resistivity 16-in. at 400 KHz {F13.4}
A22L .OHMM                                             :ARC Attenuation Resistivity 22-in. at 400 KHz {F13.4}
A28L .OHMM                                             :ARC Attenuation Resistivity 28-in. at 400 KHz {F13.4}
A34L .OHMM                                             :ARC Attenuation Resistivity 34-in. at 400 KHz {F13.4}
A40L .OHMM                                             :ARC Attenuation Resistivity 40-in. at 400 KHz {F13.4}
P16H .OHMM                                             :ARC Phase-Shift Resistivity 16-in. at 2 MHz {F13.4}
P22H .OHMM                                             :ARC Phase-Shift Resistivity 22-in. at 2 MHz {F13.4}
P28H .OHMM                                             :ARC Phase-Shift Resistivity 28-in. at 2 MHz {F13.4}
P34H .OHMM                                             :ARC Phase-Shift Resistivity 34-in. at 2 MHz {F13.4}
P40H .OHMM                                             :ARC Phase-Shift Resistivity 40-in. at 2 MHz {F13.4}
P16L .OHMM                                             :ARC Phase-Shift Resistivity 16-in. at 400 KHz {F13.4}
P22L .OHMM                                             :ARC Phase-Shift Resistivity 22-in. at 400 KHz {F13.4}
P28L .OHMM                                             :ARC Phase-Shift Resistivity 28-in. at 400 KHz {F13.4}
P34L .OHMM                                             :ARC Phase-Shift Resistivity 34-in. at 400 KHz {F13.4}
P40L .OHMM                                             :ARC Phase-Shift Resistivity 40-in. at 400 KHz {F13.4}
ATMP .DEGC                                             :ARC Annular Temperature {F13.4}
APRS_ARC.PSI                                           :ARC Annular Pressure {F13.4}
ECD_ARC.LB/G                                           :Equivalent Circulating Density {F13.4}
#-----------------------------------------------------------------------------
# 
#     DEPT      ROP5_RM    TAB_ARC_RES     GR_ARC        A16H         A22H         A28H         A34H         A40H         A16L         A22L         A28L         A34L         A40L         P16H         P22H         P28H         P34H         P40H         P16L         P22L         P28L         P34L         P40L         ATMP       APRS_ARC     ECD_ARC
#
~A  
  499.8720       6.0703       3.3361      56.1114       0.9891       0.8377       0.6226       0.4571       0.3707       0.3617       0.2067       0.1509       0.1152       0.0864    5000.0000    5000.0000    1017.8193     699.7824     650.8903    5000.0000    5000.0000    5000.0000    5000.0000     247.1095      49.0000     859.0003      10.1247
  500.0244       6.1382       3.3167      56.3740       1.5852       0.9706       0.7449       0.5840       0.4398       0.3680       0.1811       0.1244       0.1005       0.0873    5000.0000    5000.0000      51.8864      26.4847      31.0528    5000.0000    5000.0000    5000.0000    5000.0000    5000.0000      49.0000     860.0004      10.1334
  500.1768       6.2006       3.2917      55.6299       1.9645       1.0184       0.6977       0.5388       0.4331       0.2958       0.1808       0.1255       0.0972       0.0830    5000.0000    5000.0000     999.9197     165.8181      88.5823    5000.0000    5000.0000    5000.0000    5000.0000    5000.0000      49.0000     860.0004      10.1303
  500.3292       5.8502       3.2722      55.3673       0.3801       0.6303       0.6709       0.4673       0.3563       0.4434       0.2195       0.1488       0.1115       0.0848    5000.0000    5000.0000    1624.6875     854.0247     783.9997    5000.0000    5000.0000     335.7495     200.2038    5000.0000      49.0000     861.0003      10.1390
  500.4816       5.5880       3.2444      53.1789       1.9044       0.9261       0.6327       0.4972       0.4080       0.1659       0.1609       0.1328       0.1028       0.0871    5000.0000    5000.0000     689.7007     188.8614     103.9506    5000.0000    5000.0000    5000.0000    5000.0000    5000.0000      49.0000     861.0003      10.1359
  500.6340       5.5880       3.2278      52.4786       0.2401       0.4925       0.6496       0.4891       0.4110       0.1477       0.1631       0.1416       0.1034       0.0800    5000.0000    5000.0000    3089.0850     877.7495     800.6952    5000.0000    5000.0000    5000.0000    5000.0000    5000.0000      49.0000     861.0003      10.1328
  500.7864       5.5374       3.2083      51.7345       1.1055       0.6110       0.4552       0.4197       0.4125       0.4301       0.1617       0.0956       0.0708       0.0591    5000.0000     973.5065     678.5843     630.5798     603.4087    5000.0000    5000.0000     145.9679      74.8460      70.5914      49.0000     862.0004      10.1415
  500.9388       5.8377       3.2028      50.2902       2.2780       1.0236       0.6021       0.3869       0.2700       0.2488       0.1663       0.1283       0.1035       0.0848    5000.0000    4272.6196     685.2271     506.9436     405.4366      53.9153     122.5374      85.7750     112.6285    5000.0000      49.0000     862.0004      10.1384
  501.0912       5.8254       3.1861      50.7279       1.2409       0.9085       0.6702       0.5019       0.4011       0.0500       0.0500       0.1324       0.1035       0.0834    5000.0000    5000.0000     751.8546     369.1794    1194.7445       6.3897    1343.5736    5000.0000    5000.0000    5000.0000      49.0000     863.0004      10.1470
  501.2436       6.3806       3.1028      50.4652       0.5252       0.6843       0.6646       0.5076       0.4137       0.0500       0.0912       0.1392       0.1007       0.0786    5000.0000    5000.0000    1052.4674     431.2651    4304.3135    5000.0000    5000.0000    5000.0000    5000.0000    5000.0000      49.0000     864.0004      10.1557
  501.3960       5.9544       3.0917      52.7850       0.6137       0.7949       0.7109       0.4918       0.3728       0.4235       0.2092       0.1684       0.1454       0.1106    5000.0000    5000.0000    1348.4312     872.5609    4006.1895    5000.0000    5000.0000      28.3670      17.9054     116.7572      49.0000     864.0004      10.1526
  501.5484       6.1521       3.0806      53.6166       0.5349       0.6902       0.6638       0.5014       0.4047       0.0500       0.0500       0.0729       0.1040       0.0847    5000.0000    5000.0000    3692.9846     802.0831    3167.1260    5000.0000    5000.0000    5000.0000    5000.0000    5000.0000      49.0000     864.0004      10.1495
  501.7008       6.3406       3.0861      53.6166       2.0315       1.0833       0.7220       0.5148       0.3827       0.3026       0.1701       0.1250       0.1085       0.0997    5000.0000    5000.0000     638.9595     304.5992     419.4623    5000.0000    5000.0000    2062.6743    5000.0000    5000.0000      49.0000     864.0004      10.1464
  501.8532       6.6462       3.0528      51.9971       1.5251       0.9522       0.6376       0.3736       0.2180       0.0726       0.1163       0.1288       0.0998       0.0838    5000.0000    5000.0000      66.5696      40.2443     168.0713    5000.0000    5000.0000    5000.0000    5000.0000    5000.0000      49.0000     865.0004      10.1550
  502.0056       6.8253       3.0444      51.2968       1.6344       0.8032       0.4894       0.3629       0.3060       0.4612       0.2045       0.1336       0.0954       0.0697    5000.0000    5000.0000    5000.0000    5000.0000    5000.0000    5000.0000    5000.0000    1803.5072    5000.0000    5000.0000      49.0000     865.0004      10.1519
  502.1580       5.1575       2.7778      52.5661       0.5886       0.4377       0.4747       0.4908       0.3517       0.1768       0.1190       0.0807       0.0617       0.0542    5000.0000    5000.0000    5000.0000    5000.0000    5000.0000    5000.0000    5000.0000    5000.0000    5000.0000    5000.0000      49.0000     866.0004      10.1606
  502.3104       5.2355       2.7778      56.3740       0.5856       0.4760       0.3586       0.2819       0.2521       0.1349       0.0781       0.0539       0.0500       0.0523    5000.0000    5000.0000    5000.0000    5000.0000    5000.0000    5000.0000    5000.0000    5000.0000    5000.0000    5000.0000      49.0000     866.0004      10.1575
  502.4628       5.4350       2.7806      61.4512       0.1551       0.1117       0.1280       0.1679       0.1520       0.0500       0.0500       0.0500       0.0500       0.0500    5000.0000    5000.0000    5000.0000    5000.0000    5000.0000    5000.0000    5000.0000    5000.0000    5000.0000    5000.0000      49.0000     866.0004      10.1544
  502.6152       5.8343       2.7861      72.1307       0.1320       0.1129       0.1040       0.1000       0.1000       0.0500       0.0500       0.0500       0.0500       0.0500       6.6136       4.8338       4.1436       7.5234     152.6863       4.0810       5.1948       5.7701       5.5660       5.2878      49.0000     867.0004      10.1630
  502.7676       6.3031       2.7944      79.0024       0.4939       0.9546       1.3243       1.1326       0.9983       0.7389       0.3930       0.3248       0.4332       0.8239       1.8884       3.2395       3.5885       2.5914       2.0674       0.4826      32.2815    5000.0000    5000.0000    5000.0000      49.0000     868.0004      10.1716
  502.9200       7.3971       2.8000      86.3118       0.9573       0.7684       0.6812       0.7197       0.8489       8.2849       0.4429       0.3058       0.1625       0.0696       2.2073       1.5831       1.2362       1.7066       5.8922       0.9747       1.7256       2.2436       7.0661    5000.0000      49.0000     868.0004      10.1685
  503.0724       9.0846       2.8056      83.9483       1.0019       0.8220       0.7385       0.7100       0.6828       0.9832       0.9152       0.8918       0.6559       0.4235       2.3588       1.9304       1.5877       1.2326       0.9328       1.3715       1.2030       1.0959       1.1911       1.5454      49.0000     868.0004      10.1655
  503.2248       9.7889       2.8083      84.2546       1.0183       0.8449       0.7474       0.7761       0.9032       0.9783       0.9345       0.9179       0.7693       0.5824       2.2940       1.8494       1.5561       2.3559      11.7049       1.3969       1.2124       1.1043       1.1726       1.4266      49.0000     869.0004      10.1741
