~VERSION INFORMATION
VERS.           2.0   :CWLS Log ASCII Standard - VERSION 2.0
WRAP.           NO    :One Line per depth step
PROD.  Company   :LAS Producer
PROG.  DLIS to ASCII 12C0-302                          :LAS Program name and version
CREA.        2006/12/12 13:31                          :LAS Creation date {YYYY/MM/DD hh:mm}
SOURCE.     KGIII6-B1_17in_RIL-DLIS_RM_500-1445m.DLIS  :DLIS File Name
FILE-ID.     Run_1                                     :File Identification Number
#--------------------------------------------------
~WELL INFORMATION
#MNEM.UNIT      DATA             DESCRIPTION
#---- ------ --------------   -----------------------------
STRT .M       499.8720       :START DEPTH     
STOP .M      1445.2092       :STOP DEPTH     
STEP .M         0.1524       :STEP     
NULL .          -999.25      :NULL VALUE
COMP .        Company:COMPANY
WELL .        W2:WELL
FLD  .        Block                  :FIELD
LOC  .        Offshore                                 :LOCATION
CNTY .        Actinia                                  :COUNTY
STAT .        State                                    :STATE
CTRY .                                                 :COUNTRY
API  .        06INM0159                                :Service Order NUMBER
UWI  .                                                 :UNIQUE WELL ID
DATE .        09-Dec-2006                              :LOG DATE {DD-MMM-YYYY}
SRVC .        Company                             :SERVICE COMPANY
LATI .DEG     N 16.2763                                :LATITUDE
LONG .DEG     E 82.0962                                :LONGITUDE
GDAT .                                                 :GeoDetic Datum
SECT .        17.5 in.                                 :Section
#-----------------------------------------------------------------------------
~PARAMETER INFORMATION
#MNEM.UNIT    VALUE                      DESCRIPTION
#---- -----   --------------------       ------------------------
TN1 .        PowerPulse                  :Tool Number 1
TN2 .        ARC                         :Tool Number 2
OS3  .          N/A                      :Other Services Line 3
OS2  .          InterACT                 :Other Services Line 2
OS1  .          Directional Surveys      :Other Services Line 1
MST  .DEGC      66.00000                 :Mud Sample Temperature
BHT  .DEGC      81.00000                 :Bottom Hole Temperature
RMS.OHMM      1000.00000                 :Resistivity of Mud Sample (RM)
MST.DEGC        66.00000                 :Mud Sample temperature (RM)
MW.LB/G         11.60000                 :Mud Weight (RM)
SHT.DEGC        25.00000                 :Surface Hole Temperature (RM)
BSAL .PPM     75900.00000                :Mud Salinity
MRT  .DEGC      81.00000                 :Maximum Recorded Temperature
RMB  .OHMM    1000.00000                 :Resistivity of Mud - BHT
MCST .DEGC      66.00000                 :Mud Cake Sample Temperature
RMCS .OHMM    1000.00000                 :Resistivity of Mud Cake Sample
MFST .DEGC      66.00000                 :Mud Filtrate Sample Temperature
RMFS .OHMM    1000.00000                 :Resistivity of Mud Filtrate Sample
RMS  .OHMM    1000.00000                 :Resistivity of Mud Sample
MSS  .        Shakers                    :Mud Sample Source
MFSS  .       Shakers                    :Mud Filtrate Sample Source
MCSS  .       Shakers                    :Mud Cake Sample Source
TCS  .         20 10                     :End Log Time
DCS  .         11-Dec-2006               :End Log Date
DFT  .        SOBM                       :Drilling Fluid Type
DFPH .           N/A                     :Drilling Fluid PH
DFV  .S       80.00000                   :Drilling Fluid Viscosity
DFD  .LB/G    10.500000                  :Drilling Fluid Density
DOWR .        70/30                      :Oil/Water Ratio
DFTS .        19.00                      :Drilling Fluid Total Solids
DHGS .        242.31                     :Drilling Fluid High Gravity Solids
TLAB .        16 00                      :Begin Log Time
DLAB .        09-Dec-2006                :Begin Log Date
RUN  .        1                          :Run Number
BLI  .M       1445.00000                 :Bottom Log Interval
TLI  .M        500.00000                 :Top Log Interval
WITN .        Sven                       :Witness's Name
ENGI .        Hatim/Harsh/Sidy           :Engineer's Name
LUL  .        Zone 2                     :Logging Unit Location
LUN  .        OLU-KC-0103                :Logging Unit Number
RR5  .        No Barite and Potassium in mud :Remark Line 5
RR2  .        ARC6 Resistivity is environmentally corrected for mud resistivity and bit size. :Remark Line 2
RR1  .        GR is corrected for bit size, tool size and mud weight               :Remark Line 1
PDAT .        Lowest Astronomical Tide   :Permanent Datum
EPD  .M          0.00000                 :Elevation of Permanent Datum
DMF  .        Driller's Depth            :Drilling Measured From
LMF  .        Rotary table               :Log Measured From
APD  .M         25.60000                 :Above Permanent Datum
EDF  .M         25.60000                 :Elevation of Derrick Floor
EGL  .M       -80.360000                 :Elevation of Ground Level
EKB  .M         25.60000                 :Elevation of Kelly Bushing
TDL  .M       1445.00000                 :Total Depth - Logger
TDD  .M       1445.00000                 :Total Depth - Driller
MHD  .DEG       2.03                     :Maximum Hole Deviation
AMD  .DEG     181.420000                 :Azimuth of Maximum Hole Deviation
BS   .IN        17.50                    :Bit Size
BSDT .M       500.00000                  :Bit Size Depth To
BSDF .M       1445.00000                 :Bit Size Depth From
CWEI .LB/M     436.00000                 :Casing Weight
CSIZ .IN        20.0000                  :Current Casing Size
CASG .         P-110                     :Casing Grade
CADT .        500.000                    :Casing Depth To
CDF  .        102.5000                   :Casing Depth From
CBLO .M       500.0000                   :Casing Bottom Logger
CBDR .M       500.0000                   :Casing Bottom Driller
#-----------------------------------------------------------------------------
~CURVE INFORMATION
#MNEM.UNIT   API CODE                                  DESCRIPTION
#---- -----  --------                                  -----------------------
DEPT .M                                                :DEPTH (BOREHOLE) {F10.4}
ROP5_RM.M/HR                                           :Rate of Penetration, Averaged over Last 5ft {F13.4}
TAB_ARC_RES.HR                                         :ARC Resistivity Time After Bit {F13.4}
GR_ARC.GAPI                                            :ARC Gamma Ray {F13.4}
A16H .OHMM                                             :ARC Attenuation Resistivity 16-in. at 2 MHz {F13.4}
A22H .OHMM                                             :ARC Attenuation Resistivity 22-in. at 2 MHz {F13.4}
A28H .OHMM                                             :ARC Attenuation Resistivity 28-in. at 2 MHz {F13.4}
A34H .OHMM                                             :ARC Attenuation Resistivity 34-in. at 2 MHz {F13.4}
A40H .OHMM                                             :ARC Attenuation Resistivity 40-in. at 2 MHz {F13.4}
A16L .OHMM                                             :ARC Attenuation Resistivity 16-in. at 400 KHz {F13.4}
A22L .OHMM                                             :ARC Attenuation Resistivity 22-in. at 400 KHz {F13.4}
A28L .OHMM                                             :ARC Attenuation Resistivity 28-in. at 400 KHz {F13.4}
A34L .OHMM                                             :ARC Attenuation Resistivity 34-in. at 400 KHz {F13.4}
A40L .OHMM                                             :ARC Attenuation Resistivity 40-in. at 400 KHz {F13.4}
P16H .OHMM                                             :ARC Phase-Shift Resistivity 16-in. at 2 MHz {F13.4}
P22H .OHMM                                             :ARC Phase-Shift Resistivity 22-in. at 2 MHz {F13.4}
P28H .OHMM                                             :ARC Phase-Shift Resistivity 28-in. at 2 MHz {F13.4}
P34H .OHMM                                             :ARC Phase-Shift Resistivity 34-in. at 2 MHz {F13.4}
P40H .OHMM                                             :ARC Phase-Shift Resistivity 40-in. at 2 MHz {F13.4}
P16L .OHMM                                             :ARC Phase-Shift Resistivity 16-in. at 400 KHz {F13.4}
P22L .OHMM                                             :ARC Phase-Shift Resistivity 22-in. at 400 KHz {F13.4}
P28L .OHMM                                             :ARC Phase-Shift Resistivity 28-in. at 400 KHz {F13.4}
P34L .OHMM                                             :ARC Phase-Shift Resistivity 34-in. at 400 KHz {F13.4}
P40L .OHMM                                             :ARC Phase-Shift Resistivity 40-in. at 400 KHz {F13.4}
ATMP .DEGC                                             :ARC Annular Temperature {F13.4}
APRS_ARC.PSI                                           :ARC Annular Pressure {F13.4}
ECD_ARC.LB/G                                           :Equivalent Circulating Density {F13.4}
#-----------------------------------------------------------------------------
# 
#     DEPT      ROP5_RM    TAB_ARC_RES     GR_ARC        A16H         A22H         A28H         A34H         A40H         A16L         A22L         A28L         A34L         A40L         P16H         P22H         P28H         P34H         P40H         P16L         P22L         P28L         P34L         P40L         ATMP       APRS_ARC     ECD_ARC
#
~A  
# ...
  745.2360      36.0938       0.8472     109.6405       0.8641       0.8845       0.9109       0.9444       0.9780       0.9930       0.9925       0.9955       1.0046       1.0166       1.0063       0.9379       0.8928       0.8768       0.8712       0.9882       0.9710       0.9579       0.9499       0.9440      58.0000    1314.0006      10.3754
  745.3884      36.0947       0.8444     110.5158       0.9260       0.9429       0.9395       0.9090       0.8721       1.0123       1.0158       1.0117       1.0048       1.0010       0.9494       0.9160       0.8842       0.8394       0.7847       0.9756       0.9583       0.9501       0.9487       0.9465      58.0000    1313.0006      10.3654
  745.5408      34.7051       0.8444     112.8356       0.8949       0.9261       0.9522       0.9681       0.9774       1.0072       1.0086       1.0081       1.0103       1.0159       1.0075       0.9554       0.9179       0.9019       0.8952       1.0055       0.9862       0.9683       0.9568       0.9510      58.0000    1314.0006      10.3712
  745.6932      34.0484       0.8417     114.4550       0.9167       0.9421       0.9654       0.9807       0.9888       1.0170       1.0137       1.0121       1.0153       1.0213       1.0564       1.0109       0.9764       0.9629       0.9605       1.0294       1.0132       1.0039       0.9973       0.9880      58.0000    1314.0006      10.3691
  745.8456      33.9630       0.8417     118.2629       0.9398       0.9457       0.9613       0.9805       0.9932       1.0367       1.0361       1.0265       1.0193       1.0211       1.0664       1.0207       0.9884       0.9731       0.9632       1.0412       1.0194       1.0068       0.9996       0.9900      58.0000    1315.0006      10.3748
  745.9980      30.1470       0.5583     118.0003       0.9960       0.9944       0.9915       0.9777       0.9553       1.0507       1.0513       1.0477       1.0379       1.0264       1.0185       0.9814       0.9518       0.9279       0.9032       1.0383       1.0148       1.0001       0.9917       0.9832      58.0000    1315.0006      10.3727
  746.1504      28.8926       0.5556     117.8252       0.9849       0.9901       0.9862       0.9590       0.9195       1.0469       1.0445       1.0425       1.0383       1.0326       1.0308       0.9928       0.9593       0.9280       0.8956       1.0451       1.0242       1.0059       0.9897       0.9747      58.0000    1316.0005      10.3785
  746.3028      12.4351       0.5556     114.8927       1.0211       0.9899       0.9595       0.9155       0.8657       1.0519       1.0563       1.0570       1.0492       1.0369       1.0334       1.0147       0.9907       0.9551       0.9152       1.0535       1.0346       1.0188       1.0086       1.0023      58.0000    1316.0005      10.3764
  746.4552      12.1393       0.5500     120.7139       1.0274       0.9871       0.9507       0.9091       0.8681       1.0615       1.0573       1.0549       1.0474       1.0354       1.0397       1.0170       0.9902       0.9560       0.9199       1.0615       1.0422       1.0259       1.0129       1.0015      58.0000    1316.0005      10.3741
  746.6076      11.9916       0.5472     122.2021       1.0388       1.0158       0.9922       0.9447       0.8805       1.0609       1.0634       1.0604       1.0492       1.0356       1.0618       1.0470       1.0317       1.0062       0.9718       1.0788       1.0595       1.0436       1.0327       1.0247      58.0000    1317.0005      10.3799
  746.7600      11.9032       0.5444     126.2725       1.0625       0.9908       0.9443       0.9026       0.8601       1.0747       1.0745       1.0717       1.0607       1.0455       1.0925       1.0780       1.0615       1.0309       0.9896       1.0903       1.0650       1.0524       1.0480       1.0413      58.0000    1317.0005      10.3778
  746.9124      11.8190       0.5444     120.2762       1.0638       1.0268       1.0027       0.9651       0.9089       1.0832       1.0806       1.0801       1.0707       1.0532       1.0644       1.0341       1.0145       0.9899       0.9514       1.0998       1.0608       1.0387       1.0289       1.0188      58.0000    1319.0006      10.3915
  747.0648      11.8254       0.5417     119.4009       1.0449       0.9911       0.9717       0.9713       0.9687       1.0926       1.0854       1.0825       1.0722       1.0544       1.0293       1.0002       0.9799       0.9547       0.9170       1.0593       1.0353       1.0252       1.0205       1.0095      58.0000    1319.0006      10.3894
  747.2172      11.8592       0.5417     115.5054       1.0181       0.9599       0.9424       0.9701       1.0144       1.0915       1.0839       1.0771       1.0629       1.0441       1.0167       0.9906       0.9670       0.9448       0.9216       1.0424       1.0275       1.0213       1.0186       1.0118      58.0000    1319.0006      10.3872
  747.3696      11.9869       0.5417     118.8756       1.0081       0.9795       0.9667       0.9725       0.9849       1.0761       1.0762       1.0726       1.0587       1.0399       1.0132       0.9941       0.9718       0.9486       0.9275       1.0399       1.0291       1.0232       1.0177       1.0088      58.0000    1319.0006      10.3851
  747.5220      12.1537       0.5389     119.4446       1.0014       0.9846       0.9766       0.9615       0.9336       1.0547       1.0688       1.0738       1.0645       1.0487       0.9931       0.9758       0.9524       0.9239       0.8970       1.0285       1.0176       1.0104       1.0057       1.0005      58.0000    1320.0005      10.3909
  747.6744      22.1803       0.5389     121.4580       0.9805       0.9634       0.9531       0.9605       0.9802       1.0668       1.0652       1.0547       1.0392       1.0274       0.9984       0.9730       0.9420       0.9142       0.8952       1.0162       1.0111       1.0095       1.0085       1.0049      58.0000    1321.0005      10.3967
  747.8268      33.6743       0.5389     124.6531       0.9370       0.9477       0.9704       1.0068       1.0472       1.0506       1.0442       1.0427       1.0447       1.0467       1.0375       0.9976       0.9663       0.9600       0.9703       1.0271       1.0186       1.0129       1.0074       1.0001      58.0000    1321.0005      10.3944
  747.9792      33.8699       0.5389     123.4714       0.9343       0.9644       0.9934       1.0147       1.0251       1.0243       1.0325       1.0410       1.0460       1.0461       0.9902       0.9559       0.9318       0.9231       0.9208       1.0108       1.0006       0.9925       0.9856       0.9780      58.0000    1322.0006      10.4002
  748.1316      38.2817       0.5389     119.6635       0.9347       0.9635       0.9868       0.9913       0.9815       1.0204       1.0313       1.0406       1.0455       1.0458       0.9851       0.9513       0.9263       0.9128       0.9033       1.0025       0.9918       0.9841       0.9768       0.9676      58.0000    1323.0006      10.4060
  748.2840      40.7197       0.5417     113.4046       0.9189       0.9478       0.9722       0.9771       0.9661       0.9964       1.0145       1.0274       1.0314       1.0300       0.9702       0.9366       0.9142       0.9014       0.8885       0.9912       0.9766       0.9680       0.9593       0.9457      58.0000    1323.0006      10.4039
  748.4364      43.2980       0.5417     113.5796       0.9502       0.9489       0.9421       0.9258       0.9061       0.9899       1.0097       1.0227       1.0261       1.0257       0.9456       0.9247       0.9021       0.8739       0.8429       0.9810       0.9687       0.9595       0.9534       0.9479      58.0000    1323.0006      10.4017
  748.5888      44.1832       0.5417     116.5121       0.9394       0.9279       0.9089       0.8888       0.8754       0.9801       0.9971       1.0128       1.0165       1.0111       0.9467       0.9211       0.8952       0.8616       0.8227       0.9701       0.9579       0.9495       0.9441       0.9391      58.0000    1324.0006      10.4074
