~VERSION INFORMATION
VERS.           2.0   :CWLS Log ASCII Standard - VERSION 2.0
WRAP.           NO    :One Line per depth step
PROD.  Company   :LAS Producer
PROG.  DLIS to ASCII 12C0-302                          :LAS Program name and version
CREA.        2006/12/12 13:31                          :LAS Creation date {YYYY/MM/DD hh:mm}
SOURCE.     KGIII6-B1_17in_RIL-DLIS_RM_500-1445m.DLIS  :DLIS File Name
FILE-ID.     Run_1                                     :File Identification Number
#--------------------------------------------------
~WELL INFORMATION
#MNEM.UNIT      DATA             DESCRIPTION
#---- ------ --------------   -----------------------------
STRT .M       499.8720       :START DEPTH     
STOP .M      1445.2092       :STOP DEPTH     
STEP .M         0.1524       :STEP     
NULL .          -999.25      :NULL VALUE
COMP .        Company:COMPANY
WELL .        W2:WELL
FLD  .        Block                  :FIELD
LOC  .        Offshore                                 :LOCATION
CNTY .        Actinia                                  :COUNTY
STAT .        State                                    :STATE
CTRY .                                                 :COUNTRY
API  .        06INM0159                                :Service Order NUMBER
UWI  .                                                 :UNIQUE WELL ID
DATE .        09-Dec-2006                              :LOG DATE {DD-MMM-YYYY}
SRVC .        Company                             :SERVICE COMPANY
LATI .DEG     N 16.2763                                :LATITUDE
LONG .DEG     E 82.0962                                :LONGITUDE
GDAT .                                                 :GeoDetic Datum
SECT .        17.5 in.                                 :Section
#-----------------------------------------------------------------------------
~PARAMETER INFORMATION
#MNEM.UNIT    VALUE                      DESCRIPTION
#---- -----   --------------------       ------------------------
TN1 .        PowerPulse                  :Tool Number 1
TN2 .        ARC                         :Tool Number 2
OS3  .          N/A                      :Other Services Line 3
OS2  .          InterACT                 :Other Services Line 2
OS1  .          Directional Surveys      :Other Services Line 1
MST  .DEGC      66.00000                 :Mud Sample Temperature
BHT  .DEGC      81.00000                 :Bottom Hole Temperature
RMS.OHMM      1000.00000                 :Resistivity of Mud Sample (RM)
MST.DEGC        66.00000                 :Mud Sample temperature (RM)
MW.LB/G         11.60000                 :Mud Weight (RM)
SHT.DEGC        25.00000                 :Surface Hole Temperature (RM)
BSAL .PPM     75900.00000                :Mud Salinity
MRT  .DEGC      81.00000                 :Maximum Recorded Temperature
RMB  .OHMM    1000.00000                 :Resistivity of Mud - BHT
MCST .DEGC      66.00000                 :Mud Cake Sample Temperature
RMCS .OHMM    1000.00000                 :Resistivity of Mud Cake Sample
MFST .DEGC      66.00000                 :Mud Filtrate Sample Temperature
RMFS .OHMM    1000.00000                 :Resistivity of Mud Filtrate Sample
RMS  .OHMM    1000.00000                 :Resistivity of Mud Sample
MSS  .        Shakers                    :Mud Sample Source
MFSS  .       Shakers                    :Mud Filtrate Sample Source
MCSS  .       Shakers                    :Mud Cake Sample Source
TCS  .         20 10                     :End Log Time
DCS  .         11-Dec-2006               :End Log Date
DFT  .        SOBM                       :Drilling Fluid Type
DFPH .           N/A                     :Drilling Fluid PH
DFV  .S       80.00000                   :Drilling Fluid Viscosity
DFD  .LB/G    10.500000                  :Drilling Fluid Density
DOWR .        70/30                      :Oil/Water Ratio
DFTS .        19.00                      :Drilling Fluid Total Solids
DHGS .        242.31                     :Drilling Fluid High Gravity Solids
TLAB .        16 00                      :Begin Log Time
DLAB .        09-Dec-2006                :Begin Log Date
RUN  .        1                          :Run Number
BLI  .M       1445.00000                 :Bottom Log Interval
TLI  .M        500.00000                 :Top Log Interval
WITN .        Sven                       :Witness's Name
ENGI .        Hatim/Harsh/Sidy           :Engineer's Name
LUL  .        Zone 2                     :Logging Unit Location
LUN  .        OLU-KC-0103                :Logging Unit Number
RR5  .        No Barite and Potassium in mud :Remark Line 5
RR2  .        ARC6 Resistivity is environmentally corrected for mud resistivity and bit size. :Remark Line 2
RR1  .        GR is corrected for bit size, tool size and mud weight               :Remark Line 1
PDAT .        Lowest Astronomical Tide   :Permanent Datum
EPD  .M          0.00000                 :Elevation of Permanent Datum
DMF  .        Driller's Depth            :Drilling Measured From
LMF  .        Rotary table               :Log Measured From
APD  .M         25.60000                 :Above Permanent Datum
EDF  .M         25.60000                 :Elevation of Derrick Floor
EGL  .M       -80.360000                 :Elevation of Ground Level
EKB  .M         25.60000                 :Elevation of Kelly Bushing
TDL  .M       1445.00000                 :Total Depth - Logger
TDD  .M       1445.00000                 :Total Depth - Driller
MHD  .DEG       2.03                     :Maximum Hole Deviation
AMD  .DEG     181.420000                 :Azimuth of Maximum Hole Deviation
BS   .IN        17.50                    :Bit Size
BSDT .M       500.00000                  :Bit Size Depth To
BSDF .M       1445.00000                 :Bit Size Depth From
CWEI .LB/M     436.00000                 :Casing Weight
CSIZ .IN        20.0000                  :Current Casing Size
CASG .         P-110                     :Casing Grade
CADT .        500.000                    :Casing Depth To
CDF  .        102.5000                   :Casing Depth From
CBLO .M       500.0000                   :Casing Bottom Logger
CBDR .M       500.0000                   :Casing Bottom Driller
#-----------------------------------------------------------------------------
~CURVE INFORMATION
#MNEM.UNIT   API CODE                                  DESCRIPTION
#---- -----  --------                                  -----------------------
DEPT .M                                                :DEPTH (BOREHOLE) {F10.4}
ROP5_RM.M/HR                                           :Rate of Penetration, Averaged over Last 5ft {F13.4}
TAB_ARC_RES.HR                                         :ARC Resistivity Time After Bit {F13.4}
GR_ARC.GAPI                                            :ARC Gamma Ray {F13.4}
A16H .OHMM                                             :ARC Attenuation Resistivity 16-in. at 2 MHz {F13.4}
A22H .OHMM                                             :ARC Attenuation Resistivity 22-in. at 2 MHz {F13.4}
A28H .OHMM                                             :ARC Attenuation Resistivity 28-in. at 2 MHz {F13.4}
A34H .OHMM                                             :ARC Attenuation Resistivity 34-in. at 2 MHz {F13.4}
A40H .OHMM                                             :ARC Attenuation Resistivity 40-in. at 2 MHz {F13.4}
A16L .OHMM                                             :ARC Attenuation Resistivity 16-in. at 400 KHz {F13.4}
A22L .OHMM                                             :ARC Attenuation Resistivity 22-in. at 400 KHz {F13.4}
A28L .OHMM                                             :ARC Attenuation Resistivity 28-in. at 400 KHz {F13.4}
A34L .OHMM                                             :ARC Attenuation Resistivity 34-in. at 400 KHz {F13.4}
A40L .OHMM                                             :ARC Attenuation Resistivity 40-in. at 400 KHz {F13.4}
P16H .OHMM                                             :ARC Phase-Shift Resistivity 16-in. at 2 MHz {F13.4}
P22H .OHMM                                             :ARC Phase-Shift Resistivity 22-in. at 2 MHz {F13.4}
P28H .OHMM                                             :ARC Phase-Shift Resistivity 28-in. at 2 MHz {F13.4}
P34H .OHMM                                             :ARC Phase-Shift Resistivity 34-in. at 2 MHz {F13.4}
P40H .OHMM                                             :ARC Phase-Shift Resistivity 40-in. at 2 MHz {F13.4}
P16L .OHMM                                             :ARC Phase-Shift Resistivity 16-in. at 400 KHz {F13.4}
P22L .OHMM                                             :ARC Phase-Shift Resistivity 22-in. at 400 KHz {F13.4}
P28L .OHMM                                             :ARC Phase-Shift Resistivity 28-in. at 400 KHz {F13.4}
P34L .OHMM                                             :ARC Phase-Shift Resistivity 34-in. at 400 KHz {F13.4}
P40L .OHMM                                             :ARC Phase-Shift Resistivity 40-in. at 400 KHz {F13.4}
ATMP .DEGC                                             :ARC Annular Temperature {F13.4}
APRS_ARC.PSI                                           :ARC Annular Pressure {F13.4}
ECD_ARC.LB/G                                           :Equivalent Circulating Density {F13.4}
#-----------------------------------------------------------------------------
# 
#     DEPT      ROP5_RM    TAB_ARC_RES     GR_ARC        A16H         A22H         A28H         A34H         A40H         A16L         A22L         A28L         A34L         A40L         P16H         P22H         P28H         P34H         P40H         P16L         P22L         P28L         P34L         P40L         ATMP       APRS_ARC     ECD_ARC
#
~A  
# ...
 1302.5628      35.4422       0.8778     110.3844       0.6601       0.6520       0.6580       0.6733       0.6844       0.6828       0.6865       0.6923       0.6953       0.6936       0.7129       0.6766       0.6486       0.6269       0.6054       0.7127       0.6997       0.6959       0.6950       0.6882      78.0000    2503.0010      11.2959
 1302.7152      38.2039       0.8861     111.8288       0.6399       0.6325       0.6394       0.6554       0.6666       0.6798       0.6859       0.6881       0.6872       0.6862       0.7033       0.6672       0.6360       0.6098       0.5859       0.7089       0.6939       0.6851       0.6805       0.6744      78.0000    2503.0010      11.2945
 1302.8676      40.8223       0.8917     113.7108       0.6198       0.6274       0.6401       0.6594       0.6803       0.6743       0.6875       0.6933       0.6927       0.6914       0.6909       0.6523       0.6165       0.5887       0.5680       0.6960       0.6861       0.6813       0.6779       0.6713      78.0000    2504.0010      11.2978
 1303.0200      42.5281       0.8972     117.7813       0.6149       0.6190       0.6309       0.6555       0.6856       0.6700       0.6800       0.6847       0.6844       0.6827       0.7128       0.6680       0.6259       0.5936       0.5700       0.7020       0.6951       0.6876       0.6799       0.6726      78.0000    2505.0010      11.3010
 1303.1724      42.8583       0.9028     114.8488       0.6217       0.6247       0.6365       0.6611       0.6902       0.6643       0.6787       0.6852       0.6837       0.6803       0.7088       0.6655       0.6269       0.6018       0.5869       0.7014       0.6932       0.6859       0.6795       0.6736      78.0000    2504.0010      11.2951
 1303.3248      42.5543       0.9083     114.7175       0.6100       0.6122       0.6295       0.6649       0.7046       0.6653       0.6777       0.6844       0.6831       0.6779       0.7207       0.6683       0.6255       0.5992       0.5823       0.7048       0.6951       0.6880       0.6853       0.6848      78.0000    2504.0010      11.2938
 1303.4772      42.3032       0.9167     114.4549       0.6097       0.5981       0.6095       0.6480       0.6932       0.6571       0.6661       0.6726       0.6737       0.6710       0.7254       0.6657       0.6175       0.5841       0.5580       0.7044       0.6916       0.6834       0.6781       0.6714      78.0000    2504.0010      11.2925
 1303.6296      41.8446       0.9194     112.1352       0.6163       0.6084       0.6199       0.6516       0.6855       0.6548       0.6619       0.6679       0.6699       0.6685       0.7064       0.6534       0.6103       0.5779       0.5506       0.6947       0.6784       0.6679       0.6632       0.6594      78.0000    2504.0010      11.2912
 1303.7820      41.3389       0.9250     110.3844       0.6034       0.6067       0.6238       0.6560       0.6900       0.6457       0.6571       0.6690       0.6747       0.6728       0.6742       0.6294       0.5957       0.5738       0.5554       0.6701       0.6560       0.6492       0.6457       0.6392      78.0000    2505.0010      11.2944
 1303.9344      41.3996       0.9306     107.0142       0.5801       0.5819       0.6012       0.6454       0.6996       0.6368       0.6495       0.6607       0.6664       0.6668       0.6716       0.6139       0.5764       0.5577       0.5427       0.6595       0.6456       0.6366       0.6311       0.6251      78.0000    2506.0012      11.2976
 1304.0868      40.0673       0.9306     112.5291       0.5735       0.5795       0.5987       0.6468       0.7160       0.6321       0.6468       0.6572       0.6630       0.6664       0.6776       0.6121       0.5716       0.5494       0.5278       0.6624       0.6470       0.6379       0.6343       0.6309      78.0000    2506.0012      11.2962
 1304.2392      35.5291       0.9361     111.8288       0.5911       0.6047       0.6189       0.6482       0.6936       0.6355       0.6506       0.6575       0.6569       0.6551       0.6876       0.6355       0.5970       0.5749       0.5591       0.6640       0.6508       0.6416       0.6358       0.6305      78.0000    2505.0010      11.2904
 1304.3916      34.6669       0.9389     109.3777       0.6035       0.6145       0.6183       0.6368       0.6784       0.6423       0.6561       0.6641       0.6682       0.6723       0.6757       0.6261       0.5805       0.5547       0.5463       0.6672       0.6534       0.6431       0.6393       0.6389      78.0000    2505.0010      11.2891
 1304.5440      32.7218       0.9389     109.2464       0.5945       0.6094       0.6141       0.6355       0.6855       0.6383       0.6567       0.6656       0.6687       0.6725       0.6969       0.6431       0.5907       0.5599       0.5504       0.6771       0.6608       0.6486       0.6434       0.6418      78.0000    2506.0012      11.2923
 1304.6964      31.0487       0.9417     108.7649       0.5968       0.6176       0.6189       0.6318       0.6764       0.6472       0.6624       0.6695       0.6719       0.6752       0.7255       0.6793       0.6229       0.5931       0.5975       0.7001       0.6834       0.6670       0.6561       0.6508      78.0000    2506.0012      11.2909
 1304.8488      30.1515       0.9472     108.0209       0.6313       0.6434       0.6464       0.6528       0.6708       0.6559       0.6686       0.6743       0.6731       0.6701       0.8416       0.7966       0.7409       0.7097       0.7122       0.7505       0.7320       0.7131       0.7011       0.6971      78.0000    2507.0012      11.2941
 1305.0012      28.8805       0.9500     106.2701       0.6551       0.6418       0.6361       0.6379       0.6403       0.6670       0.6738       0.6767       0.6758       0.6739       0.9443       0.8627       0.7920       0.7433       0.7110       0.7965       0.7635       0.7373       0.7223       0.7141      78.0000    2507.0012      11.2928
 1305.1536      28.5139       0.9528     106.7516       0.6612       0.6337       0.6201       0.6240       0.6338       0.6718       0.6758       0.6760       0.6732       0.6705       0.9926       0.8766       0.7942       0.7370       0.6869       0.8144       0.7759       0.7469       0.7318       0.7243      78.0000    2507.0012      11.2915
 1305.3060      27.8858       0.9528     114.6300       0.6913       0.6496       0.6410       0.6612       0.6816       0.6801       0.6809       0.6821       0.6824       0.6812       0.9804       0.8546       0.7704       0.7125       0.6583       0.8294       0.7772       0.7450       0.7301       0.7186      78.0000    2507.0012      11.2901
 1305.4584      26.1066       0.9528     118.3065       0.6706       0.6191       0.6087       0.6255       0.6346       0.6845       0.6826       0.6835       0.6820       0.6763       0.9764       0.8493       0.7530       0.6638       0.5774       0.8323       0.7796       0.7494       0.7339       0.7171      78.0000    2508.0012      11.2933
 1305.6108      26.2270       0.9583     121.5016       0.6220       0.5680       0.5473       0.5480       0.5444       0.6793       0.6777       0.6792       0.6726       0.6570       0.9570       0.8263       0.7112       0.5863       0.4746       0.8169       0.7683       0.7414       0.7279       0.7119      78.0000    2508.0012      11.2920
 1305.7632      26.2220       0.9611     118.2628       0.5911       0.5345       0.5070       0.5128       0.5313       0.6669       0.6672       0.6683       0.6666       0.6618       0.9206       0.7799       0.6613       0.5445       0.4432       0.7930       0.7465       0.7231       0.7096       0.6883      78.0000    2508.0012      11.2907
 1305.9156      26.3468       0.9667     116.4682       0.5937       0.5531       0.5415       0.5672       0.6083       0.6663       0.6714       0.6779       0.6808       0.6786       0.8461       0.7243       0.6358       0.5611       0.4903       0.7565       0.7214       0.7003       0.6846       0.6649      78.0000    2509.0011      11.2938
