~VERSION INFORMATION
VERS.           2.0   :CWLS Log ASCII Standard - VERSION 2.0
WRAP.           NO    :One Line per depth step
PROD.  Company   :LAS Producer
PROG.  DLIS to ASCII 12C0-302                          :LAS Program name and version
CREA.        2006/12/12 13:31                          :LAS Creation date {YYYY/MM/DD hh:mm}
SOURCE.     KGIII6-B1_17in_RIL-DLIS_RM_500-1445m.DLIS  :DLIS File Name
FILE-ID.     Run_1                                     :File Identification Number
#--------------------------------------------------
~WELL INFORMATION
#MNEM.UNIT      DATA             DESCRIPTION
#---- ------ --------------   -----------------------------
STRT .M       499.8720       :START DEPTH     
STOP .M      1445.2092       :STOP DEPTH     
STEP .M         0.1524       :STEP     
NULL .          -999.25      :NULL VALUE
COMP .        Company:COMPANY
WELL .        W2:WELL
FLD  .        Block                  :FIELD
LOC  .        Offshore                                 :LOCATION
CNTY .        Actinia                                  :COUNTY
STAT .        State                                    :STATE
CTRY .                                                 :COUNTRY
API  .        06INM0159                                :Service Order NUMBER
UWI  .                                                 :UNIQUE WELL ID
DATE .        09-Dec-2006                              :LOG DATE {DD-MMM-YYYY}
SRVC .        Company                             :SERVICE COMPANY
LATI .DEG     N 16.2763                                :LATITUDE
LONG .DEG     E 82.0962                                :LONGITUDE
GDAT .                                                 :GeoDetic Datum
SECT .        17.5 in.                                 :Section
#-----------------------------------------------------------------------------
~PARAMETER INFORMATION
#MNEM.UNIT    VALUE                      DESCRIPTION
#---- -----   --------------------       ------------------------
TN1 .        PowerPulse                  :Tool Number 1
TN2 .        ARC                         :Tool Number 2
OS3  .          N/A                      :Other Services Line 3
OS2  .          InterACT                 :Other Services Line 2
OS1  .          Directional Surveys      :Other Services Line 1
MST  .DEGC      66.00000                 :Mud Sample Temperature
BHT  .DEGC      81.00000                 :Bottom Hole Temperature
RMS.OHMM      1000.00000                 :Resistivity of Mud Sample (RM)
MST.DEGC        66.00000                 :Mud Sample temperature (RM)
MW.LB/G         11.60000                 :Mud Weight (RM)
SHT.DEGC        25.00000                 :Surface Hole Temperature (RM)
BSAL .PPM     75900.00000                :Mud Salinity
MRT  .DEGC      81.00000                 :Maximum Recorded Temperature
RMB  .OHMM    1000.00000                 :Resistivity of Mud - BHT
MCST .DEGC      66.00000                 :Mud Cake Sample Temperature
RMCS .OHMM    1000.00000                 :Resistivity of Mud Cake Sample
MFST .DEGC      66.00000                 :Mud Filtrate Sample Temperature
RMFS .OHMM    1000.00000                 :Resistivity of Mud Filtrate Sample
RMS  .OHMM    1000.00000                 :Resistivity of Mud Sample
MSS  .        Shakers                    :Mud Sample Source
MFSS  .       Shakers                    :Mud Filtrate Sample Source
MCSS  .       Shakers                    :Mud Cake Sample Source
TCS  .         20 10                     :End Log Time
DCS  .         11-Dec-2006               :End Log Date
DFT  .        SOBM                       :Drilling Fluid Type
DFPH .           N/A                     :Drilling Fluid PH
DFV  .S       80.00000                   :Drilling Fluid Viscosity
DFD  .LB/G    10.500000                  :Drilling Fluid Density
DOWR .        70/30                      :Oil/Water Ratio
DFTS .        19.00                      :Drilling Fluid Total Solids
DHGS .        242.31                     :Drilling Fluid High Gravity Solids
TLAB .        16 00                      :Begin Log Time
DLAB .        09-Dec-2006                :Begin Log Date
RUN  .        1                          :Run Number
BLI  .M       1445.00000                 :Bottom Log Interval
TLI  .M        500.00000                 :Top Log Interval
WITN .        Sven                       :Witness's Name
ENGI .        Hatim/Harsh/Sidy           :Engineer's Name
LUL  .        Zone 2                     :Logging Unit Location
LUN  .        OLU-KC-0103                :Logging Unit Number
RR5  .        No Barite and Potassium in mud :Remark Line 5
RR2  .        ARC6 Resistivity is environmentally corrected for mud resistivity and bit size. :Remark Line 2
RR1  .        GR is corrected for bit size, tool size and mud weight               :Remark Line 1
PDAT .        Lowest Astronomical Tide   :Permanent Datum
EPD  .M          0.00000                 :Elevation of Permanent Datum
DMF  .        Driller's Depth            :Drilling Measured From
LMF  .        Rotary table               :Log Measured From
APD  .M         25.60000                 :Above Permanent Datum
EDF  .M         25.60000                 :Elevation of Derrick Floor
EGL  .M       -80.360000                 :Elevation of Ground Level
EKB  .M         25.60000                 :Elevation of Kelly Bushing
TDL  .M       1445.00000                 :Total Depth - Logger
TDD  .M       1445.00000                 :Total Depth - Driller
MHD  .DEG       2.03                     :Maximum Hole Deviation
AMD  .DEG     181.420000                 :Azimuth of Maximum Hole Deviation
BS   .IN        17.50                    :Bit Size
BSDT .M       500.00000                  :Bit Size Depth To
BSDF .M       1445.00000                 :Bit Size Depth From
CWEI .LB/M     436.00000                 :Casing Weight
CSIZ .IN        20.0000                  :Current Casing Size
CASG .         P-110                     :Casing Grade
CADT .        500.000                    :Casing Depth To
CDF  .        102.5000                   :Casing Depth From
CBLO .M       500.0000                   :Casing Bottom Logger
CBDR .M       500.0000                   :Casing Bottom Driller
#-----------------------------------------------------------------------------
~CURVE INFORMATION
#MNEM.UNIT   API CODE                                  DESCRIPTION
#---- -----  --------                                  -----------------------
DEPT .M                                                :DEPTH (BOREHOLE) {F10.4}
ROP5_RM.M/HR                                           :Rate of Penetration, Averaged over Last 5ft {F13.4}
TAB_ARC_RES.HR                                         :ARC Resistivity Time After Bit {F13.4}
GR_ARC.GAPI                                            :ARC Gamma Ray {F13.4}
A16H .OHMM                                             :ARC Attenuation Resistivity 16-in. at 2 MHz {F13.4}
A22H .OHMM                                             :ARC Attenuation Resistivity 22-in. at 2 MHz {F13.4}
A28H .OHMM                                             :ARC Attenuation Resistivity 28-in. at 2 MHz {F13.4}
A34H .OHMM                                             :ARC Attenuation Resistivity 34-in. at 2 MHz {F13.4}
A40H .OHMM                                             :ARC Attenuation Resistivity 40-in. at 2 MHz {F13.4}
A16L .OHMM                                             :ARC Attenuation Resistivity 16-in. at 400 KHz {F13.4}
A22L .OHMM                                             :ARC Attenuation Resistivity 22-in. at 400 KHz {F13.4}
A28L .OHMM                                             :ARC Attenuation Resistivity 28-in. at 400 KHz {F13.4}
A34L .OHMM                                             :ARC Attenuation Resistivity 34-in. at 400 KHz {F13.4}
A40L .OHMM                                             :ARC Attenuation Resistivity 40-in. at 400 KHz {F13.4}
P16H .OHMM                                             :ARC Phase-Shift Resistivity 16-in. at 2 MHz {F13.4}
P22H .OHMM                                             :ARC Phase-Shift Resistivity 22-in. at 2 MHz {F13.4}
P28H .OHMM                                             :ARC Phase-Shift Resistivity 28-in. at 2 MHz {F13.4}
P34H .OHMM                                             :ARC Phase-Shift Resistivity 34-in. at 2 MHz {F13.4}
P40H .OHMM                                             :ARC Phase-Shift Resistivity 40-in. at 2 MHz {F13.4}
P16L .OHMM                                             :ARC Phase-Shift Resistivity 16-in. at 400 KHz {F13.4}
P22L .OHMM                                             :ARC Phase-Shift Resistivity 22-in. at 400 KHz {F13.4}
P28L .OHMM                                             :ARC Phase-Shift Resistivity 28-in. at 400 KHz {F13.4}
P34L .OHMM                                             :ARC Phase-Shift Resistivity 34-in. at 400 KHz {F13.4}
P40L .OHMM                                             :ARC Phase-Shift Resistivity 40-in. at 400 KHz {F13.4}
ATMP .DEGC                                             :ARC Annular Temperature {F13.4}
APRS_ARC.PSI                                           :ARC Annular Pressure {F13.4}
ECD_ARC.LB/G                                           :Equivalent Circulating Density {F13.4}
#-----------------------------------------------------------------------------
# 
#     DEPT      ROP5_RM    TAB_ARC_RES     GR_ARC        A16H         A22H         A28H         A34H         A40H         A16L         A22L         A28L         A34L         A40L         P16H         P22H         P28H         P34H         P40H         P16L         P22L         P28L         P34L         P40L         ATMP       APRS_ARC     ECD_ARC
#
~A  
# ...
 1425.2448      24.7458       1.2722     112.0038       0.4681       0.4285       0.4265       0.4726       0.5443       0.4936       0.4983       0.4995       0.4976       0.4956       0.5579       0.4859       0.4403       0.4346       0.4509       0.5251       0.5124       0.5064       0.5061       0.5057      80.0000    2874.0014      11.8523
 1425.3972      29.6613       1.2722     108.5023       0.4775       0.4796       0.4862       0.5079       0.5429       0.4921       0.5009       0.5078       0.5068       0.5016       0.5332       0.5040       0.4741       0.4247       0.3665       0.5277       0.5150       0.5085       0.5041       0.4963      80.0000    2876.0013      11.8592
 1425.5496      30.8360       1.2722     108.6336       0.4915       0.4835       0.4795       0.4926       0.5222       0.5049       0.5080       0.5115       0.5105       0.5052       0.5451       0.5101       0.4676       0.4331       0.4130       0.5274       0.5186       0.5149       0.5117       0.5044      80.0000    2876.0013      11.8580
 1425.7020      33.4920       1.2722     111.8725       0.4430       0.4669       0.4945       0.5179       0.5302       0.4961       0.5057       0.5145       0.5156       0.5102       0.5678       0.5284       0.5042       0.4866       0.4640       0.5399       0.5264       0.5185       0.5148       0.5102      79.0000    2856.0011      11.7743
 1425.8544      36.8358       1.2722     111.7411       0.4852       0.4917       0.4983       0.5079       0.5200       0.5000       0.5093       0.5159       0.5172       0.5149       0.5489       0.5199       0.4965       0.4830       0.4751       0.5378       0.5234       0.5162       0.5132       0.5082      79.0000    2859.0013      11.7854
 1426.0068      40.2958       1.2750     109.9904       0.4851       0.4890       0.4960       0.5176       0.5512       0.5030       0.5136       0.5194       0.5206       0.5203       0.5389       0.5124       0.4872       0.4412       0.3831       0.5316       0.5209       0.5151       0.5101       0.5015      79.0000    2859.0013      11.7841
 1426.1592      42.8991       1.2750     103.2500       0.4906       0.4928       0.4967       0.5191       0.5603       0.5082       0.5199       0.5266       0.5229       0.5131       0.5463       0.5171       0.4915       0.4489       0.3945       0.5356       0.5248       0.5188       0.5152       0.5098      79.0000    2859.0013      11.7828
 1426.3116      43.2319       1.2722     102.5060       0.4432       0.4560       0.4799       0.5093       0.5327       0.5139       0.5205       0.5266       0.5310       0.5333       0.5818       0.5309       0.4998       0.4878       0.4800       0.5431       0.5346       0.5300       0.5272       0.5227      79.0000    2859.0013      11.7816
 1426.4640      43.6251       1.2722     101.7619       0.4986       0.4855       0.4856       0.5110       0.5530       0.5212       0.5286       0.5339       0.5354       0.5342       0.5852       0.5305       0.4920       0.4870       0.5046       0.5525       0.5412       0.5364       0.5353       0.5320      79.0000    2859.0013      11.7803
 1426.6164      43.9241       1.2722     107.0141       0.4912       0.5099       0.5256       0.5393       0.5551       0.5222       0.5351       0.5453       0.5494       0.5486       0.5726       0.5367       0.5128       0.4941       0.4715       0.5638       0.5460       0.5384       0.5374       0.5337      79.0000    2860.0013      11.7831
 1426.7688      44.2555       1.2722     110.2092       0.4761       0.4789       0.4982       0.5328       0.5620       0.5370       0.5405       0.5461       0.5503       0.5506       0.5777       0.5282       0.4957       0.4779       0.4625       0.5587       0.5465       0.5415       0.5398       0.5350      79.0000    2860.0013      11.7819
 1426.9212      43.3824       1.2694     115.3302       0.5022       0.5162       0.5295       0.5423       0.5547       0.5379       0.5457       0.5541       0.5569       0.5532       0.5692       0.5406       0.5203       0.5028       0.4815       0.5666       0.5518       0.5441       0.5410       0.5362      79.0000    2861.0012      11.7848
 1427.0736      41.9159       1.2667     119.0067       0.4820       0.4899       0.5157       0.5482       0.5666       0.5485       0.5566       0.5636       0.5658       0.5633       0.5788       0.5383       0.5143       0.5041       0.4939       0.5676       0.5570       0.5506       0.5470       0.5427      79.0000    2861.0012      11.7835
 1427.2260      40.2855       1.2667     124.8280       0.5368       0.5304       0.5207       0.5315       0.5673       0.5632       0.5715       0.5754       0.5729       0.5676       0.5777       0.5425       0.5061       0.4703       0.4393       0.5714       0.5660       0.5647       0.5636       0.5589      79.0000    2862.0012      11.7863
 1427.3784      38.8760       1.2667     125.9660       0.5389       0.5431       0.5586       0.5852       0.6117       0.5823       0.5879       0.5914       0.5913       0.5890       0.6226       0.5870       0.5637       0.5606       0.5673       0.6072       0.5998       0.5953       0.5916       0.5864      79.0000    2862.0012      11.7851
 1427.5308      37.7743       1.2639     126.6663       0.5902       0.5696       0.5602       0.5778       0.6145       0.5966       0.6027       0.6035       0.5989       0.5931       0.6337       0.5915       0.5602       0.5522       0.5591       0.6208       0.6120       0.6060       0.6017       0.5968      79.0000    2863.0012      11.7880
 1427.6832      37.0898       1.2611     123.2085       0.5791       0.5931       0.6045       0.6132       0.6210       0.6040       0.6136       0.6189       0.6166       0.6101       0.6444       0.6151       0.5950       0.5877       0.5853       0.6456       0.6299       0.6192       0.6165       0.6175      79.0000    2863.0012      11.7867
 1427.8356      35.7684       1.2583     120.1447       0.5791       0.5931       0.6045       0.6132       0.6210       0.6040       0.6136       0.6189       0.6166       0.6101       0.6444       0.6151       0.5950       0.5877       0.5853       0.6456       0.6299       0.6192       0.6165       0.6175      79.0000    2863.0012      11.7854
 1427.9880      35.2426       1.2583     113.0104       0.5869       0.5935       0.6066       0.6263       0.6460       0.6177       0.6194       0.6207       0.6195       0.6165       0.6768       0.6417       0.6149       0.6123       0.6273       0.6625       0.6494       0.6389       0.6345       0.6340      79.0000    2864.0011      11.7883
 1428.1404      35.1869       1.2556     110.6469       0.6150       0.6203       0.6133       0.6120       0.6276       0.6223       0.6288       0.6310       0.6257       0.6166       0.6906       0.6709       0.6409       0.5892       0.5317       0.6706       0.6607       0.6538       0.6479       0.6404      79.0000    2864.0011      11.7870
 1428.2928      35.0861       1.2528     108.7649       0.6194       0.6178       0.6043       0.5995       0.6143       0.6300       0.6311       0.6338       0.6338       0.6298       0.6932       0.6677       0.6301       0.6041       0.6001       0.6698       0.6571       0.6513       0.6501       0.6472      79.0000    2865.0014      11.7899
 1428.4452      34.5334       1.2528     110.8220       0.6164       0.6149       0.6197       0.6261       0.6280       0.6186       0.6276       0.6359       0.6350       0.6255       0.6879       0.6643       0.6438       0.6290       0.6173       0.6720       0.6552       0.6491       0.6480       0.6424      79.0000    2865.0014      11.7886
 1428.5976      34.7554       1.2556    -999.2500       0.5858       0.5775       0.5899       0.6202       0.6484       0.6206       0.6246       0.6294       0.6333       0.6351       0.6687       0.6303       0.6091       0.6013       0.5924       0.6493       0.6378       0.6331       0.6284       0.6176      79.0000    2866.0013      11.7915
