~VERSION INFORMATION
VERS.           2.0   :CWLS Log ASCII Standard - VERSION 2.0
WRAP.           NO    :One Line per depth step
PROD.  Company   :LAS Producer
PROG.  DLIS to ASCII 12C0-302                          :LAS Program name and version
CREA.        2006/12/12 13:31                          :LAS Creation date {YYYY/MM/DD hh:mm}
SOURCE.     KGIII6-B1_17in_RIL-DLIS_RM_500-1445m.DLIS  :DLIS File Name
FILE-ID.     Run_1                                     :File Identification Number
#--------------------------------------------------
~WELL INFORMATION
#MNEM.UNIT      DATA             DESCRIPTION
#---- ------ --------------   -----------------------------
STRT .M       499.8720       :START DEPTH     
STOP .M      1445.2092       :STOP DEPTH     
STEP .M         0.1524       :STEP     
NULL .          -999.25      :NULL VALUE
COMP .        Company:COMPANY
WELL .        W2:WELL
FLD  .        Block                  :FIELD
LOC  .        Offshore                                 :LOCATION
CNTY .        Actinia                                  :COUNTY
STAT .        State                                    :STATE
CTRY .                                                 :COUNTRY
API  .        06INM0159                                :Service Order NUMBER
UWI  .                                                 :UNIQUE WELL ID
DATE .        09-Dec-2006                              :LOG DATE {DD-MMM-YYYY}
SRVC .        Company                             :SERVICE COMPANY
LATI .DEG     N 16.2763                                :LATITUDE
LONG .DEG     E 82.0962                                :LONGITUDE
GDAT .                                                 :GeoDetic Datum
SECT .        17.5 in.                                 :Section
#-----------------------------------------------------------------------------
~PARAMETER INFORMATION
#MNEM.UNIT    VALUE                      DESCRIPTION
#---- -----   --------------------       ------------------------
TN1 .        PowerPulse                  :Tool Number 1
TN2 .        ARC                         :Tool Number 2
OS3  .          N/A                      :Other Services Line 3
OS2  .          InterACT                 :Other Services Line 2
OS1  .          Directional Surveys      :Other Services Line 1
MST  .DEGC      66.00000                 :Mud Sample Temperature
BHT  .DEGC      81.00000                 :Bottom Hole Temperature
RMS.OHMM      1000.00000                 :Resistivity of Mud Sample (RM)
MST.DEGC        66.00000                 :Mud Sample temperature (RM)
MW.LB/G         11.60000                 :Mud Weight (RM)
SHT.DEGC        25.00000                 :Surface Hole Temperature (RM)
BSAL .PPM     75900.00000                :Mud Salinity
MRT  .DEGC      81.00000                 :Maximum Recorded Temperature
RMB  .OHMM    1000.00000                 :Resistivity of Mud - BHT
MCST .DEGC      66.00000                 :Mud Cake Sample Temperature
RMCS .OHMM    1000.00000                 :Resistivity of Mud Cake Sample
MFST .DEGC      66.00000                 :Mud Filtrate Sample Temperature
RMFS .OHMM    1000.00000                 :Resistivity of Mud Filtrate Sample
RMS  .OHMM    1000.00000                 :Resistivity of Mud Sample
MSS  .        Shakers                    :Mud Sample Source
MFSS  .       Shakers                    :Mud Filtrate Sample Source
MCSS  .       Shakers                    :Mud Cake Sample Source
TCS  .         20 10                     :End Log Time
DCS  .         11-Dec-2006               :End Log Date
DFT  .        SOBM                       :Drilling Fluid Type
DFPH .           N/A                     :Drilling Fluid PH
DFV  .S       80.00000                   :Drilling Fluid Viscosity
DFD  .LB/G    10.500000                  :Drilling Fluid Density
DOWR .        70/30                      :Oil/Water Ratio
DFTS .        19.00                      :Drilling Fluid Total Solids
DHGS .        242.31                     :Drilling Fluid High Gravity Solids
TLAB .        16 00                      :Begin Log Time
DLAB .        09-Dec-2006                :Begin Log Date
RUN  .        1                          :Run Number
BLI  .M       1445.00000                 :Bottom Log Interval
TLI  .M        500.00000                 :Top Log Interval
WITN .        Sven                       :Witness's Name
ENGI .        Hatim/Harsh/Sidy           :Engineer's Name
LUL  .        Zone 2                     :Logging Unit Location
LUN  .        OLU-KC-0103                :Logging Unit Number
RR5  .        No Barite and Potassium in mud :Remark Line 5
RR2  .        ARC6 Resistivity is environmentally corrected for mud resistivity and bit size. :Remark Line 2
RR1  .        GR is corrected for bit size, tool size and mud weight               :Remark Line 1
PDAT .        Lowest Astronomical Tide   :Permanent Datum
EPD  .M          0.00000                 :Elevation of Permanent Datum
DMF  .        Driller's Depth            :Drilling Measured From
LMF  .        Rotary table               :Log Measured From
APD  .M         25.60000                 :Above Permanent Datum
EDF  .M         25.60000                 :Elevation of Derrick Floor
EGL  .M       -80.360000                 :Elevation of Ground Level
EKB  .M         25.60000                 :Elevation of Kelly Bushing
TDL  .M       1445.00000                 :Total Depth - Logger
TDD  .M       1445.00000                 :Total Depth - Driller
MHD  .DEG       2.03                     :Maximum Hole Deviation
AMD  .DEG     181.420000                 :Azimuth of Maximum Hole Deviation
BS   .IN        17.50                    :Bit Size
BSDT .M       500.00000                  :Bit Size Depth To
BSDF .M       1445.00000                 :Bit Size Depth From
CWEI .LB/M     436.00000                 :Casing Weight
CSIZ .IN        20.0000                  :Current Casing Size
CASG .         P-110                     :Casing Grade
CADT .        500.000                    :Casing Depth To
CDF  .        102.5000                   :Casing Depth From
CBLO .M       500.0000                   :Casing Bottom Logger
CBDR .M       500.0000                   :Casing Bottom Driller
#-----------------------------------------------------------------------------
~CURVE INFORMATION
#MNEM.UNIT   API CODE                                  DESCRIPTION
#---- -----  --------                                  -----------------------
DEPT .M                                                :DEPTH (BOREHOLE) {F10.4}
ROP5_RM.M/HR                                           :Rate of Penetration, Averaged over Last 5ft {F13.4}
TAB_ARC_RES.HR                                         :ARC Resistivity Time After Bit {F13.4}
GR_ARC.GAPI                                            :ARC Gamma Ray {F13.4}
A16H .OHMM                                             :ARC Attenuation Resistivity 16-in. at 2 MHz {F13.4}
A22H .OHMM                                             :ARC Attenuation Resistivity 22-in. at 2 MHz {F13.4}
A28H .OHMM                                             :ARC Attenuation Resistivity 28-in. at 2 MHz {F13.4}
A34H .OHMM                                             :ARC Attenuation Resistivity 34-in. at 2 MHz {F13.4}
A40H .OHMM                                             :ARC Attenuation Resistivity 40-in. at 2 MHz {F13.4}
A16L .OHMM                                             :ARC Attenuation Resistivity 16-in. at 400 KHz {F13.4}
A22L .OHMM                                             :ARC Attenuation Resistivity 22-in. at 400 KHz {F13.4}
A28L .OHMM                                             :ARC Attenuation Resistivity 28-in. at 400 KHz {F13.4}
A34L .OHMM                                             :ARC Attenuation Resistivity 34-in. at 400 KHz {F13.4}
A40L .OHMM                                             :ARC Attenuation Resistivity 40-in. at 400 KHz {F13.4}
P16H .OHMM                                             :ARC Phase-Shift Resistivity 16-in. at 2 MHz {F13.4}
P22H .OHMM                                             :ARC Phase-Shift Resistivity 22-in. at 2 MHz {F13.4}
P28H .OHMM                                             :ARC Phase-Shift Resistivity 28-in. at 2 MHz {F13.4}
P34H .OHMM                                             :ARC Phase-Shift Resistivity 34-in. at 2 MHz {F13.4}
P40H .OHMM                                             :ARC Phase-Shift Resistivity 40-in. at 2 MHz {F13.4}
P16L .OHMM                                             :ARC Phase-Shift Resistivity 16-in. at 400 KHz {F13.4}
P22L .OHMM                                             :ARC Phase-Shift Resistivity 22-in. at 400 KHz {F13.4}
P28L .OHMM                                             :ARC Phase-Shift Resistivity 28-in. at 400 KHz {F13.4}
P34L .OHMM                                             :ARC Phase-Shift Resistivity 34-in. at 400 KHz {F13.4}
P40L .OHMM                                             :ARC Phase-Shift Resistivity 40-in. at 400 KHz {F13.4}
ATMP .DEGC                                             :ARC Annular Temperature {F13.4}
APRS_ARC.PSI                                           :ARC Annular Pressure {F13.4}
ECD_ARC.LB/G                                           :Equivalent Circulating Density {F13.4}
#-----------------------------------------------------------------------------
# 
#     DEPT      ROP5_RM    TAB_ARC_RES     GR_ARC        A16H         A22H         A28H         A34H         A40H         A16L         A22L         A28L         A34L         A40L         P16H         P22H         P28H         P34H         P40H         P16L         P22L         P28L         P34L         P40L         ATMP       APRS_ARC     ECD_ARC
#
~A  
# ...
 1053.6936      47.8522       0.7417     117.6938       0.8448       0.8758       0.8874       0.8745       0.8554       0.8879       0.9020       0.9094       0.9095       0.9064       0.8962       0.8647       0.8387       0.8108       0.7777       0.9142       0.9000       0.8912       0.8859       0.8797      70.0000    1927.0008      10.7536
 1053.8460      48.0962       0.7417     115.7679       0.8511       0.8753       0.8853       0.8633       0.8248       0.8812       0.9019       0.9135       0.9128       0.9063       0.8914       0.8668       0.8446       0.8055       0.7518       0.9148       0.8981       0.8908       0.8914       0.8916      70.0000    1926.0008      10.7464
 1053.9984      48.1560       0.7389     116.9497       0.7810       0.8035       0.8393       0.8840       0.9228       0.8676       0.8932       0.9079       0.9127       0.9142       0.9422       0.8877       0.8519       0.8414       0.8407       0.9152       0.9042       0.8942       0.8896       0.8897      70.0000    1926.0008      10.7449
 1054.1508      47.8191       0.7389     119.7071       0.8066       0.8354       0.8701       0.9009       0.9199       0.8720       0.8868       0.8954       0.8977       0.8976       0.9184       0.8790       0.8522       0.8400       0.8316       0.9117       0.9060       0.8993       0.8896       0.8784      70.0000    1925.0009      10.7378
 1054.3032      46.7063       0.7417     125.1344       0.7690       0.8029       0.8478       0.8930       0.9257       0.8621       0.8781       0.8927       0.8990       0.8968       0.9720       0.9134       0.8743       0.8558       0.8420       0.9381       0.9173       0.9017       0.8916       0.8830      70.0000    1926.0008      10.7418
 1054.4556      46.8210       0.7417     123.5150       0.7663       0.7854       0.8251       0.8787       0.9242       0.8676       0.8790       0.8895       0.8961       0.8982       0.9812       0.9145       0.8691       0.8537       0.8516       0.9299       0.9123       0.8997       0.8918       0.8847      70.0000    1926.0008      10.7402
 1054.6080      46.9205       0.7389     123.5150       0.8536       0.8670       0.8668       0.8388       0.7982       0.8608       0.8849       0.9024       0.9042       0.8943       0.9045       0.8713       0.8383       0.7847       0.7176       0.9173       0.8964       0.8826       0.8749       0.8676      70.0000    1926.0008      10.7386
 1054.7604      46.1284       0.7389     117.0810       0.7916       0.8310       0.8671       0.8801       0.8719       0.8621       0.8786       0.8962       0.9049       0.9021       0.9263       0.8794       0.8453       0.8175       0.7866       0.9181       0.8959       0.8813       0.8724       0.8633      70.0000    1926.0008      10.7371
 1054.9128      45.9075       0.7417     118.2628       0.8223       0.8505       0.8763       0.8848       0.8775       0.8635       0.8834       0.8982       0.9005       0.8931       0.9112       0.8742       0.8483       0.8255       0.7969       0.9157       0.8907       0.8793       0.8768       0.8718      70.0000    1928.0009      10.7467
 1055.0652      44.8852       0.7500     116.8184       0.8528       0.8091       0.7884       0.7869       0.7867       0.8802       0.8943       0.8994       0.8904       0.8750       0.9022       0.8599       0.8193       0.7772       0.7350       0.8962       0.8837       0.8787       0.8763       0.8701      70.0000    1927.0008      10.7395
 1055.2176      44.6302       0.7500     119.0068       0.8498       0.8316       0.8169       0.7946       0.7644       0.8770       0.8988       0.9133       0.9079       0.8888       0.9009       0.8632       0.8254       0.7730       0.7121       0.9007       0.8838       0.8770       0.8760       0.8716      70.0000    1928.0009      10.7436
 1055.3700      44.6304       0.7472     119.2694       0.8276       0.7681       0.7542       0.8025       0.8805       0.8926       0.8962       0.8994       0.9002       0.8988       0.9359       0.8810       0.8389       0.8199       0.8140       0.9060       0.8965       0.8914       0.8854       0.8748      70.0000    1928.0009      10.7420
 1055.5224      44.4863       0.7500     122.7709       0.8884       0.8254       0.7929       0.8246       0.9020       0.9000       0.9086       0.9133       0.9176       0.9234       0.9337       0.8891       0.8469       0.8223       0.8139       0.9308       0.9223       0.9094       0.8961       0.8866      70.0000    1929.0009      10.7461
 1055.6748      43.4875       0.7500     127.2791       0.8840       0.8509       0.8266       0.8392       0.8834       0.9036       0.9230       0.9262       0.9202       0.9166       0.9554       0.9100       0.8649       0.8282       0.8012       0.9416       0.9321       0.9191       0.9076       0.9014      70.0000    1929.0009      10.7446
 1055.8272      43.2644       0.7472     128.1982       0.9236       0.9019       0.8563       0.8271       0.8345       0.9162       0.9352       0.9392       0.9301       0.9197       0.9803       0.9484       0.9066       0.8597       0.8190       0.9798       0.9646       0.9459       0.9352       0.9360      70.0000    1930.0008      10.7485
 1055.9796      43.4536       0.7472     125.5721       0.9423       0.8762       0.8303       0.8374       0.8855       0.9351       0.9394       0.9336       0.9244       0.9198       1.0766       1.0484       1.0031       0.9601       0.9365       1.0201       1.0088       0.9957       0.9871       0.9856      70.0000    1929.0009      10.7414
 1056.1320      42.5052       0.7417     121.3265       0.9548       0.9219       0.8913       0.8938       0.9290       0.9518       0.9572       0.9550       0.9451       0.9345       1.1589       1.1257       1.0895       1.0594       1.0386       1.0645       1.0464       1.0299       1.0151       1.0016      70.0000    1930.0008      10.7454
 1056.2844      37.5658       0.7389     116.7746       0.9752       0.9360       0.9184       0.9369       0.9747       0.9719       0.9700       0.9621       0.9508       0.9420       1.2184       1.1549       1.1155       1.1003       1.0887       1.0931       1.0562       1.0376       1.0278       1.0125      70.0000    1929.0009      10.7383
 1056.4368      35.9164       0.7417     112.2227       1.0078       0.9259       0.8933       0.8951       0.8947       0.9755       0.9645       0.9629       0.9564       0.9403       1.0686       1.0130       0.9613       0.9080       0.8535       1.0471       1.0028       0.9827       0.9751       0.9596      70.0000    1930.0008      10.7423
 1056.5892      35.8735       0.7389     110.7783       0.9663       0.8840       0.8559       0.8440       0.8088       0.9590       0.9545       0.9549       0.9439       0.9205       1.0100       0.9622       0.9083       0.8457       0.7847       1.0067       0.9744       0.9596       0.9522       0.9378      70.0000    1930.0008      10.7407
 1056.7416      36.0540       0.7389     113.5357       0.9082       0.8376       0.8182       0.8421       0.8685       0.9490       0.9455       0.9434       0.9374       0.9275       0.9700       0.9339       0.8880       0.8406       0.8023       0.9730       0.9577       0.9523       0.9456       0.9294      70.0000    1930.0008      10.7392
 1056.8940      35.6241       0.7417     118.6567       0.8039       0.8524       0.9066       0.9390       0.9414       0.9176       0.9367       0.9501       0.9541       0.9519       1.0041       0.9501       0.9125       0.8953       0.8848       0.9852       0.9660       0.9541       0.9449       0.9327      70.0000    1931.0008      10.7433
 1057.0464      35.4104       0.7389     119.4007       0.9189       0.9168       0.8897       0.8478       0.8151       0.9264       0.9519       0.9643       0.9585       0.9447       0.9443       0.9229       0.8910       0.8480       0.8060       0.9652       0.9512       0.9482       0.9488       0.9433      70.0000    1931.0008      10.7416
