~VERSION INFORMATION
VERS.           2.0   :CWLS Log ASCII Standard - VERSION 2.0
WRAP.           NO    :One Line per depth step
PROD.  Company   :LAS Producer
PROG.  DLIS to ASCII 12C0-302                          :LAS Program name and version
CREA.        2006/12/12 13:31                          :LAS Creation date {YYYY/MM/DD hh:mm}
SOURCE.     KGIII6-B1_17in_RIL-DLIS_RM_500-1445m.DLIS  :DLIS File Name
FILE-ID.     Run_1                                     :File Identification Number
#--------------------------------------------------
~WELL INFORMATION
#MNEM.UNIT      DATA             DESCRIPTION
#---- ------ --------------   -----------------------------
STRT .M       499.8720       :START DEPTH     
STOP .M      1445.2092       :STOP DEPTH     
STEP .M         0.1524       :STEP     
NULL .          -999.25      :NULL VALUE
COMP .        Company:COMPANY
WELL .        W2:WELL
FLD  .        Block                  :FIELD
LOC  .        Offshore                                 :LOCATION
CNTY .        Actinia                                  :COUNTY
STAT .        State                                    :STATE
CTRY .                                                 :COUNTRY
API  .        06INM0159                                :Service Order NUMBER
UWI  .                                                 :UNIQUE WELL ID
DATE .        09-Dec-2006                              :LOG DATE {DD-MMM-YYYY}
SRVC .        Company                             :SERVICE COMPANY
LATI .DEG     N 16.2763                                :LATITUDE
LONG .DEG     E 82.0962                                :LONGITUDE
GDAT .                                                 :GeoDetic Datum
SECT .        17.5 in.                                 :Section
#-----------------------------------------------------------------------------
~PARAMETER INFORMATION
#MNEM.UNIT    VALUE                      DESCRIPTION
#---- -----   --------------------       ------------------------
TN1 .        PowerPulse                  :Tool Number 1
TN2 .        ARC                         :Tool Number 2
OS3  .          N/A                      :Other Services Line 3
OS2  .          InterACT                 :Other Services Line 2
OS1  .          Directional Surveys      :Other Services Line 1
MST  .DEGC      66.00000                 :Mud Sample Temperature
BHT  .DEGC      81.00000                 :Bottom Hole Temperature
RMS.OHMM      1000.00000                 :Resistivity of Mud Sample (RM)
MST.DEGC        66.00000                 :Mud Sample temperature (RM)
MW.LB/G         11.60000                 :Mud Weight (RM)
SHT.DEGC        25.00000                 :Surface Hole Temperature (RM)
BSAL .PPM     75900.00000                :Mud Salinity
MRT  .DEGC      81.00000                 :Maximum Recorded Temperature
RMB  .OHMM    1000.00000                 :Resistivity of Mud - BHT
MCST .DEGC      66.00000                 :Mud Cake Sample Temperature
RMCS .OHMM    1000.00000                 :Resistivity of Mud Cake Sample
MFST .DEGC      66.00000                 :Mud Filtrate Sample Temperature
RMFS .OHMM    1000.00000                 :Resistivity of Mud Filtrate Sample
RMS  .OHMM    1000.00000                 :Resistivity of Mud Sample
MSS  .        Shakers                    :Mud Sample Source
MFSS  .       Shakers                    :Mud Filtrate Sample Source
MCSS  .       Shakers                    :Mud Cake Sample Source
TCS  .         20 10                     :End Log Time
DCS  .         11-Dec-2006               :End Log Date
DFT  .        SOBM                       :Drilling Fluid Type
DFPH .           N/A                     :Drilling Fluid PH
DFV  .S       80.00000                   :Drilling Fluid Viscosity
DFD  .LB/G    10.500000                  :Drilling Fluid Density
DOWR .        70/30                      :Oil/Water Ratio
DFTS .        19.00                      :Drilling Fluid Total Solids
DHGS .        242.31                     :Drilling Fluid High Gravity Solids
TLAB .        16 00                      :Begin Log Time
DLAB .        09-Dec-2006                :Begin Log Date
RUN  .        1                          :Run Number
BLI  .M       1445.00000                 :Bottom Log Interval
TLI  .M        500.00000                 :Top Log Interval
WITN .        Sven                       :Witness's Name
ENGI .        Hatim/Harsh/Sidy           :Engineer's Name
LUL  .        Zone 2                     :Logging Unit Location
LUN  .        OLU-KC-0103                :Logging Unit Number
RR5  .        No Barite and Potassium in mud :Remark Line 5
RR2  .        ARC6 Resistivity is environmentally corrected for mud resistivity and bit size. :Remark Line 2
RR1  .        GR is corrected for bit size, tool size and mud weight               :Remark Line 1
PDAT .        Lowest Astronomical Tide   :Permanent Datum
EPD  .M          0.00000                 :Elevation of Permanent Datum
DMF  .        Driller's Depth            :Drilling Measured From
LMF  .        Rotary table               :Log Measured From
APD  .M         25.60000                 :Above Permanent Datum
EDF  .M         25.60000                 :Elevation of Derrick Floor
EGL  .M       -80.360000                 :Elevation of Ground Level
EKB  .M         25.60000                 :Elevation of Kelly Bushing
TDL  .M       1445.00000                 :Total Depth - Logger
TDD  .M       1445.00000                 :Total Depth - Driller
MHD  .DEG       2.03                     :Maximum Hole Deviation
AMD  .DEG     181.420000                 :Azimuth of Maximum Hole Deviation
BS   .IN        17.50                    :Bit Size
BSDT .M       500.00000                  :Bit Size Depth To
BSDF .M       1445.00000                 :Bit Size Depth From
CWEI .LB/M     436.00000                 :Casing Weight
CSIZ .IN        20.0000                  :Current Casing Size
CASG .         P-110                     :Casing Grade
CADT .        500.000                    :Casing Depth To
CDF  .        102.5000                   :Casing Depth From
CBLO .M       500.0000                   :Casing Bottom Logger
CBDR .M       500.0000                   :Casing Bottom Driller
#-----------------------------------------------------------------------------
~CURVE INFORMATION
#MNEM.UNIT   API CODE                                  DESCRIPTION
#---- -----  --------                                  -----------------------
DEPT .M                                                :DEPTH (BOREHOLE) {F10.4}
ROP5_RM.M/HR                                           :Rate of Penetration, Averaged over Last 5ft {F13.4}
TAB_ARC_RES.HR                                         :ARC Resistivity Time After Bit {F13.4}
GR_ARC.GAPI                                            :ARC Gamma Ray {F13.4}
A16H .OHMM                                             :ARC Attenuation Resistivity 16-in. at 2 MHz {F13.4}
A22H .OHMM                                             :ARC Attenuation Resistivity 22-in. at 2 MHz {F13.4}
A28H .OHMM                                             :ARC Attenuation Resistivity 28-in. at 2 MHz {F13.4}
A34H .OHMM                                             :ARC Attenuation Resistivity 34-in. at 2 MHz {F13.4}
A40H .OHMM                                             :ARC Attenuation Resistivity 40-in. at 2 MHz {F13.4}
A16L .OHMM                                             :ARC Attenuation Resistivity 16-in. at 400 KHz {F13.4}
A22L .OHMM                                             :ARC Attenuation Resistivity 22-in. at 400 KHz {F13.4}
A28L .OHMM                                             :ARC Attenuation Resistivity 28-in. at 400 KHz {F13.4}
A34L .OHMM                                             :ARC Attenuation Resistivity 34-in. at 400 KHz {F13.4}
A40L .OHMM                                             :ARC Attenuation Resistivity 40-in. at 400 KHz {F13.4}
P16H .OHMM                                             :ARC Phase-Shift Resistivity 16-in. at 2 MHz {F13.4}
P22H .OHMM                                             :ARC Phase-Shift Resistivity 22-in. at 2 MHz {F13.4}
P28H .OHMM                                             :ARC Phase-Shift Resistivity 28-in. at 2 MHz {F13.4}
P34H .OHMM                                             :ARC Phase-Shift Resistivity 34-in. at 2 MHz {F13.4}
P40H .OHMM                                             :ARC Phase-Shift Resistivity 40-in. at 2 MHz {F13.4}
P16L .OHMM                                             :ARC Phase-Shift Resistivity 16-in. at 400 KHz {F13.4}
P22L .OHMM                                             :ARC Phase-Shift Resistivity 22-in. at 400 KHz {F13.4}
P28L .OHMM                                             :ARC Phase-Shift Resistivity 28-in. at 400 KHz {F13.4}
P34L .OHMM                                             :ARC Phase-Shift Resistivity 34-in. at 400 KHz {F13.4}
P40L .OHMM                                             :ARC Phase-Shift Resistivity 40-in. at 400 KHz {F13.4}
ATMP .DEGC                                             :ARC Annular Temperature {F13.4}
APRS_ARC.PSI                                           :ARC Annular Pressure {F13.4}
ECD_ARC.LB/G                                           :Equivalent Circulating Density {F13.4}
#-----------------------------------------------------------------------------
# 
#     DEPT      ROP5_RM    TAB_ARC_RES     GR_ARC        A16H         A22H         A28H         A34H         A40H         A16L         A22L         A28L         A34L         A40L         P16H         P22H         P28H         P34H         P40H         P16L         P22L         P28L         P34L         P40L         ATMP       APRS_ARC     ECD_ARC
#
~A  
# ...
 1116.7872      39.1133       0.6889     119.4007       0.6741       0.6468       0.6402       0.6590       0.6858       0.6805       0.6932       0.7003       0.6988       0.6930       0.7068       0.6695       0.6351       0.6026       0.5717       0.7039       0.6916       0.6859       0.6843       0.6809      71.0000    2043.0010      10.7558
 1116.9396      40.3443       0.6889     117.5187       0.6503       0.6597       0.6737       0.6834       0.6839       0.6737       0.6859       0.6974       0.7062       0.7101       0.7022       0.6731       0.6520       0.6293       0.5996       0.7103       0.6915       0.6820       0.6798       0.6769      71.0000    2043.0010      10.7544
 1117.0920      41.8052       0.6889     116.9497       0.6384       0.6561       0.6740       0.6830       0.6827       0.6709       0.6885       0.7013       0.7051       0.7015       0.7057       0.6726       0.6516       0.6329       0.6066       0.7087       0.6877       0.6773       0.6748       0.6708      71.0000    2044.0009      10.7582
 1117.2444      42.0802       0.6889     117.2561       0.6337       0.6472       0.6630       0.6796       0.6939       0.6680       0.6826       0.6937       0.6991       0.7007       0.7071       0.6684       0.6446       0.6352       0.6275       0.7015       0.6892       0.6810       0.6752       0.6685      71.0000    2045.0009      10.7620
 1117.3968      42.7922       0.6889     116.0743       0.6332       0.6255       0.6348       0.6641       0.6977       0.6747       0.6822       0.6895       0.6961       0.7011       0.7045       0.6635       0.6334       0.6234       0.6243       0.6954       0.6871       0.6820       0.6773       0.6702      71.0000    2045.0009      10.7605
 1117.5492      43.7831       0.6917     113.0105       0.6625       0.6573       0.6504       0.6548       0.6722       0.6805       0.6917       0.6979       0.6975       0.6942       0.7020       0.6676       0.6341       0.6025       0.5737       0.6989       0.6871       0.6808       0.6788       0.6764      71.0000    2045.0009      10.7590
 1117.7016      44.9252       0.6917     113.1418       0.6698       0.6601       0.6439       0.6442       0.6677       0.6777       0.6914       0.7016       0.7039       0.6995       0.7114       0.6752       0.6344       0.5991       0.5744       0.7008       0.6922       0.6874       0.6850       0.6817      71.0000    2045.0009      10.7576
 1117.8540      46.9352       0.6944     113.5795       0.6830       0.6490       0.6278       0.6408       0.6795       0.6902       0.7061       0.7180       0.7171       0.7084       0.7265       0.6851       0.6436       0.6158       0.6020       0.7133       0.7018       0.6971       0.6959       0.6920      71.0000    2046.0009      10.7614
 1118.0064      48.6959       0.6944     117.6500       0.6853       0.6757       0.6696       0.6701       0.6743       0.6915       0.7081       0.7227       0.7267       0.7224       0.7223       0.6900       0.6605       0.6235       0.5799       0.7190       0.7043       0.7003       0.7013       0.6975      71.0000    2047.0008      10.7651
 1118.1588      49.0137       0.6972     120.5825       0.6623       0.6759       0.6976       0.7186       0.7270       0.7055       0.7155       0.7277       0.7355       0.7358       0.7298       0.6947       0.6745       0.6551       0.6243       0.7381       0.7193       0.7126       0.7116       0.7056      71.0000    2047.0008      10.7636
 1118.3112      48.5172       0.6944     123.2086       0.6599       0.6801       0.7044       0.7281       0.7438       0.7207       0.7342       0.7452       0.7526       0.7564       0.7392       0.7010       0.6759       0.6673       0.6627       0.7412       0.7264       0.7197       0.7159       0.7080      71.0000    2047.0008      10.7622
 1118.4636      46.4585       0.6972     127.4542       0.7246       0.6899       0.6773       0.6982       0.7419       0.7499       0.7697       0.7785       0.7766       0.7714       0.7555       0.7155       0.6831       0.6650       0.6549       0.7520       0.7454       0.7415       0.7397       0.7377      71.0000    2048.0009      10.7660
 1118.6160      45.9919       0.6972     128.4609       0.7573       0.7766       0.7703       0.7554       0.7542       0.7825       0.8095       0.8213       0.8195       0.8148       0.7946       0.7632       0.7343       0.7026       0.6675       0.8054       0.7990       0.7914       0.7888       0.7926      71.0000    2048.0009      10.7645
 1118.7684      44.7571       0.6972     131.5247       0.7566       0.7578       0.7718       0.8152       0.8776       0.8077       0.8240       0.8272       0.8197       0.8114       0.8599       0.8248       0.7952       0.7866       0.7947       0.8355       0.8356       0.8332       0.8300       0.8283      71.0000    2048.0009      10.7630
 1118.9208      43.4062       0.6972     129.3362       0.8626       0.8444       0.8349       0.8528       0.8915       0.8576       0.8626       0.8621       0.8560       0.8490       0.9644       0.9334       0.9083       0.9034       0.9138       0.9201       0.9095       0.9032       0.9010       0.8993      71.0000    2048.0009      10.7616
 1119.0732      41.3069       0.7028     126.7101       0.8773       0.8702       0.8858       0.9129       0.9292       0.9016       0.8931       0.8907       0.8850       0.8730       0.9772       0.9292       0.9003       0.8922       0.8883       0.9489       0.9236       0.9131       0.9079       0.8957      71.0000    2049.0009      10.7654
 1119.2256      41.2291       0.7000     125.2657       0.9200       0.8673       0.8538       0.8769       0.9039       0.9029       0.8917       0.8913       0.8900       0.8810       0.9359       0.8975       0.8667       0.8443       0.8243       0.9441       0.9233       0.9167       0.9108       0.8937      71.0000    2049.0009      10.7638
 1119.3780      40.1883       0.7028     124.6968       0.8876       0.8313       0.8226       0.8658       0.9228       0.9105       0.9070       0.9103       0.9060       0.8904       0.9153       0.8791       0.8492       0.8355       0.8332       0.9258       0.9067       0.8979       0.8905       0.8759      71.0000    2049.0009      10.7624
 1119.5304      39.0378       0.7056     122.5083       0.8947       0.8518       0.8239       0.8266       0.8491       0.9101       0.9078       0.9124       0.9103       0.8971       0.8985       0.8774       0.8486       0.8196       0.7981       0.9191       0.9065       0.9013       0.8954       0.8825      71.0000    2049.0009      10.7610
 1119.6828      38.7976       0.7028     120.6263       0.8827       0.8677       0.8479       0.8272       0.8114       0.8980       0.9096       0.9146       0.9037       0.8834       0.8925       0.8722       0.8442       0.8079       0.7722       0.9079       0.9001       0.8977       0.8938       0.8835      71.0000    2050.0009      10.7648
 1119.8352      38.2712       0.7056     121.0640       0.8367       0.8300       0.8406       0.8704       0.9027       0.8908       0.9056       0.9153       0.9145       0.9068       0.9000       0.8641       0.8382       0.8288       0.8271       0.8974       0.8920       0.8884       0.8860       0.8833      71.0000    2050.0009      10.7632
 1119.9876      38.6310       0.7083     122.2457       0.8702       0.8633       0.8577       0.8648       0.8837       0.8903       0.9078       0.9150       0.9099       0.9000       0.8749       0.8498       0.8283       0.8163       0.8104       0.8895       0.8846       0.8835       0.8833       0.8806      71.0000    2050.0009      10.7618
 1120.1400      38.5401       0.7056     121.3704       0.8553       0.8624       0.8534       0.8389       0.8334       0.8824       0.9024       0.9109       0.9060       0.8962       0.8821       0.8586       0.8318       0.7984       0.7630       0.8962       0.8876       0.8837       0.8843       0.8855      71.0000    2050.0009      10.7603
