~VERSION INFORMATION
VERS.           2.0   :CWLS Log ASCII Standard - VERSION 2.0
WRAP.           NO    :One Line per depth step
PROD.  Company   :LAS Producer
PROG.  DLIS to ASCII 12C0-302                          :LAS Program name and version
CREA.        2006/12/12 13:31                          :LAS Creation date {YYYY/MM/DD hh:mm}
SOURCE.     KGIII6-B1_17in_RIL-DLIS_RM_500-1445m.DLIS  :DLIS File Name
FILE-ID.     Run_1                                     :File Identification Number
#--------------------------------------------------
~WELL INFORMATION
#MNEM.UNIT      DATA             DESCRIPTION
#---- ------ --------------   -----------------------------
STRT .M       499.8720       :START DEPTH     
STOP .M      1445.2092       :STOP DEPTH     
STEP .M         0.1524       :STEP     
NULL .          -999.25      :NULL VALUE
COMP .        Company:COMPANY
WELL .        W2:WELL
FLD  .        Block                  :FIELD
LOC  .        Offshore                                 :LOCATION
CNTY .        Actinia                                  :COUNTY
STAT .        State                                    :STATE
CTRY .                                                 :COUNTRY
API  .        06INM0159                                :Service Order NUMBER
UWI  .                                                 :UNIQUE WELL ID
DATE .        09-Dec-2006                              :LOG DATE {DD-MMM-YYYY}
SRVC .        Company                             :SERVICE COMPANY
LATI .DEG     N 16.2763                                :LATITUDE
LONG .DEG     E 82.0962                                :LONGITUDE
GDAT .                                                 :GeoDetic Datum
SECT .        17.5 in.                                 :Section
#-----------------------------------------------------------------------------
~PARAMETER INFORMATION
#MNEM.UNIT    VALUE                      DESCRIPTION
#---- -----   --------------------       ------------------------
TN1 .        PowerPulse                  :Tool Number 1
TN2 .        ARC                         :Tool Number 2
OS3  .          N/A                      :Other Services Line 3
OS2  .          InterACT                 :Other Services Line 2
OS1  .          Directional Surveys      :Other Services Line 1
MST  .DEGC      66.00000                 :Mud Sample Temperature
BHT  .DEGC      81.00000                 :Bottom Hole Temperature
RMS.OHMM      1000.00000                 :Resistivity of Mud Sample (RM)
MST.DEGC        66.00000                 :Mud Sample temperature (RM)
MW.LB/G         11.60000                 :Mud Weight (RM)
SHT.DEGC        25.00000                 :Surface Hole Temperature (RM)
BSAL .PPM     75900.00000                :Mud Salinity
MRT  .DEGC      81.00000                 :Maximum Recorded Temperature
RMB  .OHMM    1000.00000                 :Resistivity of Mud - BHT
MCST .DEGC      66.00000                 :Mud Cake Sample Temperature
RMCS .OHMM    1000.00000                 :Resistivity of Mud Cake Sample
MFST .DEGC      66.00000                 :Mud Filtrate Sample Temperature
RMFS .OHMM    1000.00000                 :Resistivity of Mud Filtrate Sample
RMS  .OHMM    1000.00000                 :Resistivity of Mud Sample
MSS  .        Shakers                    :Mud Sample Source
MFSS  .       Shakers                    :Mud Filtrate Sample Source
MCSS  .       Shakers                    :Mud Cake Sample Source
TCS  .         20 10                     :End Log Time
DCS  .         11-Dec-2006               :End Log Date
DFT  .        SOBM                       :Drilling Fluid Type
DFPH .           N/A                     :Drilling Fluid PH
DFV  .S       80.00000                   :Drilling Fluid Viscosity
DFD  .LB/G    10.500000                  :Drilling Fluid Density
DOWR .        70/30                      :Oil/Water Ratio
DFTS .        19.00                      :Drilling Fluid Total Solids
DHGS .        242.31                     :Drilling Fluid High Gravity Solids
TLAB .        16 00                      :Begin Log Time
DLAB .        09-Dec-2006                :Begin Log Date
RUN  .        1                          :Run Number
BLI  .M       1445.00000                 :Bottom Log Interval
TLI  .M        500.00000                 :Top Log Interval
WITN .        Sven                       :Witness's Name
ENGI .        Hatim/Harsh/Sidy           :Engineer's Name
LUL  .        Zone 2                     :Logging Unit Location
LUN  .        OLU-KC-0103                :Logging Unit Number
RR5  .        No Barite and Potassium in mud :Remark Line 5
RR2  .        ARC6 Resistivity is environmentally corrected for mud resistivity and bit size. :Remark Line 2
RR1  .        GR is corrected for bit size, tool size and mud weight               :Remark Line 1
PDAT .        Lowest Astronomical Tide   :Permanent Datum
EPD  .M          0.00000                 :Elevation of Permanent Datum
DMF  .        Driller's Depth            :Drilling Measured From
LMF  .        Rotary table               :Log Measured From
APD  .M         25.60000                 :Above Permanent Datum
EDF  .M         25.60000                 :Elevation of Derrick Floor
EGL  .M       -80.360000                 :Elevation of Ground Level
EKB  .M         25.60000                 :Elevation of Kelly Bushing
TDL  .M       1445.00000                 :Total Depth - Logger
TDD  .M       1445.00000                 :Total Depth - Driller
MHD  .DEG       2.03                     :Maximum Hole Deviation
AMD  .DEG     181.420000                 :Azimuth of Maximum Hole Deviation
BS   .IN        17.50                    :Bit Size
BSDT .M       500.00000                  :Bit Size Depth To
BSDF .M       1445.00000                 :Bit Size Depth From
CWEI .LB/M     436.00000                 :Casing Weight
CSIZ .IN        20.0000                  :Current Casing Size
CASG .         P-110                     :Casing Grade
CADT .        500.000                    :Casing Depth To
CDF  .        102.5000                   :Casing Depth From
CBLO .M       500.0000                   :Casing Bottom Logger
CBDR .M       500.0000                   :Casing Bottom Driller
#-----------------------------------------------------------------------------
~CURVE INFORMATION
#MNEM.UNIT   API CODE                                  DESCRIPTION
#---- -----  --------                                  -----------------------
DEPT .M                                                :DEPTH (BOREHOLE) {F10.4}
ROP5_RM.M/HR                                           :Rate of Penetration, Averaged over Last 5ft {F13.4}
TAB_ARC_RES.HR                                         :ARC Resistivity Time After Bit {F13.4}
GR_ARC.GAPI                                            :ARC Gamma Ray {F13.4}
A16H .OHMM                                             :ARC Attenuation Resistivity 16-in. at 2 MHz {F13.4}
A22H .OHMM                                             :ARC Attenuation Resistivity 22-in. at 2 MHz {F13.4}
A28H .OHMM                                             :ARC Attenuation Resistivity 28-in. at 2 MHz {F13.4}
A34H .OHMM                                             :ARC Attenuation Resistivity 34-in. at 2 MHz {F13.4}
A40H .OHMM                                             :ARC Attenuation Resistivity 40-in. at 2 MHz {F13.4}
A16L .OHMM                                             :ARC Attenuation Resistivity 16-in. at 400 KHz {F13.4}
A22L .OHMM                                             :ARC Attenuation Resistivity 22-in. at 400 KHz {F13.4}
A28L .OHMM                                             :ARC Attenuation Resistivity 28-in. at 400 KHz {F13.4}
A34L .OHMM                                             :ARC Attenuation Resistivity 34-in. at 400 KHz {F13.4}
A40L .OHMM                                             :ARC Attenuation Resistivity 40-in. at 400 KHz {F13.4}
P16H .OHMM                                             :ARC Phase-Shift Resistivity 16-in. at 2 MHz {F13.4}
P22H .OHMM                                             :ARC Phase-Shift Resistivity 22-in. at 2 MHz {F13.4}
P28H .OHMM                                             :ARC Phase-Shift Resistivity 28-in. at 2 MHz {F13.4}
P34H .OHMM                                             :ARC Phase-Shift Resistivity 34-in. at 2 MHz {F13.4}
P40H .OHMM                                             :ARC Phase-Shift Resistivity 40-in. at 2 MHz {F13.4}
P16L .OHMM                                             :ARC Phase-Shift Resistivity 16-in. at 400 KHz {F13.4}
P22L .OHMM                                             :ARC Phase-Shift Resistivity 22-in. at 400 KHz {F13.4}
P28L .OHMM                                             :ARC Phase-Shift Resistivity 28-in. at 400 KHz {F13.4}
P34L .OHMM                                             :ARC Phase-Shift Resistivity 34-in. at 400 KHz {F13.4}
P40L .OHMM                                             :ARC Phase-Shift Resistivity 40-in. at 400 KHz {F13.4}
ATMP .DEGC                                             :ARC Annular Temperature {F13.4}
APRS_ARC.PSI                                           :ARC Annular Pressure {F13.4}
ECD_ARC.LB/G                                           :Equivalent Circulating Density {F13.4}
#-----------------------------------------------------------------------------
# 
#     DEPT      ROP5_RM    TAB_ARC_RES     GR_ARC        A16H         A22H         A28H         A34H         A40H         A16L         A22L         A28L         A34L         A40L         P16H         P22H         P28H         P34H         P40H         P16L         P22L         P28L         P34L         P40L         ATMP       APRS_ARC     ECD_ARC
#
~A  
# ...
  562.9656      57.1547       0.6444     103.3815       0.9412       0.9477       0.9575       0.9685       0.9770       0.9514       0.9609       0.9673       0.9699       0.9704       1.0338       1.0052       0.9856       0.9783       0.9746       0.9999       0.9866       0.9805       0.9772       0.9708      52.0000     987.0004      10.3255
  563.1180      51.8844       0.6444     101.1931       0.9399       0.9475       0.9643       0.9742       0.9680       0.9467       0.9608       0.9713       0.9724       0.9664       0.9953       0.9617       0.9418       0.9333       0.9240       0.9952       0.9706       0.9604       0.9575       0.9497      52.0000     987.0004      10.3227
  563.2704      50.5945       0.6444      95.1968       0.9256       0.9318       0.9430       0.9468       0.9382       0.9532       0.9660       0.9762       0.9757       0.9663       0.9347       0.9023       0.8799       0.8667       0.8540       0.9507       0.9378       0.9349       0.9339       0.9261      52.0000     987.0004      10.3200
  563.4228      47.7303       0.6472      94.8029       0.8940       0.9005       0.9166       0.9332       0.9401       0.9405       0.9590       0.9644       0.9615       0.9592       0.9169       0.8904       0.8717       0.8653       0.8642       0.9310       0.9212       0.9184       0.9185       0.9153      52.0000     987.0004      10.3172
  563.5752      46.2554       0.6472      96.2473       0.8808       0.9016       0.9222       0.9335       0.9345       0.9317       0.9547       0.9668       0.9697       0.9700       0.9181       0.8962       0.8797       0.8722       0.8688       0.9295       0.9229       0.9189       0.9149       0.9088      52.0000     987.0004      10.3143
  563.7276      45.3207       0.6444     104.3882       0.8864       0.9100       0.9278       0.9341       0.9335       0.9417       0.9571       0.9665       0.9729       0.9791       0.9183       0.8952       0.8783       0.8676       0.8573       0.9279       0.9243       0.9228       0.9208       0.9163      52.0000     988.0004      10.3219
  563.8800      42.1406       0.6500     105.7013       0.9108       0.9302       0.9434       0.9488       0.9515       0.9422       0.9626       0.9740       0.9755       0.9728       0.9290       0.9095       0.8918       0.8809       0.8753       0.9402       0.9360       0.9332       0.9319       0.9309      52.0000     988.0004      10.3192
  564.0324      41.8834       0.6528     104.2569       0.9209       0.9311       0.9422       0.9546       0.9671       0.9482       0.9625       0.9733       0.9781       0.9783       0.9541       0.9313       0.9123       0.9004       0.8919       0.9608       0.9512       0.9449       0.9461       0.9518      52.0000     988.0004      10.3164
  564.1848      41.7217       0.6500     102.9876       0.9235       0.9294       0.9384       0.9548       0.9749       0.9449       0.9620       0.9683       0.9669       0.9654       0.9623       0.9368       0.9175       0.9107       0.9108       0.9627       0.9560       0.9500       0.9472       0.9469      52.0000     988.0004      10.3137
  564.3372      40.1103       0.6528     102.5062       0.9195       0.9336       0.9503       0.9635       0.9700       0.9480       0.9643       0.9726       0.9726       0.9697       0.9759       0.9503       0.9307       0.9221       0.9189       0.9747       0.9617       0.9538       0.9503       0.9472      52.0000     989.0004      10.3212
  564.4896      39.9467       0.6528     105.1323       0.9186       0.9327       0.9465       0.9564       0.9617       0.9499       0.9651       0.9740       0.9772       0.9781       0.9779       0.9501       0.9296       0.9220       0.9208       0.9726       0.9616       0.9561       0.9533       0.9486      52.0000     990.0004      10.3289
  564.6420      41.7721       0.6528     107.8897       0.9133       0.9326       0.9531       0.9667       0.9710       0.9439       0.9620       0.9720       0.9731       0.9706       0.9759       0.9466       0.9254       0.9170       0.9140       0.9741       0.9611       0.9568       0.9559       0.9507      52.0000     989.0004      10.3157
  564.7944      42.5341       0.6500     112.0040       0.9234       0.9327       0.9469       0.9621       0.9729       0.9439       0.9647       0.9745       0.9762       0.9767       0.9717       0.9442       0.9253       0.9183       0.9156       0.9697       0.9595       0.9553       0.9529       0.9469      52.0000     990.0004      10.3234
  564.9468      42.5593       0.6500     111.5663       0.9254       0.9382       0.9507       0.9594       0.9639       0.9430       0.9606       0.9687       0.9696       0.9696       0.9745       0.9516       0.9327       0.9218       0.9153       0.9771       0.9656       0.9570       0.9494       0.9408      52.0000     990.0004      10.3204
  565.0992      42.9996       0.6500     107.3207       0.9303       0.9435       0.9563       0.9653       0.9703       0.9454       0.9650       0.9728       0.9747       0.9784       0.9717       0.9463       0.9274       0.9182       0.9127       0.9742       0.9594       0.9529       0.9501       0.9441      52.0000     990.0004      10.3177
  565.2516      44.2551       0.6500     102.3749       0.9310       0.9435       0.9557       0.9584       0.9513       0.9476       0.9652       0.9765       0.9809       0.9818       0.9528       0.9277       0.9098       0.8993       0.8899       0.9661       0.9512       0.9448       0.9448       0.9437      52.0000     990.0004      10.3149
  565.4040      44.6063       0.6472     101.3682       0.9235       0.9310       0.9400       0.9492       0.9567       0.9565       0.9671       0.9737       0.9772       0.9797       0.9517       0.9258       0.9041       0.8923       0.8865       0.9610       0.9500       0.9448       0.9426       0.9382      52.0000     991.0004      10.3226
  565.5564      44.1968       0.6472     100.7992       0.9088       0.9229       0.9408       0.9566       0.9659       0.9448       0.9626       0.9695       0.9684       0.9670       0.9573       0.9330       0.9155       0.9079       0.9037       0.9560       0.9474       0.9437       0.9426       0.9402      52.0000     991.0004      10.3197
  565.7088      44.0371       0.6444     104.6946       0.9088       0.9229       0.9408       0.9566       0.9659       0.9448       0.9626       0.9695       0.9684       0.9670       0.9573       0.9330       0.9155       0.9079       0.9037       0.9560       0.9474       0.9437       0.9426       0.9402      52.0000     991.0004      10.3169
  565.8612      45.1425       0.6444     105.8326       0.8985       0.9188       0.9372       0.9447       0.9423       0.9245       0.9430       0.9517       0.9533       0.9540       0.9563       0.9287       0.9061       0.8922       0.8825       0.9531       0.9438       0.9383       0.9346       0.9294      52.0000     992.0005      10.3246
  566.0136      46.0521       0.6444     108.1524       0.9081       0.9202       0.9299       0.9343       0.9350       0.9225       0.9491       0.9645       0.9676       0.9654       0.9345       0.9107       0.8893       0.8734       0.8612       0.9458       0.9346       0.9275       0.9234       0.9188      53.0000     992.0005      10.3218
  566.1660      47.3299       0.6444     109.0715       0.9031       0.9183       0.9290       0.9251       0.9108       0.9189       0.9365       0.9508       0.9568       0.9553       0.9311       0.9131       0.8934       0.8691       0.8426       0.9471       0.9319       0.9219       0.9179       0.9157      53.0000     992.0005      10.3189
  566.3184      49.8348       0.6472     109.8156       0.8908       0.8989       0.9127       0.9170       0.9064       0.9159       0.9313       0.9433       0.9498       0.9517       0.9427       0.9151       0.8947       0.8797       0.8639       0.9395       0.9222       0.9157       0.9154       0.9118      53.0000     993.0004      10.3266
