~VERSION INFORMATION
VERS.           2.0   :CWLS Log ASCII Standard - VERSION 2.0
WRAP.           NO    :One Line per depth step
PROD.  Company   :LAS Producer
PROG.  DLIS to ASCII 12C0-302                          :LAS Program name and version
CREA.        2006/12/12 13:31                          :LAS Creation date {YYYY/MM/DD hh:mm}
SOURCE.     KGIII6-B1_17in_RIL-DLIS_RM_500-1445m.DLIS  :DLIS File Name
FILE-ID.     Run_1                                     :File Identification Number
#--------------------------------------------------
~WELL INFORMATION
#MNEM.UNIT      DATA             DESCRIPTION
#---- ------ --------------   -----------------------------
STRT .M       499.8720       :START DEPTH     
STOP .M      1445.2092       :STOP DEPTH     
STEP .M         0.1524       :STEP     
NULL .          -999.25      :NULL VALUE
COMP .        Company:COMPANY
WELL .        W2:WELL
FLD  .        Block                  :FIELD
LOC  .        Offshore                                 :LOCATION
CNTY .        Actinia                                  :COUNTY
STAT .        State                                    :STATE
CTRY .                                                 :COUNTRY
API  .        06INM0159                                :Service Order NUMBER
UWI  .                                                 :UNIQUE WELL ID
DATE .        09-Dec-2006                              :LOG DATE {DD-MMM-YYYY}
SRVC .        Company                             :SERVICE COMPANY
LATI .DEG     N 16.2763                                :LATITUDE
LONG .DEG     E 82.0962                                :LONGITUDE
GDAT .                                                 :GeoDetic Datum
SECT .        17.5 in.                                 :Section
#-----------------------------------------------------------------------------
~PARAMETER INFORMATION
#MNEM.UNIT    VALUE                      DESCRIPTION
#---- -----   --------------------       ------------------------
TN1 .        PowerPulse                  :Tool Number 1
TN2 .        ARC                         :Tool Number 2
OS3  .          N/A                      :Other Services Line 3
OS2  .          InterACT                 :Other Services Line 2
OS1  .          Directional Surveys      :Other Services Line 1
MST  .DEGC      66.00000                 :Mud Sample Temperature
BHT  .DEGC      81.00000                 :Bottom Hole Temperature
RMS.OHMM      1000.00000                 :Resistivity of Mud Sample (RM)
MST.DEGC        66.00000                 :Mud Sample temperature (RM)
MW.LB/G         11.60000                 :Mud Weight (RM)
SHT.DEGC        25.00000                 :Surface Hole Temperature (RM)
BSAL .PPM     75900.00000                :Mud Salinity
MRT  .DEGC      81.00000                 :Maximum Recorded Temperature
RMB  .OHMM    1000.00000                 :Resistivity of Mud - BHT
MCST .DEGC      66.00000                 :Mud Cake Sample Temperature
RMCS .OHMM    1000.00000                 :Resistivity of Mud Cake Sample
MFST .DEGC      66.00000                 :Mud Filtrate Sample Temperature
RMFS .OHMM    1000.00000                 :Resistivity of Mud Filtrate Sample
RMS  .OHMM    1000.00000                 :Resistivity of Mud Sample
MSS  .        Shakers                    :Mud Sample Source
MFSS  .       Shakers                    :Mud Filtrate Sample Source
MCSS  .       Shakers                    :Mud Cake Sample Source
TCS  .         20 10                     :End Log Time
DCS  .         11-Dec-2006               :End Log Date
DFT  .        SOBM                       :Drilling Fluid Type
DFPH .           N/A                     :Drilling Fluid PH
DFV  .S       80.00000                   :Drilling Fluid Viscosity
DFD  .LB/G    10.500000                  :Drilling Fluid Density
DOWR .        70/30                      :Oil/Water Ratio
DFTS .        19.00                      :Drilling Fluid Total Solids
DHGS .        242.31                     :Drilling Fluid High Gravity Solids
TLAB .        16 00                      :Begin Log Time
DLAB .        09-Dec-2006                :Begin Log Date
RUN  .        1                          :Run Number
BLI  .M       1445.00000                 :Bottom Log Interval
TLI  .M        500.00000                 :Top Log Interval
WITN .        Sven                       :Witness's Name
ENGI .        Hatim/Harsh/Sidy           :Engineer's Name
LUL  .        Zone 2                     :Logging Unit Location
LUN  .        OLU-KC-0103                :Logging Unit Number
RR5  .        No Barite and Potassium in mud :Remark Line 5
RR2  .        ARC6 Resistivity is environmentally corrected for mud resistivity and bit size. :Remark Line 2
RR1  .        GR is corrected for bit size, tool size and mud weight               :Remark Line 1
PDAT .        Lowest Astronomical Tide   :Permanent Datum
EPD  .M          0.00000                 :Elevation of Permanent Datum
DMF  .        Driller's Depth            :Drilling Measured From
LMF  .        Rotary table               :Log Measured From
APD  .M         25.60000                 :Above Permanent Datum
EDF  .M         25.60000                 :Elevation of Derrick Floor
EGL  .M       -80.360000                 :Elevation of Ground Level
EKB  .M         25.60000                 :Elevation of Kelly Bushing
TDL  .M       1445.00000                 :Total Depth - Logger
TDD  .M       1445.00000                 :Total Depth - Driller
MHD  .DEG       2.03                     :Maximum Hole Deviation
AMD  .DEG     181.420000                 :Azimuth of Maximum Hole Deviation
BS   .IN        17.50                    :Bit Size
BSDT .M       500.00000                  :Bit Size Depth To
BSDF .M       1445.00000                 :Bit Size Depth From
CWEI .LB/M     436.00000                 :Casing Weight
CSIZ .IN        20.0000                  :Current Casing Size
CASG .         P-110                     :Casing Grade
CADT .        500.000                    :Casing Depth To
CDF  .        102.5000                   :Casing Depth From
CBLO .M       500.0000                   :Casing Bottom Logger
CBDR .M       500.0000                   :Casing Bottom Driller
#-----------------------------------------------------------------------------
~CURVE INFORMATION
#MNEM.UNIT   API CODE                                  DESCRIPTION
#---- -----  --------                                  -----------------------
DEPT .M                                                :DEPTH (BOREHOLE) {F10.4}
ROP5_RM.M/HR                                           :Rate of Penetration, Averaged over Last 5ft {F13.4}
TAB_ARC_RES.HR                                         :ARC Resistivity Time After Bit {F13.4}
GR_ARC.GAPI                                            :ARC Gamma Ray {F13.4}
A16H .OHMM                                             :ARC Attenuation Resistivity 16-in. at 2 MHz {F13.4}
A22H .OHMM                                             :ARC Attenuation Resistivity 22-in. at 2 MHz {F13.4}
A28H .OHMM                                             :ARC Attenuation Resistivity 28-in. at 2 MHz {F13.4}
A34H .OHMM                                             :ARC Attenuation Resistivity 34-in. at 2 MHz {F13.4}
A40H .OHMM                                             :ARC Attenuation Resistivity 40-in. at 2 MHz {F13.4}
A16L .OHMM                                             :ARC Attenuation Resistivity 16-in. at 400 KHz {F13.4}
A22L .OHMM                                             :ARC Attenuation Resistivity 22-in. at 400 KHz {F13.4}
A28L .OHMM                                             :ARC Attenuation Resistivity 28-in. at 400 KHz {F13.4}
A34L .OHMM                                             :ARC Attenuation Resistivity 34-in. at 400 KHz {F13.4}
A40L .OHMM                                             :ARC Attenuation Resistivity 40-in. at 400 KHz {F13.4}
P16H .OHMM                                             :ARC Phase-Shift Resistivity 16-in. at 2 MHz {F13.4}
P22H .OHMM                                             :ARC Phase-Shift Resistivity 22-in. at 2 MHz {F13.4}
P28H .OHMM                                             :ARC Phase-Shift Resistivity 28-in. at 2 MHz {F13.4}
P34H .OHMM                                             :ARC Phase-Shift Resistivity 34-in. at 2 MHz {F13.4}
P40H .OHMM                                             :ARC Phase-Shift Resistivity 40-in. at 2 MHz {F13.4}
P16L .OHMM                                             :ARC Phase-Shift Resistivity 16-in. at 400 KHz {F13.4}
P22L .OHMM                                             :ARC Phase-Shift Resistivity 22-in. at 400 KHz {F13.4}
P28L .OHMM                                             :ARC Phase-Shift Resistivity 28-in. at 400 KHz {F13.4}
P34L .OHMM                                             :ARC Phase-Shift Resistivity 34-in. at 400 KHz {F13.4}
P40L .OHMM                                             :ARC Phase-Shift Resistivity 40-in. at 400 KHz {F13.4}
ATMP .DEGC                                             :ARC Annular Temperature {F13.4}
APRS_ARC.PSI                                           :ARC Annular Pressure {F13.4}
ECD_ARC.LB/G                                           :Equivalent Circulating Density {F13.4}
#-----------------------------------------------------------------------------
# 
#     DEPT      ROP5_RM    TAB_ARC_RES     GR_ARC        A16H         A22H         A28H         A34H         A40H         A16L         A22L         A28L         A34L         A40L         P16H         P22H         P28H         P34H         P40H         P16L         P22L         P28L         P34L         P40L         ATMP       APRS_ARC     ECD_ARC
#
~A  
# ...
 1239.4692      22.3196       0.8250     113.4482       0.6826       0.7008       0.7115       0.7128       0.7138       0.6995       0.7109       0.7180       0.7179       0.7135       0.7459       0.7183       0.6917       0.6627       0.6323       0.7422       0.7284       0.7211       0.7179       0.7133      72.0000    2331.0010      11.0559
 1239.6216      21.7293       0.8194     114.8925       0.6978       0.6996       0.6951       0.6895       0.6884       0.7020       0.7143       0.7217       0.7186       0.7091       0.7396       0.7124       0.6819       0.6417       0.5981       0.7393       0.7242       0.7169       0.7146       0.7106      72.0000    2331.0010      11.0545
 1239.7740      21.3125       0.8167     117.5187       0.6456       0.6621       0.6854       0.7030       0.7071       0.6984       0.7131       0.7200       0.7188       0.7151       0.7346       0.6970       0.6711       0.6522       0.6303       0.7314       0.7143       0.7057       0.7026       0.6979      72.0000    2331.0010      11.0532
 1239.9264      20.4929       0.8111     118.2190       0.6493       0.6683       0.6877       0.7053       0.7200       0.6961       0.7082       0.7150       0.7172       0.7189       0.7319       0.6948       0.6703       0.6591       0.6494       0.7275       0.7127       0.7022       0.6946       0.6868      72.0000    2331.0010      11.0518
 1240.0788      19.9315       0.8056     117.3436       0.6433       0.6648       0.6875       0.6996       0.6993       0.6928       0.7065       0.7170       0.7170       0.7102       0.7247       0.6931       0.6666       0.6415       0.6139       0.7233       0.7098       0.7018       0.6976       0.6925      72.0000    2332.0010      11.0552
 1240.2312      19.6027       0.8028     112.2664       0.6831       0.6743       0.6679       0.6787       0.7060       0.6892       0.7042       0.7133       0.7119       0.7066       0.7289       0.6957       0.6616       0.6412       0.6352       0.7205       0.7119       0.7054       0.7007       0.6962      72.0000    2333.0009      11.0586
 1240.3836      18.9861       0.7972     107.0142       0.6781       0.6800       0.6793       0.6846       0.6983       0.6879       0.6985       0.7059       0.7040       0.6973       0.7325       0.7016       0.6698       0.6478       0.6361       0.7228       0.7116       0.7046       0.7014       0.6981      72.0000    2333.0009      11.0572
 1240.5360      19.1712       0.7917     102.3747       0.6807       0.6739       0.6751       0.6879       0.7057       0.6789       0.6908       0.6977       0.6971       0.6927       0.7323       0.6995       0.6709       0.6563       0.6518       0.7223       0.7064       0.6983       0.6960       0.6925      72.0000    2334.0011      11.0605
 1240.6884      19.1858       0.7861     105.5698       0.6754       0.6651       0.6623       0.6646       0.6649       0.6794       0.6921       0.6973       0.6945       0.6895       0.7073       0.6721       0.6369       0.5976       0.5574       0.7039       0.6897       0.6822       0.6793       0.6751      72.0000    2334.0011      11.0592
 1240.8408      19.0529       0.7806     109.9467       0.6489       0.6314       0.6303       0.6488       0.6721       0.6703       0.6850       0.6953       0.6950       0.6870       0.6909       0.6539       0.6222       0.6011       0.5866       0.6912       0.6791       0.6722       0.6695       0.6663      72.0000    2334.0011      11.0579
 1240.9932      17.5851       0.7722     112.3977       0.6482       0.6523       0.6458       0.6397       0.6436       0.6681       0.6858       0.6942       0.6917       0.6858       0.7026       0.6676       0.6313       0.5941       0.5597       0.6934       0.6819       0.6766       0.6752       0.6723      72.0000    2334.0011      11.0565
 1241.1456      17.1446       0.7667     108.1522       0.6596       0.6576       0.6598       0.6694       0.6826       0.6687       0.6854       0.6955       0.6957       0.6909       0.7067       0.6715       0.6421       0.6258       0.6179       0.7011       0.6873       0.6797       0.6758       0.6704      72.0000    2335.0010      11.0598
 1241.2980      17.0749       0.7583     103.0750       0.6688       0.6525       0.6514       0.6666       0.6847       0.6836       0.6938       0.6982       0.6993       0.7010       0.7088       0.6653       0.6321       0.6130       0.5999       0.7043       0.6899       0.6805       0.6763       0.6731      72.0000    2335.0010      11.0585
 1241.4504      16.3777       0.7472     102.3747       0.6565       0.6509       0.6609       0.6786       0.6885       0.6913       0.6981       0.6988       0.6983       0.7012       0.7144       0.6766       0.6473       0.6187       0.5855       0.7097       0.6967       0.6876       0.6811       0.6740      72.0000    2335.0010      11.0572
 1241.6028      15.1025       0.7389     106.0075       0.6672       0.6406       0.6358       0.6635       0.7067       0.6931       0.7000       0.7027       0.7035       0.7064       0.7310       0.6873       0.6468       0.6251       0.6195       0.7175       0.7067       0.6986       0.6929       0.6875      72.0000    2336.0010      11.0605
 1241.7552      14.8677       0.7278     109.2026       0.6371       0.6566       0.6847       0.7163       0.7407       0.7010       0.7117       0.7132       0.7110       0.7116       0.7781       0.7323       0.6984       0.6860       0.6856       0.7462       0.7362       0.7269       0.7164       0.7045      72.0000    2337.0010      11.0639
 1241.9076      13.0534       0.7167     110.2093       0.6543       0.6651       0.6730       0.6852       0.7047       0.7157       0.7211       0.7190       0.7156       0.7162       0.7856       0.7432       0.7006       0.6765       0.6723       0.7531       0.7407       0.7329       0.7273       0.7203      72.0000    2337.0010      11.0625
 1242.0600      12.8789       0.4972     107.3206       0.6732       0.6953       0.7198       0.7374       0.7467       0.7145       0.7250       0.7339       0.7337       0.7255       0.7813       0.7370       0.7093       0.6907       0.6677       0.7628       0.7409       0.7298       0.7273       0.7244      72.0000    2337.0010      11.0612
 1242.2124      12.8380       0.4944     106.0075       0.6824       0.6723       0.6781       0.7069       0.7465       0.7105       0.7084       0.7100       0.7108       0.7081       0.7724       0.7336       0.7072       0.6956       0.6883       0.7490       0.7331       0.7259       0.7193       0.7059      72.0000    2338.0011      11.0646
 1242.3648      12.1820       0.4917     109.5090       0.6783       0.6782       0.6900       0.7091       0.7231       0.7067       0.7028       0.7054       0.7087       0.7075       0.7498       0.7106       0.6850       0.6695       0.6522       0.7357       0.7172       0.7096       0.7050       0.6937      72.0000    2338.0011      11.0632
 1242.5172      12.7221       0.4917     112.2664       0.6429       0.6575       0.6786       0.6860       0.6727       0.6857       0.6915       0.7000       0.7025       0.6952       0.6980       0.6660       0.6438       0.6182       0.5833       0.7082       0.6887       0.6784       0.6725       0.6629      72.0000    2338.0011      11.0618
 1242.6696      13.2466       0.4889     111.6974       0.6451       0.6580       0.6690       0.6645       0.6467       0.6764       0.6895       0.7012       0.7034       0.6958       0.6830       0.6547       0.6283       0.5926       0.5498       0.6897       0.6767       0.6706       0.6674       0.6610      72.0000    2339.0010      11.0652
 1242.8220      14.1171       0.4889     109.5090       0.6257       0.6410       0.6596       0.6788       0.6947       0.6682       0.6821       0.6948       0.7013       0.7010       0.6835       0.6534       0.6344       0.6227       0.6087       0.6849       0.6723       0.6647       0.6604       0.6553      72.0000    2339.0010      11.0639
