~VERSION INFORMATION
VERS.           2.0   :CWLS Log ASCII Standard - VERSION 2.0
WRAP.           NO    :One Line per depth step
PROD.  Company   :LAS Producer
PROG.  DLIS to ASCII 12C0-302                          :LAS Program name and version
CREA.        2006/12/12 13:31                          :LAS Creation date {YYYY/MM/DD hh:mm}
SOURCE.     KGIII6-B1_17in_RIL-DLIS_RM_500-1445m.DLIS  :DLIS File Name
FILE-ID.     Run_1                                     :File Identification Number
#--------------------------------------------------
~WELL INFORMATION
#MNEM.UNIT      DATA             DESCRIPTION
#---- ------ --------------   -----------------------------
STRT .M       499.8720       :START DEPTH     
STOP .M      1445.2092       :STOP DEPTH     
STEP .M         0.1524       :STEP     
NULL .          -999.25      :NULL VALUE
COMP .        Company:COMPANY
WELL .        W2:WELL
FLD  .        Block                  :FIELD
LOC  .        Offshore                                 :LOCATION
CNTY .        Actinia                                  :COUNTY
STAT .        State                                    :STATE
CTRY .                                                 :COUNTRY
API  .        06INM0159                                :Service Order NUMBER
UWI  .                                                 :UNIQUE WELL ID
DATE .        09-Dec-2006                              :LOG DATE {DD-MMM-YYYY}
SRVC .        Company                             :SERVICE COMPANY
LATI .DEG     N 16.2763                                :LATITUDE
LONG .DEG     E 82.0962                                :LONGITUDE
GDAT .                                                 :GeoDetic Datum
SECT .        17.5 in.                                 :Section
#-----------------------------------------------------------------------------
~PARAMETER INFORMATION
#MNEM.UNIT    VALUE                      DESCRIPTION
#---- -----   --------------------       ------------------------
TN1 .        PowerPulse                  :Tool Number 1
TN2 .        ARC                         :Tool Number 2
OS3  .          N/A                      :Other Services Line 3
OS2  .          InterACT                 :Other Services Line 2
OS1  .          Directional Surveys      :Other Services Line 1
MST  .DEGC      66.00000                 :Mud Sample Temperature
BHT  .DEGC      81.00000                 :Bottom Hole Temperature
RMS.OHMM      1000.00000                 :Resistivity of Mud Sample (RM)
MST.DEGC        66.00000                 :Mud Sample temperature (RM)
MW.LB/G         11.60000                 :Mud Weight (RM)
SHT.DEGC        25.00000                 :Surface Hole Temperature (RM)
BSAL .PPM     75900.00000                :Mud Salinity
MRT  .DEGC      81.00000                 :Maximum Recorded Temperature
RMB  .OHMM    1000.00000                 :Resistivity of Mud - BHT
MCST .DEGC      66.00000                 :Mud Cake Sample Temperature
RMCS .OHMM    1000.00000                 :Resistivity of Mud Cake Sample
MFST .DEGC      66.00000                 :Mud Filtrate Sample Temperature
RMFS .OHMM    1000.00000                 :Resistivity of Mud Filtrate Sample
RMS  .OHMM    1000.00000                 :Resistivity of Mud Sample
MSS  .        Shakers                    :Mud Sample Source
MFSS  .       Shakers                    :Mud Filtrate Sample Source
MCSS  .       Shakers                    :Mud Cake Sample Source
TCS  .         20 10                     :End Log Time
DCS  .         11-Dec-2006               :End Log Date
DFT  .        SOBM                       :Drilling Fluid Type
DFPH .           N/A                     :Drilling Fluid PH
DFV  .S       80.00000                   :Drilling Fluid Viscosity
DFD  .LB/G    10.500000                  :Drilling Fluid Density
DOWR .        70/30                      :Oil/Water Ratio
DFTS .        19.00                      :Drilling Fluid Total Solids
DHGS .        242.31                     :Drilling Fluid High Gravity Solids
TLAB .        16 00                      :Begin Log Time
DLAB .        09-Dec-2006                :Begin Log Date
RUN  .        1                          :Run Number
BLI  .M       1445.00000                 :Bottom Log Interval
TLI  .M        500.00000                 :Top Log Interval
WITN .        Sven                       :Witness's Name
ENGI .        Hatim/Harsh/Sidy           :Engineer's Name
LUL  .        Zone 2                     :Logging Unit Location
LUN  .        OLU-KC-0103                :Logging Unit Number
RR5  .        No Barite and Potassium in mud :Remark Line 5
RR2  .        ARC6 Resistivity is environmentally corrected for mud resistivity and bit size. :Remark Line 2
RR1  .        GR is corrected for bit size, tool size and mud weight               :Remark Line 1
PDAT .        Lowest Astronomical Tide   :Permanent Datum
EPD  .M          0.00000                 :Elevation of Permanent Datum
DMF  .        Driller's Depth            :Drilling Measured From
LMF  .        Rotary table               :Log Measured From
APD  .M         25.60000                 :Above Permanent Datum
EDF  .M         25.60000                 :Elevation of Derrick Floor
EGL  .M       -80.360000                 :Elevation of Ground Level
EKB  .M         25.60000                 :Elevation of Kelly Bushing
TDL  .M       1445.00000                 :Total Depth - Logger
TDD  .M       1445.00000                 :Total Depth - Driller
MHD  .DEG       2.03                     :Maximum Hole Deviation
AMD  .DEG     181.420000                 :Azimuth of Maximum Hole Deviation
BS   .IN        17.50                    :Bit Size
BSDT .M       500.00000                  :Bit Size Depth To
BSDF .M       1445.00000                 :Bit Size Depth From
CWEI .LB/M     436.00000                 :Casing Weight
CSIZ .IN        20.0000                  :Current Casing Size
CASG .         P-110                     :Casing Grade
CADT .        500.000                    :Casing Depth To
CDF  .        102.5000                   :Casing Depth From
CBLO .M       500.0000                   :Casing Bottom Logger
CBDR .M       500.0000                   :Casing Bottom Driller
#-----------------------------------------------------------------------------
~CURVE INFORMATION
#MNEM.UNIT   API CODE                                  DESCRIPTION
#---- -----  --------                                  -----------------------
DEPT .M                                                :DEPTH (BOREHOLE) {F10.4}
ROP5_RM.M/HR                                           :Rate of Penetration, Averaged over Last 5ft {F13.4}
TAB_ARC_RES.HR                                         :ARC Resistivity Time After Bit {F13.4}
GR_ARC.GAPI                                            :ARC Gamma Ray {F13.4}
A16H .OHMM                                             :ARC Attenuation Resistivity 16-in. at 2 MHz {F13.4}
A22H .OHMM                                             :ARC Attenuation Resistivity 22-in. at 2 MHz {F13.4}
A28H .OHMM                                             :ARC Attenuation Resistivity 28-in. at 2 MHz {F13.4}
A34H .OHMM                                             :ARC Attenuation Resistivity 34-in. at 2 MHz {F13.4}
A40H .OHMM                                             :ARC Attenuation Resistivity 40-in. at 2 MHz {F13.4}
A16L .OHMM                                             :ARC Attenuation Resistivity 16-in. at 400 KHz {F13.4}
A22L .OHMM                                             :ARC Attenuation Resistivity 22-in. at 400 KHz {F13.4}
A28L .OHMM                                             :ARC Attenuation Resistivity 28-in. at 400 KHz {F13.4}
A34L .OHMM                                             :ARC Attenuation Resistivity 34-in. at 400 KHz {F13.4}
A40L .OHMM                                             :ARC Attenuation Resistivity 40-in. at 400 KHz {F13.4}
P16H .OHMM                                             :ARC Phase-Shift Resistivity 16-in. at 2 MHz {F13.4}
P22H .OHMM                                             :ARC Phase-Shift Resistivity 22-in. at 2 MHz {F13.4}
P28H .OHMM                                             :ARC Phase-Shift Resistivity 28-in. at 2 MHz {F13.4}
P34H .OHMM                                             :ARC Phase-Shift Resistivity 34-in. at 2 MHz {F13.4}
P40H .OHMM                                             :ARC Phase-Shift Resistivity 40-in. at 2 MHz {F13.4}
P16L .OHMM                                             :ARC Phase-Shift Resistivity 16-in. at 400 KHz {F13.4}
P22L .OHMM                                             :ARC Phase-Shift Resistivity 22-in. at 400 KHz {F13.4}
P28L .OHMM                                             :ARC Phase-Shift Resistivity 28-in. at 400 KHz {F13.4}
P34L .OHMM                                             :ARC Phase-Shift Resistivity 34-in. at 400 KHz {F13.4}
P40L .OHMM                                             :ARC Phase-Shift Resistivity 40-in. at 400 KHz {F13.4}
ATMP .DEGC                                             :ARC Annular Temperature {F13.4}
APRS_ARC.PSI                                           :ARC Annular Pressure {F13.4}
ECD_ARC.LB/G                                           :Equivalent Circulating Density {F13.4}
#-----------------------------------------------------------------------------
# 
#     DEPT      ROP5_RM    TAB_ARC_RES     GR_ARC        A16H         A22H         A28H         A34H         A40H         A16L         A22L         A28L         A34L         A40L         P16H         P22H         P28H         P34H         P40H         P16L         P22L         P28L         P34L         P40L         ATMP       APRS_ARC     ECD_ARC
#
~A  
# ...
  931.0116      41.8227       0.4111     113.8859       0.7870       0.8037       0.8181       0.8214       0.8153       0.8204       0.8349       0.8424       0.8382       0.8278       0.8258       0.8018       0.7822       0.7640       0.7439       0.8351       0.8230       0.8153       0.8101       0.8038      67.0000    1716.0008      10.8405
  931.1640      43.0537       0.4111     114.4549       0.7481       0.7783       0.8056       0.8244       0.8361       0.8108       0.8288       0.8379       0.8410       0.8436       0.8469       0.8079       0.7809       0.7706       0.7663       0.8370       0.8259       0.8187       0.8142       0.8092      67.0000    1716.0008      10.8388
  931.3164      44.0276       0.4139     117.8251       0.7668       0.7865       0.8078       0.8224       0.8273       0.8141       0.8281       0.8394       0.8414       0.8352       0.8264       0.7945       0.7725       0.7629       0.7570       0.8294       0.8135       0.8053       0.8029       0.7996      67.0000    1717.0007      10.8432
  931.4688      44.9273       0.4139     123.3837       0.7976       0.7800       0.7654       0.7569       0.7528       0.8119       0.8248       0.8316       0.8278       0.8181       0.8001       0.7708       0.7370       0.6984       0.6611       0.8152       0.8028       0.7971       0.7943       0.7884      67.0000    1717.0007      10.8415
  931.6212      45.0375       0.4139     123.9527       0.7435       0.7543       0.7706       0.7944       0.8195       0.8004       0.8097       0.8142       0.8135       0.8107       0.8170       0.7835       0.7586       0.7485       0.7454       0.8166       0.8018       0.7943       0.7909       0.7851      67.0000    1718.0007      10.8460
  931.7736      45.2200       0.4139     119.7071       0.7794       0.7764       0.7721       0.7633       0.7519       0.7943       0.8115       0.8196       0.8164       0.8084       0.7984       0.7757       0.7496       0.7132       0.6718       0.8047       0.7964       0.7913       0.7882       0.7845      67.0000    1718.0007      10.8443
  931.9260      44.7444       0.4167     113.4482       0.7719       0.7786       0.7823       0.7807       0.7765       0.7801       0.8063       0.8234       0.8254       0.8182       0.7914       0.7668       0.7417       0.7160       0.6911       0.8061       0.7922       0.7854       0.7834       0.7800      67.0000    1719.0008      10.8487
  932.0784      44.6276       0.4139     111.4348       0.7380       0.7587       0.7823       0.8005       0.8090       0.7820       0.8019       0.8142       0.8185       0.8191       0.8022       0.7727       0.7507       0.7395       0.7328       0.8047       0.7924       0.7857       0.7824       0.7777      67.0000    1719.0008      10.8470
  932.2308      43.9132       0.4167     114.4986       0.7641       0.7776       0.7847       0.7862       0.7873       0.7862       0.8090       0.8220       0.8233       0.8191       0.8025       0.7790       0.7566       0.7350       0.7140       0.8105       0.7968       0.7885       0.7828       0.7754      67.0000    1719.0008      10.8452
  932.3832      43.9117       0.4167     116.5120       0.7481       0.7483       0.7590       0.7826       0.8087       0.7983       0.8086       0.8136       0.8155       0.8174       0.8112       0.7786       0.7531       0.7413       0.7371       0.8041       0.7947       0.7887       0.7837       0.7769      67.0000    1720.0008      10.8498
  932.5356      44.3373       0.4194     114.4549       0.7372       0.7652       0.7878       0.8032       0.8152       0.7969       0.8105       0.8199       0.8235       0.8234       0.8314       0.7932       0.7687       0.7617       0.7600       0.8152       0.8049       0.7984       0.7915       0.7810      67.0000    1720.0008      10.8479
  932.6880      44.8752       0.4194     110.6470       0.7865       0.7834       0.7787       0.7739       0.7710       0.8010       0.8162       0.8218       0.8192       0.8149       0.8125       0.7854       0.7593       0.7308       0.7004       0.8226       0.8071       0.7996       0.7987       0.7974      67.0000    1720.0008      10.8462
  932.8404      44.9878       0.4222     113.7108       0.7994       0.7737       0.7629       0.7801       0.8136       0.8171       0.8267       0.8330       0.8324       0.8270       0.8232       0.7899       0.7606       0.7446       0.7389       0.8232       0.8134       0.8079       0.8046       0.7999      67.0000    1721.0007      10.8507
  932.9928      44.9213       0.4194     123.3399       0.7841       0.8048       0.8217       0.8256       0.8192       0.7999       0.8224       0.8358       0.8366       0.8305       0.8372       0.8108       0.7915       0.7765       0.7593       0.8494       0.8307       0.8192       0.8157       0.8144      67.0000    1721.0007      10.8490
  933.1452      44.9158       0.4194     131.5247       0.8122       0.7849       0.7765       0.7907       0.8115       0.8254       0.8379       0.8430       0.8362       0.8238       0.8486       0.8156       0.7879       0.7630       0.7372       0.8423       0.8298       0.8240       0.8201       0.8123      67.0000    1721.0007      10.8471
  933.2976      45.3568       0.4194     131.5247       0.7842       0.8054       0.8257       0.8354       0.8341       0.8177       0.8315       0.8417       0.8480       0.8516       0.8573       0.8223       0.8001       0.7873       0.7727       0.8536       0.8382       0.8310       0.8289       0.8249      67.0000    1721.0007      10.8454
  933.4500      45.2651       0.4194     130.2116       0.8185       0.8227       0.8200       0.8104       0.8004       0.8354       0.8518       0.8594       0.8555       0.8466       0.8398       0.8144       0.7883       0.7585       0.7272       0.8554       0.8396       0.8309       0.8270       0.8219      67.0000    1722.0007      10.8499
  933.6024      44.2572       0.4194     127.3229       0.8188       0.7955       0.7909       0.8121       0.8430       0.8406       0.8508       0.8552       0.8516       0.8446       0.8516       0.8203       0.7927       0.7765       0.7686       0.8521       0.8425       0.8400       0.8381       0.8307      67.0000    1722.0007      10.8482
  933.7548      44.2608       0.6750     127.7605       0.7992       0.8074       0.8221       0.8408       0.8561       0.8256       0.8475       0.8629       0.8675       0.8649       0.8569       0.8279       0.8073       0.8004       0.7997       0.8634       0.8469       0.8366       0.8315       0.8263      67.0000    1722.0007      10.8464
  933.9072      44.1919       0.6778     125.3970       0.7673       0.7811       0.8057       0.8371       0.8638       0.8355       0.8457       0.8525       0.8549       0.8549       0.8706       0.8274       0.7998       0.7928       0.7928       0.8633       0.8474       0.8371       0.8317       0.8267      67.0000    1722.0007      10.8446
  934.0596      42.6678       0.6889     125.6596       0.8224       0.8293       0.8308       0.8202       0.8028       0.8358       0.8540       0.8626       0.8582       0.8480       0.8320       0.8119       0.7896       0.7571       0.7185       0.8556       0.8400       0.8325       0.8316       0.8304      67.0000    1722.0007      10.8428
  934.2120      40.2095       0.6889     127.4104       0.7903       0.7653       0.7743       0.8173       0.8642       0.8394       0.8532       0.8609       0.8611       0.8577       0.8547       0.8177       0.7878       0.7764       0.7777       0.8479       0.8411       0.8360       0.8316       0.8267      67.0000    1723.0008      10.8474
  934.3644      39.2039       0.6889     136.6456       0.8012       0.7935       0.7957       0.8152       0.8431       0.8350       0.8479       0.8531       0.8525       0.8514       0.8568       0.8255       0.7961       0.7805       0.7772       0.8544       0.8482       0.8436       0.8381       0.8302      67.0000    1723.0008      10.8456
