~VERSION INFORMATION
VERS.           2.0   :CWLS Log ASCII Standard - VERSION 2.0
WRAP.           NO    :One Line per depth step
PROD.  Company   :LAS Producer
PROG.  DLIS to ASCII 12C0-302                          :LAS Program name and version
CREA.        2006/12/02 23:41                          :LAS Creation date {YYYY/MM/DD hh:mm}
SOURCE.     KGIII6-B1_8in_Pilot_DLIS_120-505m_MD_Index.DLIS  :DLIS File Name
FILE-ID.     Run_1                                     :File Identification Number
#--------------------------------------------------
~WELL INFORMATION
#MNEM.UNIT      DATA             DESCRIPTION
#---- ------ --------------   -----------------------------
STRT .M       119.7864       :START DEPTH     
STOP .M       503.9868       :STOP DEPTH     
STEP .M         0.1524       :STEP     
NULL .          -999.25      :NULL VALUE
COMP .        Company      :COMPANY
WELL .        W2                  :WELL
FLD  .        Block                  :FIELD
LOC  .                                                 :LOCATION
CNTY .        Actinia                                  :COUNTY
STAT .        State                           :STATE
CTRY .                                                 :COUNTRY
JOB  .        06INM0159                                :Job NUMBER
UWI  .                                                 :UNIQUE WELL ID
DATE .        02-Dec-2006                              :LOG DATE {DD-MMM-YYYY}
SRVC .        Company                             :SERVICE COMPANY
LATI .DEG     16.276 N                                :LATITUDE
LONG .DEG     82.0962 E                                :LONGITUDE
GDAT .                                                 :GeoDetic Datum
SECT .        8.5 in                                   :Section
#-----------------------------------------------------------------------------
~PARAMETER INFORMATION
#MNEM.UNIT    VALUE                      DESCRIPTION
#---- -----   --------------------       ------------------------
TN1 .        PowerPulse                  :Tool Number 1
TN2 .        ARC                         :Tool Number 2
OS3  .          N/A                      :Other Services Line 3
OS2  .          InterACT                 :Other Services Line 2
OS1  .          Directional Surveys      :Other Services Line 1
MST  .DEGC      20.00000                 :Mud Sample Temperature
BHT  .DEGC      36.00000                 :Bottom Hole Temperature
RMS.OHMM         3.00000                 :Resistivity of Mud Sample (RM)
MST.DEGC        20.00000                 :Mud Sample temperature (RM)
MW.LB/G         11.00000                 :Mud Weight (RM)
SHT.DEGC        20.00000                 :Surface Hole Temperature (RM)
BSAL .PPM     3300.00000                 :Mud Salinity
MRT  .DEGC     67.00000                  :Maximum Recorded Temperature
MCST .DEGC      20.00000                 :Mud Cake Sample Temperature
RMCS .OHMM       4.50000                 :Resistivity of Mud Cake Sample
MFST .DEGC      20.00000                 :Mud Filtrate Sample Temperature
RMFS .OHMM       2.25000                 :Resistivity of Mud Filtrate Sample
MSS  .        Mud Pit                    :Mud Sample Source
MFSS  .       Mud Pit                    :Mud Filtrate Sample Source
MCSS  .       Mud Pit                    :Mud Cake Sample Source
TCS  .         16:00                     :End Log Time
DCS  .         2-Dec-2006                :End Log Date
DFT  .        WBM                        :Drilling Fluid Type
DFPH .           N/A                     :Drilling Fluid PH
DFV  .S       45.00000                   :Drilling Fluid Viscosity
DFD  .LB/G    11.000000                  :Drilling Fluid Density
DOWR .        71/29                      :Oil/Water Ratio
TLAB .        05:00                      :Begin Log Time
DLAB .        2-Dec-2006                 :Begin Log Date
RUN  .        1                          :Run Number
BLI  .M       500.00000                  :Bottom Log Interval
TLI  .M       120.00000                  :Top Log Interval
WITN .        Mr Lindsay                 :Witness's Name
ENGI .        Hatim/Victor/Harsh         :Engineer's Name
LUL  .        Zone 2                     :Logging Unit Location
LUN  .        OLU-KC-0103                :Logging Unit Number
RR2  .        ARC6 Resistivity is environmentally corrected for mud resistivity and bit size. :Remark Line 2
RR1  .        GR is corrected for bit size, tool size and mud weight               :Remark Line 1
PDAT .        Lowest Astronomical Tide   :Permanent Datum
EPD  .M          0.00000                 :Elevation of Permanent Datum
DMF  .        Driller's Depth            :Drilling Measured From
LMF  .        Drill Floor                :Log Measured From
APD  .M         25.60000                 :Above Permanent Datum
EDF  .M         25.60000                 :Elevation of Derrick Floor
EGL  .M        -79.80000                 :Elevation of Ground Level
EKB  .M         25.60000                 :Elevation of Kelly Bushing
TDL  .M        505.00000                 :Total Depth - Logger
TDD  .M        505.00000                 :Total Depth - Driller
MHD  .DEG        0.09000                 :Maximum Hole Deviation
AMD  .DEG      63.350000                 :Azimuth of Maximum Hole Deviation
BS   .IN         8.50                    :Bit Size
BSDT .M        505.00000                 :Bit Size Depth To
BSDF .M        105.00000                 :Bit Size Depth From
#-----------------------------------------------------------------------------
~CURVE INFORMATION
#MNEM.UNIT   API CODE                                  DESCRIPTION
#---- -----  --------                                  -----------------------
DEPT .M                                                :DEPTH (BOREHOLE) {F10.4}
TDEP ..1IN                                             :0.1-ft Frame Depth {F13.4}
ROP5_RM.M/HR                                           :Rate of Penetration, Averaged over Last 5ft {F13.4}
GR_ARC.GAPI                                            :ARC Gamma Ray {F13.4}
ECD_ARC.LB/G                                           :Equivalent Circulating Density {F13.4}
A16H .OHMM                                             :ARC Attenuation Resistivity 16-in. at 2 MHz {F13.4}
A22H .OHMM                                             :ARC Attenuation Resistivity 22-in. at 2 MHz {F13.4}
A28H .OHMM                                             :ARC Attenuation Resistivity 28-in. at 2 MHz {F13.4}
A34H .OHMM                                             :ARC Attenuation Resistivity 34-in. at 2 MHz {F13.4}
A40H .OHMM                                             :ARC Attenuation Resistivity 40-in. at 2 MHz {F13.4}
A16L .OHMM                                             :ARC Attenuation Resistivity 16-in. at 400 KHz {F13.4}
A22L .OHMM                                             :ARC Attenuation Resistivity 22-in. at 400 KHz {F13.4}
A28L .OHMM                                             :ARC Attenuation Resistivity 28-in. at 400 KHz {F13.4}
A34L .OHMM                                             :ARC Attenuation Resistivity 34-in. at 400 KHz {F13.4}
A40L .OHMM                                             :ARC Attenuation Resistivity 40-in. at 400 KHz {F13.4}
P16H .OHMM                                             :ARC Phase-Shift Resistivity 16-in. at 2 MHz {F13.4}
P22H .OHMM                                             :ARC Phase-Shift Resistivity 22-in. at 2 MHz {F13.4}
P28H .OHMM                                             :ARC Phase-Shift Resistivity 28-in. at 2 MHz {F13.4}
P34H .OHMM                                             :ARC Phase-Shift Resistivity 34-in. at 2 MHz {F13.4}
P40H .OHMM                                             :ARC Phase-Shift Resistivity 40-in. at 2 MHz {F13.4}
P16L .OHMM                                             :ARC Phase-Shift Resistivity 16-in. at 400 KHz {F13.4}
P22L .OHMM                                             :ARC Phase-Shift Resistivity 22-in. at 400 KHz {F13.4}
P28L .OHMM                                             :ARC Phase-Shift Resistivity 28-in. at 400 KHz {F13.4}
P34L .OHMM                                             :ARC Phase-Shift Resistivity 34-in. at 400 KHz {F13.4}
P40L .OHMM                                             :ARC Phase-Shift Resistivity 40-in. at 400 KHz {F13.4}
APRS_ARC.PSI                                           :ARC Annular Pressure {F13.4}
ATMP .DEGC                                             :ARC Annular Temperature {F13.4}
TAB_ARC_RES.HR                                         :ARC Resistivity Time After Bit {F13.4}
#-----------------------------------------------------------------------------
# 
#     DEPT        TDEP       ROP5_RM       GR_ARC      ECD_ARC        A16H         A22H         A28H         A34H         A40H         A16L         A22L         A28L         A34L         A40L         P16H         P22H         P28H         P34H         P40H         P16L         P22L         P28L         P34L         P40L       APRS_ARC       ATMP     TAB_ARC_RES
#
~A  
# ...
  421.2336  165840.0000      25.3508     144.8761      12.7046       0.8518       0.8617       0.8668       0.8715       0.8797       0.8437       0.8852       0.9068       0.9072       0.8998       0.7965       0.8263       0.8440       0.8497       0.8571       0.8345       0.8520       0.8599       0.8596       0.8602     852.0000      36.0000       0.1222
  421.3860  165900.0000      25.5715     149.4236      12.7506       0.8450       0.8527       0.8581       0.8614       0.8640       0.8466       0.8872       0.9066       0.9014       0.8873       0.7938       0.8218       0.8405       0.8491       0.8584       0.8355       0.8469       0.8584       0.8641       0.8633     855.0000      36.0000       0.1194
  421.5384  165960.0000      26.5279     150.6931      12.7450       0.8404       0.8475       0.8525       0.8544       0.8548       0.8545       0.8857       0.9018       0.9057       0.9071       0.8084       0.8268       0.8431       0.8506       0.8519       0.8391       0.8480       0.8582       0.8616       0.8564     855.0000      36.0000       0.1194
  421.6908  166020.0000      28.1263     145.1397      12.7393       0.8594       0.8632       0.8686       0.8738       0.8769       0.8633       0.8946       0.9124       0.9146       0.9099       0.7931       0.8036       0.8148       0.8217       0.8236       0.8392       0.8485       0.8550       0.8540       0.8481     855.0000      36.0000       0.1194
  421.8432  166080.0000      28.5935     140.4027      12.7337       0.8677       0.8723       0.8795       0.8875       0.8936       0.8740       0.9159       0.9338       0.9314       0.9257       0.7686       0.7780       0.7845       0.7866       0.7873       0.8304       0.8410       0.8493       0.8491       0.8425     855.0000      36.0000       0.1167
  421.9956  166140.0000      30.1728     137.6173      12.8488       0.8600       0.8764       0.8897       0.9020       0.9151       0.8861       0.9203       0.9306       0.9232       0.9152       0.7615       0.7861       0.8047       0.8136       0.8201       0.8359       0.8555       0.8687       0.8682       0.8600     862.0000      36.0000       0.1167
  422.1480  166200.0000      32.3240     139.4380      12.8431       0.8648       0.8854       0.8974       0.9052       0.9157       0.8947       0.9278       0.9411       0.9367       0.9287       0.7885       0.8207       0.8458       0.8590       0.8691       0.8554       0.8768       0.8924       0.8956       0.8918     862.0000      36.0000       0.1167
  422.3004  166260.0000      35.5803     140.3854      12.8893       0.8813       0.9034       0.9145       0.9195       0.9275       0.8945       0.9316       0.9481       0.9420       0.9286       0.8020       0.8343       0.8616       0.8793       0.8940       0.8595       0.8900       0.9062       0.9059       0.9030     865.0000      36.0000       0.1167
  422.4528  166320.0000      36.2997     135.3784      12.8836       0.8766       0.8996       0.9088       0.9129       0.9240       0.9025       0.9394       0.9577       0.9523       0.9369       0.8574       0.8823       0.8970       0.9008       0.9050       0.8967       0.9169       0.9280       0.9249       0.9166     865.0000      36.0000       0.1139
  422.6052  166380.0000      39.5365     122.4938      12.9121       0.8786       0.9046       0.9175       0.9253       0.9392       0.9151       0.9462       0.9615       0.9548       0.9382       0.8558       0.8886       0.9043       0.9057       0.9118       0.8952       0.9177       0.9323       0.9354       0.9343     867.0032      36.0000       0.1139
  422.7576  166440.0000      40.2112     109.9692      12.9754       0.8993       0.9150       0.9237       0.9270       0.9308       0.9085       0.9407       0.9644       0.9644       0.9464       0.8917       0.9255       0.9455       0.9495       0.9528       0.9165       0.9285       0.9361       0.9333       0.9241     871.0000      36.0000       0.1111
  422.9100  166500.0000      40.8057      99.8746      12.9870       0.9042       0.9163       0.9218       0.9240       0.9286       0.9117       0.9421       0.9592       0.9530       0.9338       0.8913       0.9243       0.9436       0.9506       0.9606       0.9190       0.9287       0.9360       0.9357       0.9297     872.0000      36.0000       0.1111
  423.0624  166560.0000      41.4110      98.7378      12.8088       0.8971       0.8969       0.8988       0.9041       0.9107       0.9067       0.9396       0.9644       0.9655       0.9483       0.8902       0.8895       0.8905       0.8922       0.8929       0.9084       0.9086       0.9124       0.9126       0.9059     862.0000      36.0000       0.1111
  423.2148  166620.0000      41.5661     103.4781      12.6135       0.8959       0.8967       0.9001       0.9049       0.9086       0.9091       0.9372       0.9562       0.9573       0.9465       0.8994       0.9010       0.9030       0.9050       0.9063       0.9149       0.9143       0.9149       0.9152       0.9139     851.0000      36.0000       0.1083
  423.3672  166680.0000      40.9786     113.9753      12.4524       0.8976       0.9027       0.9072       0.9187       0.9371       0.9056       0.9493       0.9733       0.9722       0.9599       0.7976       0.8072       0.8148       0.8148       0.8095       0.8684       0.8776       0.8827       0.8819       0.8789     841.9928      36.0000       0.1083
  423.5196  166740.0000      40.4533     124.3967      12.2920       0.8956       0.9041       0.9096       0.9220       0.9433       0.9092       0.9523       0.9749       0.9767       0.9713       0.7920       0.8030       0.8089       0.8109       0.8144       0.8602       0.8706       0.8758       0.8758       0.8754     833.0000      36.0000       0.1028
  423.6720  166800.0000      36.8958     132.6167      12.3038       0.8956       0.9041       0.9096       0.9220       0.9433       0.9092       0.9523       0.9749       0.9767       0.9713       0.7920       0.8030       0.8089       0.8109       0.8144       0.8602       0.8706       0.8758       0.8758       0.8754     834.0000      36.0000       0.1000
  423.8244  166860.0000      36.7829     135.9516      12.4361       0.9109       0.9244       0.9285       0.9320       0.9431       0.9227       0.9697       0.9916       0.9898       0.9819       0.9024       0.9124       0.9204       0.9216       0.9181       0.9342       0.9456       0.9452       0.9413       0.9447     842.0000      36.0000       0.1028
  423.9768  166920.0000      36.7993     130.6433      12.4474       0.9109       0.9244       0.9285       0.9320       0.9431       0.9227       0.9697       0.9916       0.9898       0.9819       0.9024       0.9124       0.9204       0.9216       0.9181       0.9342       0.9456       0.9452       0.9413       0.9447     843.0000      36.0000       0.0972
  424.1292  166980.0000      36.7978     120.7335      12.5621       0.9581       0.9709       0.9714       0.9690       0.9746       0.9437       0.9809       0.9988       0.9995       0.9960       0.9324       0.9502       0.9602       0.9633       0.9676       0.9595       0.9751       0.9765       0.9713       0.9728     849.9888      36.0000       0.0972
  424.2816  167040.0000      37.8568     106.7878      12.3162       0.9864       0.9938       0.9940       0.9960       1.0067       0.9730       1.0035       1.0187       1.0101       0.9967       0.9544       0.9693       0.9782       0.9841       0.9934       0.9974       1.0038       1.0031       1.0026       1.0087     836.0000      36.0000       0.0972
  424.4340  167100.0000      39.0197      99.7231      12.2421       1.0411       1.0378       1.0309       1.0277       1.0314       0.9949       1.0228       1.0330       1.0231       1.0077       1.0077       1.0194       1.0278       1.0302       1.0303       1.0487       1.0454       1.0402       1.0346       1.0305     832.0000      36.0000       0.1000
  424.5864  167160.0000      39.8617      96.9377      12.0303       1.0411       1.0378       1.0309       1.0277       1.0314       0.9949       1.0228       1.0330       1.0231       1.0077       1.0077       1.0194       1.0278       1.0302       1.0303       1.0487       1.0454       1.0402       1.0346       1.0305     820.0000      36.0000       0.0972
