~VERSION INFORMATION
VERS.           2.0   :CWLS Log ASCII Standard - VERSION 2.0
WRAP.           NO    :One Line per depth step
PROD.  Company   :LAS Producer
PROG.  DLIS to ASCII 12C0-302                          :LAS Program name and version
CREA.        2006/12/02 23:41                          :LAS Creation date {YYYY/MM/DD hh:mm}
SOURCE.     KGIII6-B1_8in_Pilot_DLIS_120-505m_MD_Index.DLIS  :DLIS File Name
FILE-ID.     Run_1                                     :File Identification Number
#--------------------------------------------------
~WELL INFORMATION
#MNEM.UNIT      DATA             DESCRIPTION
#---- ------ --------------   -----------------------------
STRT .M       119.7864       :START DEPTH     
STOP .M       503.9868       :STOP DEPTH     
STEP .M         0.1524       :STEP     
NULL .          -999.25      :NULL VALUE
COMP .        Company      :COMPANY
WELL .        W2                  :WELL
FLD  .        Block                  :FIELD
LOC  .                                                 :LOCATION
CNTY .        Actinia                                  :COUNTY
STAT .        State                           :STATE
CTRY .                                                 :COUNTRY
JOB  .        06INM0159                                :Job NUMBER
UWI  .                                                 :UNIQUE WELL ID
DATE .        02-Dec-2006                              :LOG DATE {DD-MMM-YYYY}
SRVC .        Company                             :SERVICE COMPANY
LATI .DEG     16.276 N                                :LATITUDE
LONG .DEG     82.0962 E                                :LONGITUDE
GDAT .                                                 :GeoDetic Datum
SECT .        8.5 in                                   :Section
#-----------------------------------------------------------------------------
~PARAMETER INFORMATION
#MNEM.UNIT    VALUE                      DESCRIPTION
#---- -----   --------------------       ------------------------
TN1 .        PowerPulse                  :Tool Number 1
TN2 .        ARC                         :Tool Number 2
OS3  .          N/A                      :Other Services Line 3
OS2  .          InterACT                 :Other Services Line 2
OS1  .          Directional Surveys      :Other Services Line 1
MST  .DEGC      20.00000                 :Mud Sample Temperature
BHT  .DEGC      36.00000                 :Bottom Hole Temperature
RMS.OHMM         3.00000                 :Resistivity of Mud Sample (RM)
MST.DEGC        20.00000                 :Mud Sample temperature (RM)
MW.LB/G         11.00000                 :Mud Weight (RM)
SHT.DEGC        20.00000                 :Surface Hole Temperature (RM)
BSAL .PPM     3300.00000                 :Mud Salinity
MRT  .DEGC     67.00000                  :Maximum Recorded Temperature
MCST .DEGC      20.00000                 :Mud Cake Sample Temperature
RMCS .OHMM       4.50000                 :Resistivity of Mud Cake Sample
MFST .DEGC      20.00000                 :Mud Filtrate Sample Temperature
RMFS .OHMM       2.25000                 :Resistivity of Mud Filtrate Sample
MSS  .        Mud Pit                    :Mud Sample Source
MFSS  .       Mud Pit                    :Mud Filtrate Sample Source
MCSS  .       Mud Pit                    :Mud Cake Sample Source
TCS  .         16:00                     :End Log Time
DCS  .         2-Dec-2006                :End Log Date
DFT  .        WBM                        :Drilling Fluid Type
DFPH .           N/A                     :Drilling Fluid PH
DFV  .S       45.00000                   :Drilling Fluid Viscosity
DFD  .LB/G    11.000000                  :Drilling Fluid Density
DOWR .        71/29                      :Oil/Water Ratio
TLAB .        05:00                      :Begin Log Time
DLAB .        2-Dec-2006                 :Begin Log Date
RUN  .        1                          :Run Number
BLI  .M       500.00000                  :Bottom Log Interval
TLI  .M       120.00000                  :Top Log Interval
WITN .        Mr Lindsay                 :Witness's Name
ENGI .        Hatim/Victor/Harsh         :Engineer's Name
LUL  .        Zone 2                     :Logging Unit Location
LUN  .        OLU-KC-0103                :Logging Unit Number
RR2  .        ARC6 Resistivity is environmentally corrected for mud resistivity and bit size. :Remark Line 2
RR1  .        GR is corrected for bit size, tool size and mud weight               :Remark Line 1
PDAT .        Lowest Astronomical Tide   :Permanent Datum
EPD  .M          0.00000                 :Elevation of Permanent Datum
DMF  .        Driller's Depth            :Drilling Measured From
LMF  .        Drill Floor                :Log Measured From
APD  .M         25.60000                 :Above Permanent Datum
EDF  .M         25.60000                 :Elevation of Derrick Floor
EGL  .M        -79.80000                 :Elevation of Ground Level
EKB  .M         25.60000                 :Elevation of Kelly Bushing
TDL  .M        505.00000                 :Total Depth - Logger
TDD  .M        505.00000                 :Total Depth - Driller
MHD  .DEG        0.09000                 :Maximum Hole Deviation
AMD  .DEG      63.350000                 :Azimuth of Maximum Hole Deviation
BS   .IN         8.50                    :Bit Size
BSDT .M        505.00000                 :Bit Size Depth To
BSDF .M        105.00000                 :Bit Size Depth From
#-----------------------------------------------------------------------------
~CURVE INFORMATION
#MNEM.UNIT   API CODE                                  DESCRIPTION
#---- -----  --------                                  -----------------------
DEPT .M                                                :DEPTH (BOREHOLE) {F10.4}
TDEP ..1IN                                             :0.1-ft Frame Depth {F13.4}
ROP5_RM.M/HR                                           :Rate of Penetration, Averaged over Last 5ft {F13.4}
GR_ARC.GAPI                                            :ARC Gamma Ray {F13.4}
ECD_ARC.LB/G                                           :Equivalent Circulating Density {F13.4}
A16H .OHMM                                             :ARC Attenuation Resistivity 16-in. at 2 MHz {F13.4}
A22H .OHMM                                             :ARC Attenuation Resistivity 22-in. at 2 MHz {F13.4}
A28H .OHMM                                             :ARC Attenuation Resistivity 28-in. at 2 MHz {F13.4}
A34H .OHMM                                             :ARC Attenuation Resistivity 34-in. at 2 MHz {F13.4}
A40H .OHMM                                             :ARC Attenuation Resistivity 40-in. at 2 MHz {F13.4}
A16L .OHMM                                             :ARC Attenuation Resistivity 16-in. at 400 KHz {F13.4}
A22L .OHMM                                             :ARC Attenuation Resistivity 22-in. at 400 KHz {F13.4}
A28L .OHMM                                             :ARC Attenuation Resistivity 28-in. at 400 KHz {F13.4}
A34L .OHMM                                             :ARC Attenuation Resistivity 34-in. at 400 KHz {F13.4}
A40L .OHMM                                             :ARC Attenuation Resistivity 40-in. at 400 KHz {F13.4}
P16H .OHMM                                             :ARC Phase-Shift Resistivity 16-in. at 2 MHz {F13.4}
P22H .OHMM                                             :ARC Phase-Shift Resistivity 22-in. at 2 MHz {F13.4}
P28H .OHMM                                             :ARC Phase-Shift Resistivity 28-in. at 2 MHz {F13.4}
P34H .OHMM                                             :ARC Phase-Shift Resistivity 34-in. at 2 MHz {F13.4}
P40H .OHMM                                             :ARC Phase-Shift Resistivity 40-in. at 2 MHz {F13.4}
P16L .OHMM                                             :ARC Phase-Shift Resistivity 16-in. at 400 KHz {F13.4}
P22L .OHMM                                             :ARC Phase-Shift Resistivity 22-in. at 400 KHz {F13.4}
P28L .OHMM                                             :ARC Phase-Shift Resistivity 28-in. at 400 KHz {F13.4}
P34L .OHMM                                             :ARC Phase-Shift Resistivity 34-in. at 400 KHz {F13.4}
P40L .OHMM                                             :ARC Phase-Shift Resistivity 40-in. at 400 KHz {F13.4}
APRS_ARC.PSI                                           :ARC Annular Pressure {F13.4}
ATMP .DEGC                                             :ARC Annular Temperature {F13.4}
TAB_ARC_RES.HR                                         :ARC Resistivity Time After Bit {F13.4}
#-----------------------------------------------------------------------------
# 
#     DEPT        TDEP       ROP5_RM       GR_ARC      ECD_ARC        A16H         A22H         A28H         A34H         A40H         A16L         A22L         A28L         A34L         A40L         P16H         P22H         P28H         P34H         P40H         P16L         P22L         P28L         P34L         P40L       APRS_ARC       ATMP     TAB_ARC_RES
#
~A  
# ...
  470.3064  185160.0000      55.3744     101.4664      12.6705       1.0520       1.0516       1.0497       1.0487       1.0498       1.0271       1.0557       1.0619       1.0412       1.0125       1.0200       1.0286       1.0358       1.0357       1.0298       1.0504       1.0510       1.0506       1.0427       1.0285     956.0000      36.0000       0.0889
  470.4588  185220.0000      56.5073     103.3015      12.7564       1.0236       1.0312       1.0355       1.0370       1.0379       0.9935       1.0358       1.0529       1.0337       1.0009       0.9670       0.9755       0.9825       0.9836       0.9803       1.0084       1.0192       1.0273       1.0215       1.0045     962.0000      36.0000       0.0889
  470.6112  185280.0000      59.1035     101.5393      12.7060       1.0236       1.0312       1.0355       1.0370       1.0379       0.9935       1.0358       1.0529       1.0337       1.0009       0.9670       0.9755       0.9825       0.9836       0.9803       1.0084       1.0192       1.0273       1.0215       1.0045     958.9960      36.0000       0.0861
  470.7636  185340.0000      60.1027      99.3224      12.6255       1.0157       1.0268       1.0317       1.0320       1.0325       0.9961       1.0345       1.0518       1.0392       1.0145       0.9595       0.9763       0.9851       0.9844       0.9829       1.0115       1.0190       1.0229       1.0215       1.0182     954.0000      36.0000       0.0861
  470.9160  185400.0000      60.2936      94.8918      12.6052       1.0076       1.0151       1.0204       1.0202       1.0162       0.9856       1.0239       1.0471       1.0380       1.0124       0.9815       0.9923       1.0043       1.0080       1.0021       1.0090       1.0175       1.0214       1.0172       1.0090     953.0016      36.0000       0.0861
  471.0684  185460.0000      60.9716      94.5129      12.6305       0.9971       1.0046       1.0103       1.0132       1.0148       0.9838       1.0203       1.0387       1.0308       1.0140       0.9670       0.9726       0.9769       0.9750       0.9682       0.9991       1.0061       1.0094       1.0053       0.9971     955.0000      36.0000       0.0861
  471.2208  185520.0000      60.8774      97.0519      12.6106       0.9880       0.9974       1.0010       1.0038       1.0111       0.9832       1.0226       1.0438       1.0344       1.0127       0.9308       0.9334       0.9347       0.9346       0.9344       0.9794       0.9886       0.9900       0.9849       0.9805     954.0000      36.0000       0.0861
  471.3732  185580.0000      59.6380     100.7835      12.5755       0.9962       1.0060       1.0071       1.0102       1.0226       0.9813       1.0192       1.0355       1.0232       1.0033       0.9451       0.9589       0.9656       0.9654       0.9657       0.9892       0.9999       1.0040       1.0005       0.9950     952.0000      36.0000       0.0861
  471.5256  185640.0000      59.6371     103.0572      12.5703       1.0015       1.0101       1.0156       1.0206       1.0272       0.9889       1.0201       1.0350       1.0293       1.0171       0.9904       0.9990       1.0065       1.0084       1.0055       1.0202       1.0220       1.0256       1.0230       1.0125     952.0000      36.0000       0.0861
  471.6780  185700.0000      59.6398     101.5242      12.5655       1.0099       1.0180       1.0224       1.0265       1.0332       0.9907       1.0324       1.0475       1.0318       1.0082       0.9588       0.9662       0.9735       0.9778       0.9792       0.9989       1.0070       1.0112       1.0102       1.0076     952.0000      36.0000       0.0861
  471.8304  185760.0000      60.8460      99.7456      12.7869       1.0099       1.0180       1.0224       1.0265       1.0332       0.9907       1.0324       1.0475       1.0318       1.0082       0.9588       0.9662       0.9735       0.9778       0.9792       0.9989       1.0070       1.0112       1.0102       1.0076     967.0016      36.0000       0.0861
  471.9828  185820.0000      62.0039     101.0720      12.8121       1.0149       1.0192       1.0207       1.0236       1.0297       0.9942       1.0331       1.0485       1.0383       1.0210       0.9846       0.9916       0.9965       0.9949       0.9888       1.0186       1.0232       1.0256       1.0225       1.0161     969.0000      36.0000       0.0861
  472.1352  185880.0000      61.7749     103.4766      12.7315       1.0274       1.0256       1.0257       1.0300       1.0364       0.9955       1.0327       1.0540       1.0504       1.0339       0.9888       0.9783       0.9815       0.9893       0.9878       1.0190       1.0202       1.0197       1.0165       1.0124     964.0000      36.0000       0.0861
  472.2876  185940.0000      61.6502     103.4740      13.0276       1.0242       1.0358       1.0401       1.0429       1.0495       0.9999       1.0472       1.0668       1.0506       1.0205       0.9583       0.9657       0.9731       0.9802       0.9872       1.0093       1.0221       1.0257       1.0234       1.0236     983.9824      36.0000       0.0861
  472.4400  186000.0000      62.0044     100.3097      12.6916       1.0338       1.0397       1.0414       1.0421       1.0449       0.9969       1.0431       1.0632       1.0481       1.0191       1.0038       1.0165       1.0257       1.0284       1.0286       1.0340       1.0426       1.0459       1.0422       1.0361     962.0000      36.0000       0.0861
  472.5924  186060.0000      63.0707      96.5964      12.7468       1.0421       1.0419       1.0430       1.0473       1.0532       1.0047       1.0439       1.0613       1.0515       1.0308       1.0108       1.0150       1.0211       1.0219       1.0155       1.0391       1.0444       1.0447       1.0375       1.0276     965.9952      36.0000       0.0861
  472.7448  186120.0000      63.0720      95.8582      12.7419       1.0410       1.0465       1.0466       1.0485       1.0562       1.0231       1.0578       1.0738       1.0670       1.0509       0.9632       0.9705       0.9748       0.9736       0.9697       1.0193       1.0271       1.0283       1.0213       1.0125     965.9952      36.0000       0.0861
  472.8972  186180.0000      63.0720      96.3129      12.6465       1.0410       1.0465       1.0466       1.0485       1.0562       1.0231       1.0578       1.0738       1.0670       1.0509       0.9632       0.9705       0.9748       0.9736       0.9697       1.0193       1.0271       1.0283       1.0213       1.0125     960.0000      36.0000       0.0861
  473.0496  186240.0000      63.6709      97.1272      12.8071       1.0432       1.0461       1.0448       1.0455       1.0513       1.0187       1.0614       1.0743       1.0575       1.0337       1.0118       1.0200       1.0254       1.0248       1.0212       1.0460       1.0525       1.0537       1.0479       1.0401     971.0000      36.0000       0.0861
  473.2020  186300.0000      63.2685      99.5715      12.8172       1.0512       1.0586       1.0611       1.0637       1.0702       1.0154       1.0687       1.0952       1.0841       1.0557       1.0158       1.0245       1.0315       1.0319       1.0276       1.0493       1.0558       1.0553       1.0504       1.0475     972.0024      36.0000       0.0861
  473.3544  186360.0000      63.0677     100.7645      12.8573       1.0604       1.0686       1.0719       1.0738       1.0779       1.0217       1.0726       1.0973       1.0826       1.0494       0.9974       1.0097       1.0178       1.0181       1.0147       1.0464       1.0554       1.0565       1.0490       1.0403     975.0000      36.0000       0.0861
  473.5068  186420.0000      62.3355     101.0677      12.8069       1.0668       1.0709       1.0716       1.0734       1.0785       1.0367       1.0767       1.0948       1.0818       1.0549       1.0232       1.0287       1.0346       1.0364       1.0337       1.0605       1.0630       1.0661       1.0647       1.0584     971.9960      36.0000       0.0861
  473.6592  186480.0000      62.2939      99.9498      12.7270       1.0683       1.0711       1.0711       1.0710       1.0731       1.0347       1.0779       1.0991       1.0879       1.0610       1.0188       1.0258       1.0311       1.0307       1.0262       1.0591       1.0632       1.0684       1.0662       1.0556     967.0000      36.0000       0.0889
