~VERSION INFORMATION
VERS.           2.0   :CWLS Log ASCII Standard - VERSION 2.0
WRAP.           NO    :One Line per depth step
PROD.  Company   :LAS Producer
PROG.  DLIS to ASCII 12C0-302                          :LAS Program name and version
CREA.        2006/12/02 23:41                          :LAS Creation date {YYYY/MM/DD hh:mm}
SOURCE.     KGIII6-B1_8in_Pilot_DLIS_120-505m_MD_Index.DLIS  :DLIS File Name
FILE-ID.     Run_1                                     :File Identification Number
#--------------------------------------------------
~WELL INFORMATION
#MNEM.UNIT      DATA             DESCRIPTION
#---- ------ --------------   -----------------------------
STRT .M       119.7864       :START DEPTH     
STOP .M       503.9868       :STOP DEPTH     
STEP .M         0.1524       :STEP     
NULL .          -999.25      :NULL VALUE
COMP .        Company      :COMPANY
WELL .        W2                  :WELL
FLD  .        Block                  :FIELD
LOC  .                                                 :LOCATION
CNTY .        Actinia                                  :COUNTY
STAT .        State                           :STATE
CTRY .                                                 :COUNTRY
JOB  .        06INM0159                                :Job NUMBER
UWI  .                                                 :UNIQUE WELL ID
DATE .        02-Dec-2006                              :LOG DATE {DD-MMM-YYYY}
SRVC .        Company                             :SERVICE COMPANY
LATI .DEG     16.276 N                                :LATITUDE
LONG .DEG     82.0962 E                                :LONGITUDE
GDAT .                                                 :GeoDetic Datum
SECT .        8.5 in                                   :Section
#-----------------------------------------------------------------------------
~PARAMETER INFORMATION
#MNEM.UNIT    VALUE                      DESCRIPTION
#---- -----   --------------------       ------------------------
TN1 .        PowerPulse                  :Tool Number 1
TN2 .        ARC                         :Tool Number 2
OS3  .          N/A                      :Other Services Line 3
OS2  .          InterACT                 :Other Services Line 2
OS1  .          Directional Surveys      :Other Services Line 1
MST  .DEGC      20.00000                 :Mud Sample Temperature
BHT  .DEGC      36.00000                 :Bottom Hole Temperature
RMS.OHMM         3.00000                 :Resistivity of Mud Sample (RM)
MST.DEGC        20.00000                 :Mud Sample temperature (RM)
MW.LB/G         11.00000                 :Mud Weight (RM)
SHT.DEGC        20.00000                 :Surface Hole Temperature (RM)
BSAL .PPM     3300.00000                 :Mud Salinity
MRT  .DEGC     67.00000                  :Maximum Recorded Temperature
MCST .DEGC      20.00000                 :Mud Cake Sample Temperature
RMCS .OHMM       4.50000                 :Resistivity of Mud Cake Sample
MFST .DEGC      20.00000                 :Mud Filtrate Sample Temperature
RMFS .OHMM       2.25000                 :Resistivity of Mud Filtrate Sample
MSS  .        Mud Pit                    :Mud Sample Source
MFSS  .       Mud Pit                    :Mud Filtrate Sample Source
MCSS  .       Mud Pit                    :Mud Cake Sample Source
TCS  .         16:00                     :End Log Time
DCS  .         2-Dec-2006                :End Log Date
DFT  .        WBM                        :Drilling Fluid Type
DFPH .           N/A                     :Drilling Fluid PH
DFV  .S       45.00000                   :Drilling Fluid Viscosity
DFD  .LB/G    11.000000                  :Drilling Fluid Density
DOWR .        71/29                      :Oil/Water Ratio
TLAB .        05:00                      :Begin Log Time
DLAB .        2-Dec-2006                 :Begin Log Date
RUN  .        1                          :Run Number
BLI  .M       500.00000                  :Bottom Log Interval
TLI  .M       120.00000                  :Top Log Interval
WITN .        Mr Lindsay                 :Witness's Name
ENGI .        Hatim/Victor/Harsh         :Engineer's Name
LUL  .        Zone 2                     :Logging Unit Location
LUN  .        OLU-KC-0103                :Logging Unit Number
RR2  .        ARC6 Resistivity is environmentally corrected for mud resistivity and bit size. :Remark Line 2
RR1  .        GR is corrected for bit size, tool size and mud weight               :Remark Line 1
PDAT .        Lowest Astronomical Tide   :Permanent Datum
EPD  .M          0.00000                 :Elevation of Permanent Datum
DMF  .        Driller's Depth            :Drilling Measured From
LMF  .        Drill Floor                :Log Measured From
APD  .M         25.60000                 :Above Permanent Datum
EDF  .M         25.60000                 :Elevation of Derrick Floor
EGL  .M        -79.80000                 :Elevation of Ground Level
EKB  .M         25.60000                 :Elevation of Kelly Bushing
TDL  .M        505.00000                 :Total Depth - Logger
TDD  .M        505.00000                 :Total Depth - Driller
MHD  .DEG        0.09000                 :Maximum Hole Deviation
AMD  .DEG      63.350000                 :Azimuth of Maximum Hole Deviation
BS   .IN         8.50                    :Bit Size
BSDT .M        505.00000                 :Bit Size Depth To
BSDF .M        105.00000                 :Bit Size Depth From
#-----------------------------------------------------------------------------
~CURVE INFORMATION
#MNEM.UNIT   API CODE                                  DESCRIPTION
#---- -----  --------                                  -----------------------
DEPT .M                                                :DEPTH (BOREHOLE) {F10.4}
TDEP ..1IN                                             :0.1-ft Frame Depth {F13.4}
ROP5_RM.M/HR                                           :Rate of Penetration, Averaged over Last 5ft {F13.4}
GR_ARC.GAPI                                            :ARC Gamma Ray {F13.4}
ECD_ARC.LB/G                                           :Equivalent Circulating Density {F13.4}
A16H .OHMM                                             :ARC Attenuation Resistivity 16-in. at 2 MHz {F13.4}
A22H .OHMM                                             :ARC Attenuation Resistivity 22-in. at 2 MHz {F13.4}
A28H .OHMM                                             :ARC Attenuation Resistivity 28-in. at 2 MHz {F13.4}
A34H .OHMM                                             :ARC Attenuation Resistivity 34-in. at 2 MHz {F13.4}
A40H .OHMM                                             :ARC Attenuation Resistivity 40-in. at 2 MHz {F13.4}
A16L .OHMM                                             :ARC Attenuation Resistivity 16-in. at 400 KHz {F13.4}
A22L .OHMM                                             :ARC Attenuation Resistivity 22-in. at 400 KHz {F13.4}
A28L .OHMM                                             :ARC Attenuation Resistivity 28-in. at 400 KHz {F13.4}
A34L .OHMM                                             :ARC Attenuation Resistivity 34-in. at 400 KHz {F13.4}
A40L .OHMM                                             :ARC Attenuation Resistivity 40-in. at 400 KHz {F13.4}
P16H .OHMM                                             :ARC Phase-Shift Resistivity 16-in. at 2 MHz {F13.4}
P22H .OHMM                                             :ARC Phase-Shift Resistivity 22-in. at 2 MHz {F13.4}
P28H .OHMM                                             :ARC Phase-Shift Resistivity 28-in. at 2 MHz {F13.4}
P34H .OHMM                                             :ARC Phase-Shift Resistivity 34-in. at 2 MHz {F13.4}
P40H .OHMM                                             :ARC Phase-Shift Resistivity 40-in. at 2 MHz {F13.4}
P16L .OHMM                                             :ARC Phase-Shift Resistivity 16-in. at 400 KHz {F13.4}
P22L .OHMM                                             :ARC Phase-Shift Resistivity 22-in. at 400 KHz {F13.4}
P28L .OHMM                                             :ARC Phase-Shift Resistivity 28-in. at 400 KHz {F13.4}
P34L .OHMM                                             :ARC Phase-Shift Resistivity 34-in. at 400 KHz {F13.4}
P40L .OHMM                                             :ARC Phase-Shift Resistivity 40-in. at 400 KHz {F13.4}
APRS_ARC.PSI                                           :ARC Annular Pressure {F13.4}
ATMP .DEGC                                             :ARC Annular Temperature {F13.4}
TAB_ARC_RES.HR                                         :ARC Resistivity Time After Bit {F13.4}
#-----------------------------------------------------------------------------
# 
#     DEPT        TDEP       ROP5_RM       GR_ARC      ECD_ARC        A16H         A22H         A28H         A34H         A40H         A16L         A22L         A28L         A34L         A40L         P16H         P22H         P28H         P34H         P40H         P16L         P22L         P28L         P34L         P40L       APRS_ARC       ATMP     TAB_ARC_RES
#
~A  
# ...
  193.3956   76140.0000      58.9399      54.0959      10.1709       0.5879       0.5907       0.5916       0.5940       0.5996       0.5763       0.5855       0.5930       0.6014       0.6107       0.5665       0.5696       0.5712       0.5762       0.5866       0.5806       0.5898       0.5937       0.5844       0.5676     311.0000      36.0000       0.0944
  193.5480   76200.0000      60.4356      53.2810      10.1571       0.5849       0.5862       0.5866       0.5889       0.5939       0.5712       0.5851       0.5913       0.5957       0.6030       0.5714       0.5783       0.5813       0.5791       0.5758       0.5857       0.5944       0.5963       0.5855       0.5689     311.0000      36.0000       0.0944
  193.7004   76260.0000      61.6416      52.4669      10.1434       0.5898       0.5897       0.5901       0.5943       0.6015       0.5777       0.5891       0.5945       0.6002       0.6095       0.5631       0.5685       0.5707       0.5721       0.5762       0.5829       0.5903       0.5924       0.5819       0.5647     311.0000      36.0000       0.0944
  193.8528   76320.0000      61.6416      53.4712      10.1825       0.5898       0.5897       0.5901       0.5943       0.6015       0.5777       0.5891       0.5945       0.6002       0.6095       0.5631       0.5685       0.5707       0.5721       0.5762       0.5829       0.5903       0.5924       0.5819       0.5647     312.0000      36.0000       0.0917
  194.0052   76380.0000      61.4546      54.7218      10.1679       0.5870       0.5882       0.5872       0.5891       0.5956       0.5740       0.5881       0.5932       0.5965       0.6038       0.5718       0.5760       0.5781       0.5789       0.5805       0.5846       0.5920       0.5951       0.5873       0.5732     311.9996      36.0000       0.0917
  194.1576   76440.0000      60.9560      55.8587      10.1015       0.5878       0.5900       0.5894       0.5887       0.5905       0.5756       0.5870       0.5939       0.6022       0.6138       0.5725       0.5765       0.5797       0.5822       0.5849       0.5858       0.5934       0.5963       0.5878       0.5731     311.0004      36.0000       0.0917
  194.3100   76500.0000      60.6915      57.0714      10.1405       0.5865       0.5890       0.5901       0.5920       0.5957       0.5757       0.5884       0.5943       0.5996       0.6084       0.5628       0.5691       0.5720       0.5715       0.5711       0.5812       0.5904       0.5961       0.5888       0.5725     312.0000      36.0000       0.0917
  194.4624   76560.0000      59.3795      56.5029      10.1269       0.5876       0.5883       0.5885       0.5922       0.5999       0.5766       0.5876       0.5973       0.6068       0.6154       0.5678       0.5718       0.5734       0.5742       0.5766       0.5844       0.5929       0.5957       0.5844       0.5652     312.0000      36.0000       0.0917
  194.6148   76620.0000      58.2405      55.5555      10.1133       0.5895       0.5898       0.5901       0.5942       0.6019       0.5761       0.5876       0.5948       0.6015       0.6095       0.5758       0.5805       0.5823       0.5846       0.5910       0.5891       0.5946       0.5967       0.5865       0.5679     312.0000      36.0000       0.0917
  194.7672   76680.0000      57.5322      55.1011      10.0989       0.5895       0.5912       0.5926       0.5959       0.6009       0.5805       0.5904       0.5960       0.6039       0.6160       0.5625       0.5676       0.5671       0.5643       0.5651       0.5819       0.5895       0.5944       0.5877       0.5727     312.0000      36.0000       0.0917
  194.9196   76740.0000      56.6122      56.4271      10.1900       0.5895       0.5893       0.5883       0.5904       0.5961       0.5834       0.5943       0.5987       0.6051       0.6172       0.5630       0.5668       0.5679       0.5663       0.5646       0.5816       0.5903       0.5967       0.5899       0.5728     314.0000      36.0000       0.0917
  195.0720   76800.0000      57.1483      57.1851      10.1764       0.5948       0.5971       0.5977       0.6021       0.6119       0.5848       0.5977       0.6061       0.6113       0.6155       0.5702       0.5760       0.5787       0.5813       0.5871       0.5894       0.6009       0.6045       0.5915       0.5704     314.0004      36.0000       0.0917
  195.2244   76860.0000      57.6957      58.3216      10.2150       0.5982       0.6006       0.5998       0.5994       0.6023       0.5867       0.5946       0.6009       0.6120       0.6276       0.5862       0.5947       0.5984       0.5992       0.6018       0.5970       0.6051       0.6071       0.5972       0.5817     315.0000      36.0000       0.0944
  195.3768   76920.0000      57.7504      57.3176      10.1484       0.6058       0.6029       0.6002       0.6023       0.6089       0.5910       0.6029       0.6111       0.6188       0.6271       0.5769       0.5820       0.5847       0.5836       0.5813       0.5961       0.6026       0.6042       0.5932       0.5751     314.0000      36.0000       0.0944
  195.5292   76980.0000      57.7504      57.1273      10.1349       0.6015       0.6022       0.6038       0.6071       0.6114       0.5921       0.5995       0.6085       0.6185       0.6264       0.5867       0.5866       0.5856       0.5875       0.5935       0.5972       0.6053       0.6096       0.5985       0.5767     314.0000      36.0000       0.0944
  195.6816   77040.0000      57.7504      53.9067      10.0695       0.6037       0.6048       0.6090       0.6145       0.6180       0.6050       0.6097       0.6171       0.6265       0.6343       0.5708       0.5762       0.5783       0.5775       0.5772       0.5956       0.6002       0.6061       0.5990       0.5782     313.0004      36.0000       0.0944
  195.8340   77100.0000      57.7493      53.2056      10.1080       0.6037       0.6048       0.6090       0.6145       0.6180       0.6050       0.6097       0.6171       0.6265       0.6343       0.5708       0.5762       0.5783       0.5775       0.5772       0.5956       0.6002       0.6061       0.5990       0.5782     314.0000      36.0000       0.0917
  195.9864   77160.0000      58.1176      53.2064      10.0937       0.6033       0.6015       0.6061       0.6113       0.6110       0.5992       0.6080       0.6183       0.6276       0.6331       0.5756       0.5830       0.5842       0.5811       0.5803       0.5976       0.6038       0.6099       0.6025       0.5824     314.0000      36.0000       0.0917
  196.1388   77220.0000      58.3635      55.2902      10.0803       0.6107       0.6074       0.6078       0.6127       0.6187       0.6124       0.6262       0.6369       0.6472       0.6576       0.5716       0.5761       0.5820       0.5835       0.5793       0.5991       0.6062       0.6087       0.5986       0.5808     314.0000      36.0000       0.0917
  196.2912   77280.0000      58.3635      56.5029      10.1704       0.6126       0.6151       0.6178       0.6226       0.6289       0.6227       0.6356       0.6465       0.6594       0.6742       0.5743       0.5768       0.5819       0.5872       0.5901       0.6014       0.6106       0.6187       0.6116       0.5911     316.0000      35.0000       0.0917
  196.4436   77340.0000      57.9946      57.2040      10.1570       0.6412       0.6479       0.6481       0.6517       0.6644       0.6480       0.6640       0.6734       0.6846       0.7013       0.6063       0.6138       0.6166       0.6161       0.6173       0.6339       0.6495       0.6568       0.6483       0.6328     316.0000      35.0000       0.0917
  196.5960   77400.0000      57.3884      59.1556      10.1428       0.6728       0.6843       0.6878       0.6923       0.7056       0.6676       0.6858       0.6957       0.7058       0.7212       0.6339       0.6507       0.6574       0.6557       0.6563       0.6683       0.6861       0.6895       0.6779       0.6657     316.0004      35.0000       0.0917
  196.7484   77460.0000      56.7944      60.6525      10.1809       0.6969       0.7073       0.7098       0.7166       0.7348       0.6823       0.6956       0.6989       0.7055       0.7227       0.6676       0.6813       0.6872       0.6914       0.7024       0.6900       0.7130       0.7247       0.7155       0.6969     317.0000      35.0000       0.2056
