~VERSION INFORMATION
VERS.           2.0   :CWLS Log ASCII Standard - VERSION 2.0
WRAP.           NO    :One Line per depth step
PROD.  Company   :LAS Producer
PROG.  DLIS to ASCII 12C0-302                          :LAS Program name and version
CREA.        2006/12/02 23:41                          :LAS Creation date {YYYY/MM/DD hh:mm}
SOURCE.     KGIII6-B1_8in_Pilot_DLIS_120-505m_MD_Index.DLIS  :DLIS File Name
FILE-ID.     Run_1                                     :File Identification Number
#--------------------------------------------------
~WELL INFORMATION
#MNEM.UNIT      DATA             DESCRIPTION
#---- ------ --------------   -----------------------------
STRT .M       119.7864       :START DEPTH     
STOP .M       503.9868       :STOP DEPTH     
STEP .M         0.1524       :STEP     
NULL .          -999.25      :NULL VALUE
COMP .        Company      :COMPANY
WELL .        W2                  :WELL
FLD  .        Block                  :FIELD
LOC  .                                                 :LOCATION
CNTY .        Actinia                                  :COUNTY
STAT .        State                           :STATE
CTRY .                                                 :COUNTRY
JOB  .        06INM0159                                :Job NUMBER
UWI  .                                                 :UNIQUE WELL ID
DATE .        02-Dec-2006                              :LOG DATE {DD-MMM-YYYY}
SRVC .        Company                             :SERVICE COMPANY
LATI .DEG     16.276 N                                :LATITUDE
LONG .DEG     82.0962 E                                :LONGITUDE
GDAT .                                                 :GeoDetic Datum
SECT .        8.5 in                                   :Section
#-----------------------------------------------------------------------------
~PARAMETER INFORMATION
#MNEM.UNIT    VALUE                      DESCRIPTION
#---- -----   --------------------       ------------------------
TN1 .        PowerPulse                  :Tool Number 1
TN2 .        ARC                         :Tool Number 2
OS3  .          N/A                      :Other Services Line 3
OS2  .          InterACT                 :Other Services Line 2
OS1  .          Directional Surveys      :Other Services Line 1
MST  .DEGC      20.00000                 :Mud Sample Temperature
BHT  .DEGC      36.00000                 :Bottom Hole Temperature
RMS.OHMM         3.00000                 :Resistivity of Mud Sample (RM)
MST.DEGC        20.00000                 :Mud Sample temperature (RM)
MW.LB/G         11.00000                 :Mud Weight (RM)
SHT.DEGC        20.00000                 :Surface Hole Temperature (RM)
BSAL .PPM     3300.00000                 :Mud Salinity
MRT  .DEGC     67.00000                  :Maximum Recorded Temperature
MCST .DEGC      20.00000                 :Mud Cake Sample Temperature
RMCS .OHMM       4.50000                 :Resistivity of Mud Cake Sample
MFST .DEGC      20.00000                 :Mud Filtrate Sample Temperature
RMFS .OHMM       2.25000                 :Resistivity of Mud Filtrate Sample
MSS  .        Mud Pit                    :Mud Sample Source
MFSS  .       Mud Pit                    :Mud Filtrate Sample Source
MCSS  .       Mud Pit                    :Mud Cake Sample Source
TCS  .         16:00                     :End Log Time
DCS  .         2-Dec-2006                :End Log Date
DFT  .        WBM                        :Drilling Fluid Type
DFPH .           N/A                     :Drilling Fluid PH
DFV  .S       45.00000                   :Drilling Fluid Viscosity
DFD  .LB/G    11.000000                  :Drilling Fluid Density
DOWR .        71/29                      :Oil/Water Ratio
TLAB .        05:00                      :Begin Log Time
DLAB .        2-Dec-2006                 :Begin Log Date
RUN  .        1                          :Run Number
BLI  .M       500.00000                  :Bottom Log Interval
TLI  .M       120.00000                  :Top Log Interval
WITN .        Mr Lindsay                 :Witness's Name
ENGI .        Hatim/Victor/Harsh         :Engineer's Name
LUL  .        Zone 2                     :Logging Unit Location
LUN  .        OLU-KC-0103                :Logging Unit Number
RR2  .        ARC6 Resistivity is environmentally corrected for mud resistivity and bit size. :Remark Line 2
RR1  .        GR is corrected for bit size, tool size and mud weight               :Remark Line 1
PDAT .        Lowest Astronomical Tide   :Permanent Datum
EPD  .M          0.00000                 :Elevation of Permanent Datum
DMF  .        Driller's Depth            :Drilling Measured From
LMF  .        Drill Floor                :Log Measured From
APD  .M         25.60000                 :Above Permanent Datum
EDF  .M         25.60000                 :Elevation of Derrick Floor
EGL  .M        -79.80000                 :Elevation of Ground Level
EKB  .M         25.60000                 :Elevation of Kelly Bushing
TDL  .M        505.00000                 :Total Depth - Logger
TDD  .M        505.00000                 :Total Depth - Driller
MHD  .DEG        0.09000                 :Maximum Hole Deviation
AMD  .DEG      63.350000                 :Azimuth of Maximum Hole Deviation
BS   .IN         8.50                    :Bit Size
BSDT .M        505.00000                 :Bit Size Depth To
BSDF .M        105.00000                 :Bit Size Depth From
#-----------------------------------------------------------------------------
~CURVE INFORMATION
#MNEM.UNIT   API CODE                                  DESCRIPTION
#---- -----  --------                                  -----------------------
DEPT .M                                                :DEPTH (BOREHOLE) {F10.4}
TDEP ..1IN                                             :0.1-ft Frame Depth {F13.4}
ROP5_RM.M/HR                                           :Rate of Penetration, Averaged over Last 5ft {F13.4}
GR_ARC.GAPI                                            :ARC Gamma Ray {F13.4}
ECD_ARC.LB/G                                           :Equivalent Circulating Density {F13.4}
A16H .OHMM                                             :ARC Attenuation Resistivity 16-in. at 2 MHz {F13.4}
A22H .OHMM                                             :ARC Attenuation Resistivity 22-in. at 2 MHz {F13.4}
A28H .OHMM                                             :ARC Attenuation Resistivity 28-in. at 2 MHz {F13.4}
A34H .OHMM                                             :ARC Attenuation Resistivity 34-in. at 2 MHz {F13.4}
A40H .OHMM                                             :ARC Attenuation Resistivity 40-in. at 2 MHz {F13.4}
A16L .OHMM                                             :ARC Attenuation Resistivity 16-in. at 400 KHz {F13.4}
A22L .OHMM                                             :ARC Attenuation Resistivity 22-in. at 400 KHz {F13.4}
A28L .OHMM                                             :ARC Attenuation Resistivity 28-in. at 400 KHz {F13.4}
A34L .OHMM                                             :ARC Attenuation Resistivity 34-in. at 400 KHz {F13.4}
A40L .OHMM                                             :ARC Attenuation Resistivity 40-in. at 400 KHz {F13.4}
P16H .OHMM                                             :ARC Phase-Shift Resistivity 16-in. at 2 MHz {F13.4}
P22H .OHMM                                             :ARC Phase-Shift Resistivity 22-in. at 2 MHz {F13.4}
P28H .OHMM                                             :ARC Phase-Shift Resistivity 28-in. at 2 MHz {F13.4}
P34H .OHMM                                             :ARC Phase-Shift Resistivity 34-in. at 2 MHz {F13.4}
P40H .OHMM                                             :ARC Phase-Shift Resistivity 40-in. at 2 MHz {F13.4}
P16L .OHMM                                             :ARC Phase-Shift Resistivity 16-in. at 400 KHz {F13.4}
P22L .OHMM                                             :ARC Phase-Shift Resistivity 22-in. at 400 KHz {F13.4}
P28L .OHMM                                             :ARC Phase-Shift Resistivity 28-in. at 400 KHz {F13.4}
P34L .OHMM                                             :ARC Phase-Shift Resistivity 34-in. at 400 KHz {F13.4}
P40L .OHMM                                             :ARC Phase-Shift Resistivity 40-in. at 400 KHz {F13.4}
APRS_ARC.PSI                                           :ARC Annular Pressure {F13.4}
ATMP .DEGC                                             :ARC Annular Temperature {F13.4}
TAB_ARC_RES.HR                                         :ARC Resistivity Time After Bit {F13.4}
#-----------------------------------------------------------------------------
# 
#     DEPT        TDEP       ROP5_RM       GR_ARC      ECD_ARC        A16H         A22H         A28H         A34H         A40H         A16L         A22L         A28L         A34L         A40L         P16H         P22H         P28H         P34H         P40H         P16L         P22L         P28L         P34L         P40L       APRS_ARC       ATMP     TAB_ARC_RES
#
~A  
# ...
  270.5100  106500.0000      63.7917      83.8441      11.7138       0.6767       0.6803       0.6804       0.6829       0.6908       0.6681       0.6866       0.6938       0.6932       0.6931       0.6497       0.6547       0.6583       0.6607       0.6633       0.6685       0.6788       0.6859       0.6793       0.6627     494.0000      34.0000       0.0944
  270.6624  106560.0000      64.3233      83.1058      11.7044       0.6780       0.6810       0.6817       0.6847       0.6921       0.6707       0.6861       0.6945       0.6968       0.6978       0.6590       0.6669       0.6730       0.6755       0.6766       0.6770       0.6855       0.6907       0.6830       0.6661     494.0000      34.0000       0.0944
  270.8148  106620.0000      67.8505      84.0532      11.7887       0.6905       0.6932       0.6925       0.6947       0.7030       0.6803       0.6950       0.7055       0.7097       0.7108       0.6672       0.6710       0.6733       0.6770       0.6838       0.6903       0.6966       0.6983       0.6887       0.6724     497.0000      34.0000       0.0944
  270.9672  106680.0000      64.5613      83.6750      11.7475       0.6958       0.6993       0.6996       0.7029       0.7127       0.6834       0.6983       0.7071       0.7118       0.7177       0.6760       0.6835       0.6886       0.6887       0.6864       0.6955       0.7055       0.7094       0.6990       0.6799     496.0008      34.0000       0.0944
  271.1196  106740.0000      61.5915      85.0582      11.7382       0.6958       0.6993       0.6996       0.7029       0.7127       0.6834       0.6983       0.7071       0.7118       0.7177       0.6760       0.6835       0.6886       0.6887       0.6864       0.6955       0.7055       0.7094       0.6990       0.6799     496.0008      34.0000       0.0917
  271.2720  106800.0000      58.0520      85.6267      11.7599       0.7112       0.7135       0.7134       0.7161       0.7235       0.6939       0.7096       0.7177       0.7179       0.7163       0.6939       0.7058       0.7129       0.7151       0.7174       0.7177       0.7215       0.7231       0.7164       0.7037     497.0000      34.0000       0.0917
  271.4244  106860.0000      55.2136      86.6301      11.7195       0.7169       0.7170       0.7168       0.7193       0.7246       0.6959       0.7110       0.7190       0.7211       0.7224       0.7079       0.7121       0.7164       0.7208       0.7254       0.7223       0.7254       0.7263       0.7157       0.6961     496.0000      34.0000       0.0917
  271.5768  106920.0000      54.3491      86.6301      11.7717       0.7161       0.7143       0.7128       0.7145       0.7192       0.6953       0.7074       0.7177       0.7243       0.7280       0.6915       0.6968       0.7004       0.7003       0.6985       0.7158       0.7188       0.7207       0.7137       0.6994     498.0000      34.0000       0.0889
  271.7292  106980.0000      51.2724      86.4401      11.7313       0.7111       0.7113       0.7094       0.7097       0.7139       0.6944       0.7088       0.7191       0.7231       0.7239       0.6884       0.6905       0.6928       0.6960       0.6999       0.7146       0.7172       0.7189       0.7116       0.6962     497.0000      34.0000       0.0889
  271.8816  107040.0000      50.4517      84.7347      11.7530       0.7112       0.7148       0.7146       0.7172       0.7257       0.6920       0.7126       0.7225       0.7201       0.7144       0.6830       0.6877       0.6923       0.6970       0.7020       0.7073       0.7142       0.7182       0.7093       0.6905     498.0000      34.0000       0.0889
  272.0340  107100.0000      48.9400      83.7873      11.7437       0.7082       0.7110       0.7105       0.7120       0.7184       0.6893       0.7062       0.7169       0.7180       0.7156       0.6961       0.6991       0.7024       0.7080       0.7158       0.7136       0.7162       0.7180       0.7114       0.6971     498.0000      34.0000       0.0917
  272.1864  107160.0000      47.7973      83.9016      11.7338       0.7079       0.7085       0.7084       0.7117       0.7189       0.6893       0.7102       0.7243       0.7249       0.7186       0.6883       0.6919       0.6944       0.6970       0.7010       0.7079       0.7120       0.7155       0.7089       0.6930     498.0000      34.0000       0.0944
  272.3388  107220.0000      47.7921      86.0608      11.7555       0.7031       0.7056       0.7065       0.7107       0.7195       0.6875       0.7040       0.7102       0.7125       0.7197       0.6790       0.6840       0.6850       0.6863       0.6922       0.7022       0.7057       0.7075       0.7009       0.6875     499.0000      34.0000       0.0944
  272.4912  107280.0000      48.3796      86.3639      11.7462       0.6993       0.7025       0.7031       0.7052       0.7110       0.6832       0.6999       0.7130       0.7145       0.7103       0.6853       0.6920       0.6951       0.6971       0.7018       0.7044       0.7063       0.7072       0.7007       0.6879     499.0000      34.0000       0.0944
  272.6436  107340.0000      48.8104      86.3639      11.7369       0.6951       0.6961       0.6961       0.6984       0.7040       0.6831       0.7002       0.7105       0.7118       0.7119       0.6742       0.6764       0.6761       0.6765       0.6805       0.6967       0.6989       0.7014       0.6965       0.6836     498.9992      34.0000       0.0944
  272.7960  107400.0000      49.5181      85.3417      11.6961       0.6921       0.6969       0.6974       0.6982       0.7036       0.6858       0.7012       0.7090       0.7120       0.7174       0.6577       0.6629       0.6649       0.6648       0.6659       0.6863       0.6922       0.6937       0.6854       0.6717     498.0000      34.0000       0.0944
  272.9484  107460.0000      50.4288      86.2891      11.6560       0.6940       0.6994       0.7005       0.7035       0.7129       0.6784       0.6968       0.7074       0.7102       0.7121       0.6900       0.6950       0.6962       0.6959       0.6981       0.6983       0.7050       0.7091       0.7044       0.6934     497.0000      34.0000       0.0944
  273.1008  107520.0000      51.8638      85.6635      11.7085       0.6989       0.7041       0.7041       0.7049       0.7111       0.6796       0.6974       0.7062       0.7082       0.7115       0.6896       0.6966       0.6990       0.6996       0.7033       0.7047       0.7096       0.7133       0.7079       0.6945     499.0000      34.0000       0.0944
  273.2532  107580.0000      53.0077      85.0950      11.6993       0.6992       0.7015       0.7018       0.7025       0.7058       0.6785       0.6988       0.7110       0.7106       0.7067       0.6947       0.6994       0.7017       0.7021       0.7033       0.7050       0.7081       0.7094       0.7029       0.6904     499.0008      34.0000       0.0944
  273.4056  107640.0000      53.9903      82.8213      11.7203       0.6983       0.7014       0.7034       0.7058       0.7097       0.6807       0.6973       0.7057       0.7066       0.7072       0.6906       0.6929       0.6944       0.6952       0.6961       0.7014       0.7066       0.7075       0.6980       0.6823     500.0000      34.0000       0.0944
  273.5580  107700.0000      55.0630      80.4910      11.7111       0.6930       0.6929       0.6926       0.6952       0.7009       0.6795       0.6929       0.6991       0.7000       0.7007       0.6769       0.6825       0.6851       0.6853       0.6860       0.6948       0.6978       0.6990       0.6930       0.6815     500.0000      33.0000       0.0944
  273.7104  107760.0000      56.0155      77.9709      11.7326       0.6903       0.6908       0.6907       0.6915       0.6938       0.6747       0.6897       0.6977       0.7001       0.7021       0.6772       0.6788       0.6801       0.6789       0.6754       0.6943       0.6962       0.6975       0.6899       0.6746     501.0000      33.0000       0.0944
  273.8628  107820.0000      57.6796      76.2845      11.7234       0.6820       0.6863       0.6881       0.6886       0.6902       0.6716       0.6868       0.6950       0.6971       0.6981       0.6661       0.6699       0.6726       0.6734       0.6737       0.6827       0.6897       0.6938       0.6862       0.6704     501.0000      33.0000       0.0944
