~VERSION INFORMATION
VERS.           2.0   :CWLS Log ASCII Standard - VERSION 2.0
WRAP.           NO    :One Line per depth step
PROD.  Company   :LAS Producer
PROG.  DLIS to ASCII 12C0-302                          :LAS Program name and version
CREA.        2006/12/02 23:41                          :LAS Creation date {YYYY/MM/DD hh:mm}
SOURCE.     KGIII6-B1_8in_Pilot_DLIS_120-505m_MD_Index.DLIS  :DLIS File Name
FILE-ID.     Run_1                                     :File Identification Number
#--------------------------------------------------
~WELL INFORMATION
#MNEM.UNIT      DATA             DESCRIPTION
#---- ------ --------------   -----------------------------
STRT .M       119.7864       :START DEPTH     
STOP .M       503.9868       :STOP DEPTH     
STEP .M         0.1524       :STEP     
NULL .          -999.25      :NULL VALUE
COMP .        Company      :COMPANY
WELL .        W2                  :WELL
FLD  .        Block                  :FIELD
LOC  .                                                 :LOCATION
CNTY .        Actinia                                  :COUNTY
STAT .        State                           :STATE
CTRY .                                                 :COUNTRY
JOB  .        06INM0159                                :Job NUMBER
UWI  .                                                 :UNIQUE WELL ID
DATE .        02-Dec-2006                              :LOG DATE {DD-MMM-YYYY}
SRVC .        Company                             :SERVICE COMPANY
LATI .DEG     16.276 N                                :LATITUDE
LONG .DEG     82.0962 E                                :LONGITUDE
GDAT .                                                 :GeoDetic Datum
SECT .        8.5 in                                   :Section
#-----------------------------------------------------------------------------
~PARAMETER INFORMATION
#MNEM.UNIT    VALUE                      DESCRIPTION
#---- -----   --------------------       ------------------------
TN1 .        PowerPulse                  :Tool Number 1
TN2 .        ARC                         :Tool Number 2
OS3  .          N/A                      :Other Services Line 3
OS2  .          InterACT                 :Other Services Line 2
OS1  .          Directional Surveys      :Other Services Line 1
MST  .DEGC      20.00000                 :Mud Sample Temperature
BHT  .DEGC      36.00000                 :Bottom Hole Temperature
RMS.OHMM         3.00000                 :Resistivity of Mud Sample (RM)
MST.DEGC        20.00000                 :Mud Sample temperature (RM)
MW.LB/G         11.00000                 :Mud Weight (RM)
SHT.DEGC        20.00000                 :Surface Hole Temperature (RM)
BSAL .PPM     3300.00000                 :Mud Salinity
MRT  .DEGC     67.00000                  :Maximum Recorded Temperature
MCST .DEGC      20.00000                 :Mud Cake Sample Temperature
RMCS .OHMM       4.50000                 :Resistivity of Mud Cake Sample
MFST .DEGC      20.00000                 :Mud Filtrate Sample Temperature
RMFS .OHMM       2.25000                 :Resistivity of Mud Filtrate Sample
MSS  .        Mud Pit                    :Mud Sample Source
MFSS  .       Mud Pit                    :Mud Filtrate Sample Source
MCSS  .       Mud Pit                    :Mud Cake Sample Source
TCS  .         16:00                     :End Log Time
DCS  .         2-Dec-2006                :End Log Date
DFT  .        WBM                        :Drilling Fluid Type
DFPH .           N/A                     :Drilling Fluid PH
DFV  .S       45.00000                   :Drilling Fluid Viscosity
DFD  .LB/G    11.000000                  :Drilling Fluid Density
DOWR .        71/29                      :Oil/Water Ratio
TLAB .        05:00                      :Begin Log Time
DLAB .        2-Dec-2006                 :Begin Log Date
RUN  .        1                          :Run Number
BLI  .M       500.00000                  :Bottom Log Interval
TLI  .M       120.00000                  :Top Log Interval
WITN .        Mr Lindsay                 :Witness's Name
ENGI .        Hatim/Victor/Harsh         :Engineer's Name
LUL  .        Zone 2                     :Logging Unit Location
LUN  .        OLU-KC-0103                :Logging Unit Number
RR2  .        ARC6 Resistivity is environmentally corrected for mud resistivity and bit size. :Remark Line 2
RR1  .        GR is corrected for bit size, tool size and mud weight               :Remark Line 1
PDAT .        Lowest Astronomical Tide   :Permanent Datum
EPD  .M          0.00000                 :Elevation of Permanent Datum
DMF  .        Driller's Depth            :Drilling Measured From
LMF  .        Drill Floor                :Log Measured From
APD  .M         25.60000                 :Above Permanent Datum
EDF  .M         25.60000                 :Elevation of Derrick Floor
EGL  .M        -79.80000                 :Elevation of Ground Level
EKB  .M         25.60000                 :Elevation of Kelly Bushing
TDL  .M        505.00000                 :Total Depth - Logger
TDD  .M        505.00000                 :Total Depth - Driller
MHD  .DEG        0.09000                 :Maximum Hole Deviation
AMD  .DEG      63.350000                 :Azimuth of Maximum Hole Deviation
BS   .IN         8.50                    :Bit Size
BSDT .M        505.00000                 :Bit Size Depth To
BSDF .M        105.00000                 :Bit Size Depth From
#-----------------------------------------------------------------------------
~CURVE INFORMATION
#MNEM.UNIT   API CODE                                  DESCRIPTION
#---- -----  --------                                  -----------------------
DEPT .M                                                :DEPTH (BOREHOLE) {F10.4}
TDEP ..1IN                                             :0.1-ft Frame Depth {F13.4}
ROP5_RM.M/HR                                           :Rate of Penetration, Averaged over Last 5ft {F13.4}
GR_ARC.GAPI                                            :ARC Gamma Ray {F13.4}
ECD_ARC.LB/G                                           :Equivalent Circulating Density {F13.4}
A16H .OHMM                                             :ARC Attenuation Resistivity 16-in. at 2 MHz {F13.4}
A22H .OHMM                                             :ARC Attenuation Resistivity 22-in. at 2 MHz {F13.4}
A28H .OHMM                                             :ARC Attenuation Resistivity 28-in. at 2 MHz {F13.4}
A34H .OHMM                                             :ARC Attenuation Resistivity 34-in. at 2 MHz {F13.4}
A40H .OHMM                                             :ARC Attenuation Resistivity 40-in. at 2 MHz {F13.4}
A16L .OHMM                                             :ARC Attenuation Resistivity 16-in. at 400 KHz {F13.4}
A22L .OHMM                                             :ARC Attenuation Resistivity 22-in. at 400 KHz {F13.4}
A28L .OHMM                                             :ARC Attenuation Resistivity 28-in. at 400 KHz {F13.4}
A34L .OHMM                                             :ARC Attenuation Resistivity 34-in. at 400 KHz {F13.4}
A40L .OHMM                                             :ARC Attenuation Resistivity 40-in. at 400 KHz {F13.4}
P16H .OHMM                                             :ARC Phase-Shift Resistivity 16-in. at 2 MHz {F13.4}
P22H .OHMM                                             :ARC Phase-Shift Resistivity 22-in. at 2 MHz {F13.4}
P28H .OHMM                                             :ARC Phase-Shift Resistivity 28-in. at 2 MHz {F13.4}
P34H .OHMM                                             :ARC Phase-Shift Resistivity 34-in. at 2 MHz {F13.4}
P40H .OHMM                                             :ARC Phase-Shift Resistivity 40-in. at 2 MHz {F13.4}
P16L .OHMM                                             :ARC Phase-Shift Resistivity 16-in. at 400 KHz {F13.4}
P22L .OHMM                                             :ARC Phase-Shift Resistivity 22-in. at 400 KHz {F13.4}
P28L .OHMM                                             :ARC Phase-Shift Resistivity 28-in. at 400 KHz {F13.4}
P34L .OHMM                                             :ARC Phase-Shift Resistivity 34-in. at 400 KHz {F13.4}
P40L .OHMM                                             :ARC Phase-Shift Resistivity 40-in. at 400 KHz {F13.4}
APRS_ARC.PSI                                           :ARC Annular Pressure {F13.4}
ATMP .DEGC                                             :ARC Annular Temperature {F13.4}
TAB_ARC_RES.HR                                         :ARC Resistivity Time After Bit {F13.4}
#-----------------------------------------------------------------------------
# 
#     DEPT        TDEP       ROP5_RM       GR_ARC      ECD_ARC        A16H         A22H         A28H         A34H         A40H         A16L         A22L         A28L         A34L         A40L         P16H         P22H         P28H         P34H         P40H         P16L         P22L         P28L         P34L         P40L       APRS_ARC       ATMP     TAB_ARC_RES
#
~A  
  119.7864   47160.0000      18.0077      51.4627       5.8211       0.4802       0.4843       0.4872       0.4882       0.4884       0.4937       0.5096       0.5245       0.5451       0.5716       0.4731       0.4788       0.4819       0.4905       0.5081       0.4821       0.4943       0.5021       0.4992       0.4901     156.0000      28.0000       0.0139
  119.9388   47220.0000      40.6095      51.1595       5.7976       0.4802       0.4843       0.4872       0.4882       0.4884       0.4937       0.5096       0.5245       0.5451       0.5716       0.4731       0.4788       0.4819       0.4905       0.5081       0.4821       0.4943       0.5021       0.4992       0.4901     156.0000      28.0000       0.0111
  120.0912   47280.0000      78.2055      51.1595       5.7743       0.4802       0.4843       0.4872       0.4882       0.4884       0.4937       0.5096       0.5245       0.5451       0.5716       0.4731       0.4788       0.4819       0.4905       0.5081       0.4821       0.4943       0.5021       0.4992       0.4901     156.0000      28.0000       0.0111
  120.2436   47340.0000     115.8015      51.1595       5.7511       0.4802       0.4843       0.4872       0.4882       0.4884       0.4937       0.5096       0.5245       0.5451       0.5716       0.4731       0.4788       0.4819       0.4905       0.5081       0.4821       0.4943       0.5021       0.4992       0.4901     156.0000      28.0000       0.0111
  120.3960   47400.0000     153.3975      51.1595       5.7267       0.4802       0.4843       0.4872       0.4882       0.4884       0.4937       0.5096       0.5245       0.5451       0.5716       0.4731       0.4788       0.4819       0.4905       0.5081       0.4821       0.4943       0.5021       0.4992       0.4901     156.0000      28.0000       0.0111
  120.5484   47460.0000     190.9935      51.1595       6.4812       0.4802       0.4843       0.4872       0.4882       0.4884       0.4937       0.5096       0.5245       0.5451       0.5716       0.4731       0.4788       0.4819       0.4905       0.5081       0.4821       0.4943       0.5021       0.4992       0.4901     161.0000      28.0000       0.0111
  120.7008   47520.0000     228.5895      51.1595       6.4555       0.4802       0.4843       0.4872       0.4882       0.4884       0.4937       0.5096       0.5245       0.5451       0.5716       0.4731       0.4788       0.4819       0.4905       0.5081       0.4821       0.4943       0.5021       0.4992       0.4901     161.0000      28.0000       0.0111
  120.8532   47580.0000     266.1855      54.1154       6.4301       0.4802       0.4843       0.4872       0.4882       0.4884       0.4937       0.5096       0.5245       0.5451       0.5716       0.4731       0.4788       0.4819       0.4905       0.5081       0.4821       0.4943       0.5021       0.4992       0.4901     161.0000      28.0000       0.0111
  121.0056   47640.0000     297.9086      57.0713       6.4031       0.4802       0.4843       0.4872       0.4882       0.4884       0.4937       0.5096       0.5245       0.5451       0.5716       0.4731       0.4788       0.4819       0.4905       0.5081       0.4821       0.4943       0.5021       0.4992       0.4901     161.0000      28.0000       0.0083
  121.1580   47700.0000     320.8226      60.0272       6.3781       0.5618       0.5659       0.5704       0.5791       0.5912       0.5539       0.5628       0.5708       0.5833       0.5995       0.5311       0.5472       0.5575       0.5639       0.5733       0.5553       0.5650       0.5698       0.5664       0.5598     161.0000      28.0000       0.0111
  121.3104   47760.0000     343.7365      60.0272       6.3532       0.5618       0.5659       0.5704       0.5791       0.5912       0.5539       0.5628       0.5708       0.5833       0.5995       0.5311       0.5472       0.5575       0.5639       0.5733       0.5553       0.5650       0.5698       0.5664       0.5598     161.0000      28.0000       0.0111
  121.4628   47820.0000     366.6505      60.0272       6.3286       0.5618       0.5659       0.5704       0.5791       0.5912       0.5539       0.5628       0.5708       0.5833       0.5995       0.5311       0.5472       0.5575       0.5639       0.5733       0.5553       0.5650       0.5698       0.5664       0.5598     161.0000      28.0000       0.0111
  121.6152   47880.0000     389.5644      60.0272       6.3025       0.5618       0.5659       0.5704       0.5791       0.5912       0.5539       0.5628       0.5708       0.5833       0.5995       0.5311       0.5472       0.5575       0.5639       0.5733       0.5553       0.5650       0.5698       0.5664       0.5598     161.0000      28.0000       0.0111
  121.7676   47940.0000     412.4784      60.0272       6.2783       0.5618       0.5659       0.5704       0.5791       0.5912       0.5539       0.5628       0.5708       0.5833       0.5995       0.5311       0.5472       0.5575       0.5639       0.5733       0.5553       0.5650       0.5698       0.5664       0.5598     161.0000      28.0000       0.0111
  121.9200   48000.0000     435.3923      60.0272       6.2542       0.5618       0.5659       0.5704       0.5791       0.5912       0.5539       0.5628       0.5708       0.5833       0.5995       0.5311       0.5472       0.5575       0.5639       0.5733       0.5553       0.5650       0.5698       0.5664       0.5598     161.0000      28.0000       0.0111
  122.0724   48060.0000     458.3063      60.0272       6.2303       0.5618       0.5659       0.5704       0.5791       0.5912       0.5539       0.5628       0.5708       0.5833       0.5995       0.5311       0.5472       0.5575       0.5639       0.5733       0.5553       0.5650       0.5698       0.5664       0.5598     161.0000      28.0000       0.0111
  122.2248   48120.0000     481.2202      60.0272       6.2066       0.5618       0.5659       0.5704       0.5791       0.5912       0.5539       0.5628       0.5708       0.5833       0.5995       0.5311       0.5472       0.5575       0.5639       0.5733       0.5553       0.5650       0.5698       0.5664       0.5598     161.0000      28.0000       0.0111
  122.3772   48180.0000     504.1342      60.0272       6.1815       0.5618       0.5659       0.5704       0.5791       0.5912       0.5539       0.5628       0.5708       0.5833       0.5995       0.5311       0.5472       0.5575       0.5639       0.5733       0.5553       0.5650       0.5698       0.5664       0.5598     161.0000      28.0000       0.0111
  122.5296   48240.0000     514.3157      59.9711       6.1582       0.5618       0.5659       0.5704       0.5791       0.5912       0.5539       0.5628       0.5708       0.5833       0.5995       0.5311       0.5472       0.5575       0.5639       0.5733       0.5553       0.5650       0.5698       0.5664       0.5598     161.0000      28.0000       0.0083
  122.6820   48300.0000     521.3140      61.6196       6.1350       0.5555       0.5600       0.5655       0.5700       0.5722       0.5600       0.5728       0.5813       0.5941       0.6127       0.5423       0.5522       0.5528       0.5530       0.5626       0.5623       0.5721       0.5801       0.5763       0.5629     161.0000      28.0000       0.0111
  122.8344   48360.0000     528.3124      63.2681       6.1120       0.5662       0.5791       0.5876       0.5933       0.5998       0.5786       0.5965       0.6099       0.6260       0.6460       0.4753       0.4909       0.5028       0.5115       0.5220       0.5378       0.5541       0.5643       0.5603       0.5488     161.0000      28.0000       0.0139
  122.9868   48420.0000     535.3108      64.0820       6.0877       0.5650       0.5837       0.5921       0.5970       0.6078       0.5780       0.5961       0.6074       0.6184       0.6327       0.4945       0.5091       0.5163       0.5230       0.5377       0.5422       0.5629       0.5756       0.5753       0.5701     161.0000      28.0000       0.0167
  123.1392   48480.0000     542.3092      62.5093       6.0650       0.5704       0.5813       0.5880       0.5940       0.6029       0.5695       0.5897       0.6027       0.6153       0.6310       0.5272       0.5413       0.5599       0.5807       0.6000       0.5644       0.5789       0.5887       0.5841       0.5704     161.0000      28.0000       0.0194
