~VERSION INFORMATION
VERS.           2.0   :CWLS Log ASCII Standard - VERSION 2.0
WRAP.           NO    :One Line per depth step
PROD.  Company   :LAS Producer
PROG.  DLIS to ASCII 12C0-302                          :LAS Program name and version
CREA.        2006/12/02 23:41                          :LAS Creation date {YYYY/MM/DD hh:mm}
SOURCE.     KGIII6-B1_8in_Pilot_DLIS_120-505m_MD_Index.DLIS  :DLIS File Name
FILE-ID.     Run_1                                     :File Identification Number
#--------------------------------------------------
~WELL INFORMATION
#MNEM.UNIT      DATA             DESCRIPTION
#---- ------ --------------   -----------------------------
STRT .M       119.7864       :START DEPTH     
STOP .M       503.9868       :STOP DEPTH     
STEP .M         0.1524       :STEP     
NULL .          -999.25      :NULL VALUE
COMP .        Company      :COMPANY
WELL .        W2                  :WELL
FLD  .        Block                  :FIELD
LOC  .                                                 :LOCATION
CNTY .        Actinia                                  :COUNTY
STAT .        State                           :STATE
CTRY .                                                 :COUNTRY
JOB  .        06INM0159                                :Job NUMBER
UWI  .                                                 :UNIQUE WELL ID
DATE .        02-Dec-2006                              :LOG DATE {DD-MMM-YYYY}
SRVC .        Company                             :SERVICE COMPANY
LATI .DEG     16.276 N                                :LATITUDE
LONG .DEG     82.0962 E                                :LONGITUDE
GDAT .                                                 :GeoDetic Datum
SECT .        8.5 in                                   :Section
#-----------------------------------------------------------------------------
~PARAMETER INFORMATION
#MNEM.UNIT    VALUE                      DESCRIPTION
#---- -----   --------------------       ------------------------
TN1 .        PowerPulse                  :Tool Number 1
TN2 .        ARC                         :Tool Number 2
OS3  .          N/A                      :Other Services Line 3
OS2  .          InterACT                 :Other Services Line 2
OS1  .          Directional Surveys      :Other Services Line 1
MST  .DEGC      20.00000                 :Mud Sample Temperature
BHT  .DEGC      36.00000                 :Bottom Hole Temperature
RMS.OHMM         3.00000                 :Resistivity of Mud Sample (RM)
MST.DEGC        20.00000                 :Mud Sample temperature (RM)
MW.LB/G         11.00000                 :Mud Weight (RM)
SHT.DEGC        20.00000                 :Surface Hole Temperature (RM)
BSAL .PPM     3300.00000                 :Mud Salinity
MRT  .DEGC     67.00000                  :Maximum Recorded Temperature
MCST .DEGC      20.00000                 :Mud Cake Sample Temperature
RMCS .OHMM       4.50000                 :Resistivity of Mud Cake Sample
MFST .DEGC      20.00000                 :Mud Filtrate Sample Temperature
RMFS .OHMM       2.25000                 :Resistivity of Mud Filtrate Sample
MSS  .        Mud Pit                    :Mud Sample Source
MFSS  .       Mud Pit                    :Mud Filtrate Sample Source
MCSS  .       Mud Pit                    :Mud Cake Sample Source
TCS  .         16:00                     :End Log Time
DCS  .         2-Dec-2006                :End Log Date
DFT  .        WBM                        :Drilling Fluid Type
DFPH .           N/A                     :Drilling Fluid PH
DFV  .S       45.00000                   :Drilling Fluid Viscosity
DFD  .LB/G    11.000000                  :Drilling Fluid Density
DOWR .        71/29                      :Oil/Water Ratio
TLAB .        05:00                      :Begin Log Time
DLAB .        2-Dec-2006                 :Begin Log Date
RUN  .        1                          :Run Number
BLI  .M       500.00000                  :Bottom Log Interval
TLI  .M       120.00000                  :Top Log Interval
WITN .        Mr Lindsay                 :Witness's Name
ENGI .        Hatim/Victor/Harsh         :Engineer's Name
LUL  .        Zone 2                     :Logging Unit Location
LUN  .        OLU-KC-0103                :Logging Unit Number
RR2  .        ARC6 Resistivity is environmentally corrected for mud resistivity and bit size. :Remark Line 2
RR1  .        GR is corrected for bit size, tool size and mud weight               :Remark Line 1
PDAT .        Lowest Astronomical Tide   :Permanent Datum
EPD  .M          0.00000                 :Elevation of Permanent Datum
DMF  .        Driller's Depth            :Drilling Measured From
LMF  .        Drill Floor                :Log Measured From
APD  .M         25.60000                 :Above Permanent Datum
EDF  .M         25.60000                 :Elevation of Derrick Floor
EGL  .M        -79.80000                 :Elevation of Ground Level
EKB  .M         25.60000                 :Elevation of Kelly Bushing
TDL  .M        505.00000                 :Total Depth - Logger
TDD  .M        505.00000                 :Total Depth - Driller
MHD  .DEG        0.09000                 :Maximum Hole Deviation
AMD  .DEG      63.350000                 :Azimuth of Maximum Hole Deviation
BS   .IN         8.50                    :Bit Size
BSDT .M        505.00000                 :Bit Size Depth To
BSDF .M        105.00000                 :Bit Size Depth From
#-----------------------------------------------------------------------------
~CURVE INFORMATION
#MNEM.UNIT   API CODE                                  DESCRIPTION
#---- -----  --------                                  -----------------------
DEPT .M                                                :DEPTH (BOREHOLE) {F10.4}
TDEP ..1IN                                             :0.1-ft Frame Depth {F13.4}
ROP5_RM.M/HR                                           :Rate of Penetration, Averaged over Last 5ft {F13.4}
GR_ARC.GAPI                                            :ARC Gamma Ray {F13.4}
ECD_ARC.LB/G                                           :Equivalent Circulating Density {F13.4}
A16H .OHMM                                             :ARC Attenuation Resistivity 16-in. at 2 MHz {F13.4}
A22H .OHMM                                             :ARC Attenuation Resistivity 22-in. at 2 MHz {F13.4}
A28H .OHMM                                             :ARC Attenuation Resistivity 28-in. at 2 MHz {F13.4}
A34H .OHMM                                             :ARC Attenuation Resistivity 34-in. at 2 MHz {F13.4}
A40H .OHMM                                             :ARC Attenuation Resistivity 40-in. at 2 MHz {F13.4}
A16L .OHMM                                             :ARC Attenuation Resistivity 16-in. at 400 KHz {F13.4}
A22L .OHMM                                             :ARC Attenuation Resistivity 22-in. at 400 KHz {F13.4}
A28L .OHMM                                             :ARC Attenuation Resistivity 28-in. at 400 KHz {F13.4}
A34L .OHMM                                             :ARC Attenuation Resistivity 34-in. at 400 KHz {F13.4}
A40L .OHMM                                             :ARC Attenuation Resistivity 40-in. at 400 KHz {F13.4}
P16H .OHMM                                             :ARC Phase-Shift Resistivity 16-in. at 2 MHz {F13.4}
P22H .OHMM                                             :ARC Phase-Shift Resistivity 22-in. at 2 MHz {F13.4}
P28H .OHMM                                             :ARC Phase-Shift Resistivity 28-in. at 2 MHz {F13.4}
P34H .OHMM                                             :ARC Phase-Shift Resistivity 34-in. at 2 MHz {F13.4}
P40H .OHMM                                             :ARC Phase-Shift Resistivity 40-in. at 2 MHz {F13.4}
P16L .OHMM                                             :ARC Phase-Shift Resistivity 16-in. at 400 KHz {F13.4}
P22L .OHMM                                             :ARC Phase-Shift Resistivity 22-in. at 400 KHz {F13.4}
P28L .OHMM                                             :ARC Phase-Shift Resistivity 28-in. at 400 KHz {F13.4}
P34L .OHMM                                             :ARC Phase-Shift Resistivity 34-in. at 400 KHz {F13.4}
P40L .OHMM                                             :ARC Phase-Shift Resistivity 40-in. at 400 KHz {F13.4}
APRS_ARC.PSI                                           :ARC Annular Pressure {F13.4}
ATMP .DEGC                                             :ARC Annular Temperature {F13.4}
TAB_ARC_RES.HR                                         :ARC Resistivity Time After Bit {F13.4}
#-----------------------------------------------------------------------------
# 
#     DEPT        TDEP       ROP5_RM       GR_ARC      ECD_ARC        A16H         A22H         A28H         A34H         A40H         A16L         A22L         A28L         A34L         A40L         P16H         P22H         P28H         P34H         P40H         P16L         P22L         P28L         P34L         P40L       APRS_ARC       ATMP     TAB_ARC_RES
#
~A  
# ...
  368.6556  145140.0000      59.5687      97.1249      11.9823       0.8271       0.8309       0.8339       0.8385       0.8449       0.7910       0.8240       0.8421       0.8424       0.8349       0.8096       0.8219       0.8261       0.8247       0.8264       0.8290       0.8377       0.8414       0.8335       0.8189     703.0000      34.0000       0.1083
  368.8080  145200.0000      58.1971      88.5226      11.9760       0.8374       0.8393       0.8410       0.8460       0.8538       0.8046       0.8317       0.8475       0.8431       0.8269       0.8308       0.8421       0.8497       0.8534       0.8570       0.8448       0.8530       0.8590       0.8538       0.8396     703.0008      34.0000       0.1083
  368.9604  145260.0000      55.7251      86.4407      11.9902       0.8451       0.8436       0.8446       0.8525       0.8649       0.8128       0.8367       0.8524       0.8543       0.8474       0.8208       0.8283       0.8356       0.8415       0.8464       0.8378       0.8499       0.8588       0.8486       0.8233     704.0000      34.0000       0.1111
  369.1128  145320.0000      53.7683      88.2597      11.9840       0.8385       0.8415       0.8435       0.8468       0.8518       0.8149       0.8389       0.8504       0.8453       0.8331       0.8148       0.8276       0.8397       0.8460       0.8471       0.8453       0.8492       0.8502       0.8387       0.8182     704.0000      34.0000       0.1111
  369.2652  145380.0000      51.9482      88.3354      12.0182       0.8428       0.8420       0.8410       0.8438       0.8503       0.8147       0.8437       0.8594       0.8544       0.8389       0.8211       0.8315       0.8366       0.8345       0.8307       0.8450       0.8512       0.8524       0.8421       0.8257     706.0000      34.0000       0.1111
  369.4176  145440.0000      51.6483      85.9480      12.0119       0.8399       0.8403       0.8385       0.8374       0.8389       0.8152       0.8432       0.8575       0.8564       0.8492       0.8286       0.8351       0.8389       0.8365       0.8309       0.8423       0.8521       0.8572       0.8438       0.8172     706.0000      34.0000       0.1083
  369.5700  145500.0000      47.2829      82.7268      12.0057       0.8525       0.8667       0.8703       0.8723       0.8818       0.8240       0.8555       0.8670       0.8645       0.8618       0.7669       0.7858       0.8002       0.8051       0.8053       0.8237       0.8414       0.8511       0.8439       0.8281     706.0000      34.0000       0.1056
  369.7224  145560.0000      43.0392      81.1352      11.9994       0.8632       0.8762       0.8783       0.8807       0.8927       0.8320       0.8616       0.8708       0.8611       0.8479       0.7795       0.8130       0.8313       0.8385       0.8520       0.8418       0.8673       0.8768       0.8681       0.8568     706.0000      34.0000       0.1028
  369.8748  145620.0000      41.7132      81.6265      11.9931       0.8897       0.8875       0.8834       0.8831       0.8882       0.8287       0.8568       0.8724       0.8704       0.8598       0.9134       0.9215       0.9285       0.9302       0.9278       0.9064       0.9105       0.9100       0.8937       0.8671     706.0000      34.0000       0.1056
  370.0272  145680.0000      41.2543      80.3001      11.9864       0.8766       0.8736       0.8732       0.8764       0.8807       0.8391       0.8581       0.8673       0.8633       0.8532       0.8460       0.8570       0.8643       0.8655       0.8647       0.8687       0.8794       0.8858       0.8712       0.8411     706.0000      34.0000       0.1056
  370.1796  145740.0000      41.3806      79.7317      12.0006       0.8650       0.8674       0.8673       0.8703       0.8784       0.8249       0.8499       0.8622       0.8603       0.8531       0.8114       0.8224       0.8284       0.8283       0.8274       0.8468       0.8578       0.8599       0.8490       0.8338     707.0000      34.0000       0.1056
  370.3320  145800.0000      42.0060      78.5394      12.0147       0.8619       0.8671       0.8662       0.8663       0.8725       0.8244       0.8450       0.8587       0.8535       0.8352       0.8197       0.8386       0.8467       0.8475       0.8526       0.8482       0.8611       0.8678       0.8573       0.8363     708.0000      34.0000       0.1056
  370.4844  145860.0000      42.6303      79.5436      11.9881       0.8377       0.8390       0.8419       0.8452       0.8471       0.8039       0.8290       0.8426       0.8362       0.8188       0.8448       0.8515       0.8602       0.8602       0.8496       0.8390       0.8447       0.8503       0.8395       0.8134     707.0000      34.0000       0.1056
  370.6368  145920.0000      43.3576      82.0085      12.0222       0.8378       0.8386       0.8410       0.8448       0.8482       0.8002       0.8295       0.8434       0.8382       0.8256       0.7654       0.7733       0.7810       0.7842       0.7829       0.8065       0.8157       0.8205       0.8075       0.7819     709.0000      34.0000       0.1056
  370.7892  145980.0000      44.0136      86.3665      11.9752       0.7987       0.8041       0.8056       0.8094       0.8188       0.7795       0.8088       0.8229       0.8229       0.8188       0.7612       0.7719       0.7761       0.7782       0.7852       0.7905       0.8012       0.8072       0.7990       0.7817     707.0000      34.0000       0.1056
  370.9416  146040.0000      44.2500      91.4824      11.9689       0.7966       0.8002       0.8027       0.8071       0.8140       0.7758       0.8095       0.8322       0.8335       0.8206       0.7616       0.7739       0.7796       0.7768       0.7726       0.7867       0.8004       0.8075       0.7984       0.7800     707.0000      34.0000       0.1056
  371.0940  146100.0000      48.6216      92.4851      11.9627       0.7938       0.8079       0.8146       0.8193       0.8280       0.7738       0.8074       0.8240       0.8254       0.8228       0.7399       0.7589       0.7693       0.7730       0.7792       0.7743       0.7954       0.8075       0.7995       0.7807     707.0000      34.0000       0.1056
  371.2464  146160.0000      51.1798      89.6416      11.9764       0.7957       0.8081       0.8144       0.8192       0.8276       0.7746       0.8074       0.8228       0.8229       0.8191       0.7420       0.7601       0.7704       0.7718       0.7727       0.7748       0.7930       0.8030       0.7986       0.7877     708.0000      34.0000       0.1056
  371.3988  146220.0000      51.2813      83.9572      11.9702       0.8098       0.8123       0.8137       0.8179       0.8256       0.7746       0.8043       0.8207       0.8205       0.8125       0.7981       0.8102       0.8178       0.8218       0.8272       0.8115       0.8196       0.8239       0.8162       0.8003     708.0000      34.0000       0.1056
  371.5512  146280.0000      50.3082      82.5740      11.9843       0.8242       0.8265       0.8262       0.8312       0.8432       0.7941       0.8170       0.8301       0.8314       0.8269       0.8114       0.8195       0.8251       0.8248       0.8212       0.8252       0.8365       0.8413       0.8304       0.8106     708.9992      34.0000       0.1056
  371.7036  146340.0000      48.1819      83.2006      11.9578       0.8214       0.8245       0.8233       0.8258       0.8356       0.7924       0.8178       0.8290       0.8269       0.8213       0.7910       0.8030       0.8071       0.8063       0.8088       0.8172       0.8262       0.8280       0.8181       0.8036     708.0000      34.0000       0.1056
  371.8560  146400.0000      47.7127      87.7481      12.0121       0.8483       0.8501       0.8491       0.8511       0.8581       0.8033       0.8265       0.8366       0.8357       0.8327       0.8130       0.8303       0.8396       0.8421       0.8463       0.8329       0.8497       0.8561       0.8446       0.8257     711.0000      34.0000       0.1028
  372.0084  146460.0000      46.4569      90.4008      12.0261       0.8409       0.8448       0.8423       0.8432       0.8529       0.7986       0.8269       0.8397       0.8338       0.8208       0.8117       0.8268       0.8366       0.8407       0.8449       0.8386       0.8498       0.8532       0.8420       0.8242     712.0000      34.0000       0.1028
