~VERSION INFORMATION
VERS.           2.0   :CWLS Log ASCII Standard - VERSION 2.0
WRAP.           NO    :One Line per depth step
PROD.  Company   :LAS Producer
PROG.  DLIS to ASCII 12C0-302                          :LAS Program name and version
CREA.        2006/12/02 23:41                          :LAS Creation date {YYYY/MM/DD hh:mm}
SOURCE.     KGIII6-B1_8in_Pilot_DLIS_120-505m_MD_Index.DLIS  :DLIS File Name
FILE-ID.     Run_1                                     :File Identification Number
#--------------------------------------------------
~WELL INFORMATION
#MNEM.UNIT      DATA             DESCRIPTION
#---- ------ --------------   -----------------------------
STRT .M       119.7864       :START DEPTH     
STOP .M       503.9868       :STOP DEPTH     
STEP .M         0.1524       :STEP     
NULL .          -999.25      :NULL VALUE
COMP .        Company      :COMPANY
WELL .        W2                  :WELL
FLD  .        Block                  :FIELD
LOC  .                                                 :LOCATION
CNTY .        Actinia                                  :COUNTY
STAT .        State                           :STATE
CTRY .                                                 :COUNTRY
JOB  .        06INM0159                                :Job NUMBER
UWI  .                                                 :UNIQUE WELL ID
DATE .        02-Dec-2006                              :LOG DATE {DD-MMM-YYYY}
SRVC .        Company                             :SERVICE COMPANY
LATI .DEG     16.276 N                                :LATITUDE
LONG .DEG     82.0962 E                                :LONGITUDE
GDAT .                                                 :GeoDetic Datum
SECT .        8.5 in                                   :Section
#-----------------------------------------------------------------------------
~PARAMETER INFORMATION
#MNEM.UNIT    VALUE                      DESCRIPTION
#---- -----   --------------------       ------------------------
TN1 .        PowerPulse                  :Tool Number 1
TN2 .        ARC                         :Tool Number 2
OS3  .          N/A                      :Other Services Line 3
OS2  .          InterACT                 :Other Services Line 2
OS1  .          Directional Surveys      :Other Services Line 1
MST  .DEGC      20.00000                 :Mud Sample Temperature
BHT  .DEGC      36.00000                 :Bottom Hole Temperature
RMS.OHMM         3.00000                 :Resistivity of Mud Sample (RM)
MST.DEGC        20.00000                 :Mud Sample temperature (RM)
MW.LB/G         11.00000                 :Mud Weight (RM)
SHT.DEGC        20.00000                 :Surface Hole Temperature (RM)
BSAL .PPM     3300.00000                 :Mud Salinity
MRT  .DEGC     67.00000                  :Maximum Recorded Temperature
MCST .DEGC      20.00000                 :Mud Cake Sample Temperature
RMCS .OHMM       4.50000                 :Resistivity of Mud Cake Sample
MFST .DEGC      20.00000                 :Mud Filtrate Sample Temperature
RMFS .OHMM       2.25000                 :Resistivity of Mud Filtrate Sample
MSS  .        Mud Pit                    :Mud Sample Source
MFSS  .       Mud Pit                    :Mud Filtrate Sample Source
MCSS  .       Mud Pit                    :Mud Cake Sample Source
TCS  .         16:00                     :End Log Time
DCS  .         2-Dec-2006                :End Log Date
DFT  .        WBM                        :Drilling Fluid Type
DFPH .           N/A                     :Drilling Fluid PH
DFV  .S       45.00000                   :Drilling Fluid Viscosity
DFD  .LB/G    11.000000                  :Drilling Fluid Density
DOWR .        71/29                      :Oil/Water Ratio
TLAB .        05:00                      :Begin Log Time
DLAB .        2-Dec-2006                 :Begin Log Date
RUN  .        1                          :Run Number
BLI  .M       500.00000                  :Bottom Log Interval
TLI  .M       120.00000                  :Top Log Interval
WITN .        Mr Lindsay                 :Witness's Name
ENGI .        Hatim/Victor/Harsh         :Engineer's Name
LUL  .        Zone 2                     :Logging Unit Location
LUN  .        OLU-KC-0103                :Logging Unit Number
RR2  .        ARC6 Resistivity is environmentally corrected for mud resistivity and bit size. :Remark Line 2
RR1  .        GR is corrected for bit size, tool size and mud weight               :Remark Line 1
PDAT .        Lowest Astronomical Tide   :Permanent Datum
EPD  .M          0.00000                 :Elevation of Permanent Datum
DMF  .        Driller's Depth            :Drilling Measured From
LMF  .        Drill Floor                :Log Measured From
APD  .M         25.60000                 :Above Permanent Datum
EDF  .M         25.60000                 :Elevation of Derrick Floor
EGL  .M        -79.80000                 :Elevation of Ground Level
EKB  .M         25.60000                 :Elevation of Kelly Bushing
TDL  .M        505.00000                 :Total Depth - Logger
TDD  .M        505.00000                 :Total Depth - Driller
MHD  .DEG        0.09000                 :Maximum Hole Deviation
AMD  .DEG      63.350000                 :Azimuth of Maximum Hole Deviation
BS   .IN         8.50                    :Bit Size
BSDT .M        505.00000                 :Bit Size Depth To
BSDF .M        105.00000                 :Bit Size Depth From
#-----------------------------------------------------------------------------
~CURVE INFORMATION
#MNEM.UNIT   API CODE                                  DESCRIPTION
#---- -----  --------                                  -----------------------
DEPT .M                                                :DEPTH (BOREHOLE) {F10.4}
TDEP ..1IN                                             :0.1-ft Frame Depth {F13.4}
ROP5_RM.M/HR                                           :Rate of Penetration, Averaged over Last 5ft {F13.4}
GR_ARC.GAPI                                            :ARC Gamma Ray {F13.4}
ECD_ARC.LB/G                                           :Equivalent Circulating Density {F13.4}
A16H .OHMM                                             :ARC Attenuation Resistivity 16-in. at 2 MHz {F13.4}
A22H .OHMM                                             :ARC Attenuation Resistivity 22-in. at 2 MHz {F13.4}
A28H .OHMM                                             :ARC Attenuation Resistivity 28-in. at 2 MHz {F13.4}
A34H .OHMM                                             :ARC Attenuation Resistivity 34-in. at 2 MHz {F13.4}
A40H .OHMM                                             :ARC Attenuation Resistivity 40-in. at 2 MHz {F13.4}
A16L .OHMM                                             :ARC Attenuation Resistivity 16-in. at 400 KHz {F13.4}
A22L .OHMM                                             :ARC Attenuation Resistivity 22-in. at 400 KHz {F13.4}
A28L .OHMM                                             :ARC Attenuation Resistivity 28-in. at 400 KHz {F13.4}
A34L .OHMM                                             :ARC Attenuation Resistivity 34-in. at 400 KHz {F13.4}
A40L .OHMM                                             :ARC Attenuation Resistivity 40-in. at 400 KHz {F13.4}
P16H .OHMM                                             :ARC Phase-Shift Resistivity 16-in. at 2 MHz {F13.4}
P22H .OHMM                                             :ARC Phase-Shift Resistivity 22-in. at 2 MHz {F13.4}
P28H .OHMM                                             :ARC Phase-Shift Resistivity 28-in. at 2 MHz {F13.4}
P34H .OHMM                                             :ARC Phase-Shift Resistivity 34-in. at 2 MHz {F13.4}
P40H .OHMM                                             :ARC Phase-Shift Resistivity 40-in. at 2 MHz {F13.4}
P16L .OHMM                                             :ARC Phase-Shift Resistivity 16-in. at 400 KHz {F13.4}
P22L .OHMM                                             :ARC Phase-Shift Resistivity 22-in. at 400 KHz {F13.4}
P28L .OHMM                                             :ARC Phase-Shift Resistivity 28-in. at 400 KHz {F13.4}
P34L .OHMM                                             :ARC Phase-Shift Resistivity 34-in. at 400 KHz {F13.4}
P40L .OHMM                                             :ARC Phase-Shift Resistivity 40-in. at 400 KHz {F13.4}
APRS_ARC.PSI                                           :ARC Annular Pressure {F13.4}
ATMP .DEGC                                             :ARC Annular Temperature {F13.4}
TAB_ARC_RES.HR                                         :ARC Resistivity Time After Bit {F13.4}
#-----------------------------------------------------------------------------
# 
#     DEPT        TDEP       ROP5_RM       GR_ARC      ECD_ARC        A16H         A22H         A28H         A34H         A40H         A16L         A22L         A28L         A34L         A40L         P16H         P22H         P28H         P34H         P40H         P16L         P22L         P28L         P34L         P40L       APRS_ARC       ATMP     TAB_ARC_RES
#
~A  
# ...
  319.5828  125820.0000      15.0414      82.6511      12.6568       0.9032       0.9094       0.9122       0.9185       0.9311       0.8845       0.9245       0.9427       0.9470       0.9515       0.8668       0.8702       0.8727       0.8731       0.8722       0.9021       0.9076       0.9122       0.9069       0.8926     630.0000      34.0000       0.0972
  319.7352  125880.0000      15.2673      85.4364      12.4749       0.9290       0.9338       0.9346       0.9398       0.9524       0.9039       0.9366       0.9529       0.9566       0.9584       0.9017       0.9123       0.9148       0.9144       0.9193       0.9340       0.9363       0.9349       0.9225       0.9033     623.0000      34.0000       0.0972
  319.8876  125940.0000      15.5395      86.5922      12.5908       0.9497       0.9530       0.9530       0.9569       0.9674       0.9193       0.9508       0.9698       0.9756       0.9756       0.9230       0.9322       0.9366       0.9385       0.9432       0.9529       0.9583       0.9614       0.9547       0.9405     628.0008      34.0000       0.1000
  320.0400  126000.0000      15.7278      88.8660      12.6075       0.9749       0.9800       0.9819       0.9854       0.9932       0.9411       0.9732       0.9861       0.9860       0.9859       0.9498       0.9585       0.9631       0.9643       0.9666       0.9922       0.9902       0.9910       0.9816       0.9603     629.0000      34.0000       0.1028
  320.1924  126060.0000      15.8483      88.7334      12.7726       0.9810       0.9815       0.9811       0.9842       0.9913       0.9403       0.9720       0.9822       0.9786       0.9764       0.9610       0.9661       0.9672       0.9677       0.9714       0.9855       0.9911       0.9914       0.9763       0.9520     636.0000      34.0000       0.1028
  320.3448  126120.0000      16.0338      92.7690      12.8880       0.9892       0.9923       0.9928       0.9931       0.9953       0.9542       0.9801       0.9876       0.9812       0.9746       0.9682       0.9761       0.9816       0.9828       0.9822       0.9967       1.0025       1.0048       0.9901       0.9623     641.0000      34.0000       0.1056
  320.4972  126180.0000      16.1561      95.4785      13.0769       0.9882       0.9916       0.9910       0.9912       0.9955       0.9442       0.9801       0.9944       0.9876       0.9755       0.9780       0.9825       0.9860       0.9852       0.9812       1.0017       1.0080       1.0069       0.9926       0.9725     649.0000      34.0000       0.1056
  320.6496  126240.0000      25.6111      98.9460      13.1426       0.9777       0.9825       0.9775       0.9722       0.9754       0.9364       0.9671       0.9770       0.9712       0.9648       0.9482       0.9570       0.9587       0.9550       0.9528       0.9888       0.9940       0.9911       0.9752       0.9546     652.0000      34.0000       0.1056
  320.8020  126300.0000      72.5053      99.1358      13.2083       0.9788       0.9845       0.9807       0.9762       0.9798       0.9362       0.9710       0.9820       0.9759       0.9699       0.9532       0.9593       0.9625       0.9606       0.9564       0.9891       0.9943       0.9957       0.9804       0.9531     655.0000      34.0000       0.1083
  320.9544  126360.0000      80.1597      99.7611      13.0768       0.9788       0.9845       0.9807       0.9762       0.9798       0.9362       0.9710       0.9820       0.9759       0.9699       0.9532       0.9593       0.9625       0.9606       0.9564       0.9891       0.9943       0.9957       0.9804       0.9531     650.0000      34.0000       0.1056
  321.1068  126420.0000      75.0034      99.7611      13.3143       0.9396       0.9451       0.9449       0.9453       0.9512       0.9020       0.9283       0.9380       0.9345       0.9296       0.9430       0.9514       0.9572       0.9585       0.9577       0.9494       0.9577       0.9629       0.9553       0.9380     660.0000      34.0000       0.1056
  321.2592  126480.0000      71.6423     100.6496      13.3797       0.9503       0.9565       0.9557       0.9562       0.9640       0.9029       0.9366       0.9486       0.9419       0.9325       0.9393       0.9504       0.9563       0.9578       0.9601       0.9556       0.9632       0.9633       0.9476       0.9241     662.9976      34.0000       0.1056
  321.4116  126540.0000      68.2396      98.9443      13.2975       0.8607       0.8600       0.8619       0.8649       0.8662       0.8327       0.8645       0.8817       0.8858       0.8859       0.8245       0.8256       0.8271       0.8280       0.8280       0.8525       0.8555       0.8601       0.8523       0.8315     660.0000      34.0000       0.1028
  321.5640  126600.0000      58.8393      96.8600      13.1663       0.8686       0.8662       0.8649       0.8656       0.8673       0.8412       0.8673       0.8825       0.8834       0.8769       0.8377       0.8373       0.8381       0.8374       0.8339       0.8635       0.8622       0.8645       0.8556       0.8331     655.0000      34.0000       0.1028
  321.7164  126660.0000      56.8439      92.0493      13.0347       0.7742       0.7857       0.7922       0.7982       0.8077       0.7785       0.8150       0.8408       0.8560       0.8650       0.7263       0.7320       0.7319       0.7290       0.7296       0.7645       0.7718       0.7764       0.7724       0.7625     650.0000      34.0000       0.1000
  321.8688  126720.0000      51.2013      89.7187      12.8056       0.7795       0.7904       0.7953       0.7994       0.8074       0.7776       0.8177       0.8446       0.8536       0.8521       0.7299       0.7357       0.7361       0.7329       0.7316       0.7654       0.7728       0.7808       0.7796       0.7689     641.0000      34.0000       0.1000
  322.0212  126780.0000      49.1564      88.9602      12.7975       0.7617       0.7754       0.7847       0.7936       0.8055       0.7594       0.8020       0.8258       0.8381       0.8499       0.7397       0.7469       0.7499       0.7502       0.7524       0.7571       0.7666       0.7756       0.7737       0.7614     641.0000      34.0000       0.0972
  322.1736  126840.0000      45.2718      89.4718      12.9855       0.7618       0.7734       0.7814       0.7900       0.8019       0.7643       0.8022       0.8241       0.8366       0.8486       0.7371       0.7429       0.7473       0.7512       0.7561       0.7608       0.7671       0.7729       0.7688       0.7554     648.9952      34.0000       0.0972
  322.3260  126900.0000      42.6787      90.4192      12.8300       0.7618       0.7734       0.7814       0.7900       0.8019       0.7643       0.8022       0.8241       0.8366       0.8486       0.7371       0.7429       0.7473       0.7512       0.7561       0.7608       0.7671       0.7729       0.7688       0.7554     643.0000      34.0000       0.0944
  322.4784  126960.0000      42.2075      89.0365      12.8219       0.7813       0.7856       0.7874       0.7950       0.8104       0.7806       0.8177       0.8358       0.8474       0.8635       0.7341       0.7371       0.7386       0.7402       0.7437       0.7732       0.7750       0.7782       0.7754       0.7656     643.0000      34.0000       0.0917
  322.6308  127020.0000      41.2554      90.1734      12.7650       0.7943       0.8029       0.8054       0.8121       0.8277       0.8018       0.8359       0.8491       0.8594       0.8791       0.7395       0.7421       0.7430       0.7433       0.7446       0.7852       0.7928       0.7958       0.7912       0.7833     641.0000      34.0000       0.0917
  322.7832  127080.0000      41.5350      90.9313      12.9282       0.8421       0.8569       0.8563       0.8580       0.8756       0.8198       0.8559       0.8649       0.8701       0.8890       0.7913       0.8049       0.8087       0.8055       0.8053       0.8252       0.8363       0.8378       0.8293       0.8199     648.0000      34.0000       0.0917
  322.9356  127140.0000      41.4633      92.9403      12.6753       0.8974       0.9085       0.9067       0.9083       0.9245       0.8581       0.8849       0.8885       0.8892       0.9021       0.9277       0.9400       0.9501       0.9576       0.9648       0.9306       0.9403       0.9406       0.9293       0.9155     638.0024      34.0000       0.0917
