~VERSION INFORMATION
VERS.           2.0   :CWLS Log ASCII Standard - VERSION 2.0
WRAP.           NO    :One Line per depth step
PROD.  Company   :LAS Producer
PROG.  DLIS to ASCII 12C0-302                          :LAS Program name and version
CREA.        2006/12/02 23:41                          :LAS Creation date {YYYY/MM/DD hh:mm}
SOURCE.     KGIII6-B1_8in_Pilot_DLIS_120-505m_MD_Index.DLIS  :DLIS File Name
FILE-ID.     Run_1                                     :File Identification Number
#--------------------------------------------------
~WELL INFORMATION
#MNEM.UNIT      DATA             DESCRIPTION
#---- ------ --------------   -----------------------------
STRT .M       119.7864       :START DEPTH     
STOP .M       503.9868       :STOP DEPTH     
STEP .M         0.1524       :STEP     
NULL .          -999.25      :NULL VALUE
COMP .        Company      :COMPANY
WELL .        W2                  :WELL
FLD  .        Block                  :FIELD
LOC  .                                                 :LOCATION
CNTY .        Actinia                                  :COUNTY
STAT .        State                           :STATE
CTRY .                                                 :COUNTRY
JOB  .        06INM0159                                :Job NUMBER
UWI  .                                                 :UNIQUE WELL ID
DATE .        02-Dec-2006                              :LOG DATE {DD-MMM-YYYY}
SRVC .        Company                             :SERVICE COMPANY
LATI .DEG     16.276 N                                :LATITUDE
LONG .DEG     82.0962 E                                :LONGITUDE
GDAT .                                                 :GeoDetic Datum
SECT .        8.5 in                                   :Section
#-----------------------------------------------------------------------------
~PARAMETER INFORMATION
#MNEM.UNIT    VALUE                      DESCRIPTION
#---- -----   --------------------       ------------------------
TN1 .        PowerPulse                  :Tool Number 1
TN2 .        ARC                         :Tool Number 2
OS3  .          N/A                      :Other Services Line 3
OS2  .          InterACT                 :Other Services Line 2
OS1  .          Directional Surveys      :Other Services Line 1
MST  .DEGC      20.00000                 :Mud Sample Temperature
BHT  .DEGC      36.00000                 :Bottom Hole Temperature
RMS.OHMM         3.00000                 :Resistivity of Mud Sample (RM)
MST.DEGC        20.00000                 :Mud Sample temperature (RM)
MW.LB/G         11.00000                 :Mud Weight (RM)
SHT.DEGC        20.00000                 :Surface Hole Temperature (RM)
BSAL .PPM     3300.00000                 :Mud Salinity
MRT  .DEGC     67.00000                  :Maximum Recorded Temperature
MCST .DEGC      20.00000                 :Mud Cake Sample Temperature
RMCS .OHMM       4.50000                 :Resistivity of Mud Cake Sample
MFST .DEGC      20.00000                 :Mud Filtrate Sample Temperature
RMFS .OHMM       2.25000                 :Resistivity of Mud Filtrate Sample
MSS  .        Mud Pit                    :Mud Sample Source
MFSS  .       Mud Pit                    :Mud Filtrate Sample Source
MCSS  .       Mud Pit                    :Mud Cake Sample Source
TCS  .         16:00                     :End Log Time
DCS  .         2-Dec-2006                :End Log Date
DFT  .        WBM                        :Drilling Fluid Type
DFPH .           N/A                     :Drilling Fluid PH
DFV  .S       45.00000                   :Drilling Fluid Viscosity
DFD  .LB/G    11.000000                  :Drilling Fluid Density
DOWR .        71/29                      :Oil/Water Ratio
TLAB .        05:00                      :Begin Log Time
DLAB .        2-Dec-2006                 :Begin Log Date
RUN  .        1                          :Run Number
BLI  .M       500.00000                  :Bottom Log Interval
TLI  .M       120.00000                  :Top Log Interval
WITN .        Mr Lindsay                 :Witness's Name
ENGI .        Hatim/Victor/Harsh         :Engineer's Name
LUL  .        Zone 2                     :Logging Unit Location
LUN  .        OLU-KC-0103                :Logging Unit Number
RR2  .        ARC6 Resistivity is environmentally corrected for mud resistivity and bit size. :Remark Line 2
RR1  .        GR is corrected for bit size, tool size and mud weight               :Remark Line 1
PDAT .        Lowest Astronomical Tide   :Permanent Datum
EPD  .M          0.00000                 :Elevation of Permanent Datum
DMF  .        Driller's Depth            :Drilling Measured From
LMF  .        Drill Floor                :Log Measured From
APD  .M         25.60000                 :Above Permanent Datum
EDF  .M         25.60000                 :Elevation of Derrick Floor
EGL  .M        -79.80000                 :Elevation of Ground Level
EKB  .M         25.60000                 :Elevation of Kelly Bushing
TDL  .M        505.00000                 :Total Depth - Logger
TDD  .M        505.00000                 :Total Depth - Driller
MHD  .DEG        0.09000                 :Maximum Hole Deviation
AMD  .DEG      63.350000                 :Azimuth of Maximum Hole Deviation
BS   .IN         8.50                    :Bit Size
BSDT .M        505.00000                 :Bit Size Depth To
BSDF .M        105.00000                 :Bit Size Depth From
#-----------------------------------------------------------------------------
~CURVE INFORMATION
#MNEM.UNIT   API CODE                                  DESCRIPTION
#---- -----  --------                                  -----------------------
DEPT .M                                                :DEPTH (BOREHOLE) {F10.4}
TDEP ..1IN                                             :0.1-ft Frame Depth {F13.4}
ROP5_RM.M/HR                                           :Rate of Penetration, Averaged over Last 5ft {F13.4}
GR_ARC.GAPI                                            :ARC Gamma Ray {F13.4}
ECD_ARC.LB/G                                           :Equivalent Circulating Density {F13.4}
A16H .OHMM                                             :ARC Attenuation Resistivity 16-in. at 2 MHz {F13.4}
A22H .OHMM                                             :ARC Attenuation Resistivity 22-in. at 2 MHz {F13.4}
A28H .OHMM                                             :ARC Attenuation Resistivity 28-in. at 2 MHz {F13.4}
A34H .OHMM                                             :ARC Attenuation Resistivity 34-in. at 2 MHz {F13.4}
A40H .OHMM                                             :ARC Attenuation Resistivity 40-in. at 2 MHz {F13.4}
A16L .OHMM                                             :ARC Attenuation Resistivity 16-in. at 400 KHz {F13.4}
A22L .OHMM                                             :ARC Attenuation Resistivity 22-in. at 400 KHz {F13.4}
A28L .OHMM                                             :ARC Attenuation Resistivity 28-in. at 400 KHz {F13.4}
A34L .OHMM                                             :ARC Attenuation Resistivity 34-in. at 400 KHz {F13.4}
A40L .OHMM                                             :ARC Attenuation Resistivity 40-in. at 400 KHz {F13.4}
P16H .OHMM                                             :ARC Phase-Shift Resistivity 16-in. at 2 MHz {F13.4}
P22H .OHMM                                             :ARC Phase-Shift Resistivity 22-in. at 2 MHz {F13.4}
P28H .OHMM                                             :ARC Phase-Shift Resistivity 28-in. at 2 MHz {F13.4}
P34H .OHMM                                             :ARC Phase-Shift Resistivity 34-in. at 2 MHz {F13.4}
P40H .OHMM                                             :ARC Phase-Shift Resistivity 40-in. at 2 MHz {F13.4}
P16L .OHMM                                             :ARC Phase-Shift Resistivity 16-in. at 400 KHz {F13.4}
P22L .OHMM                                             :ARC Phase-Shift Resistivity 22-in. at 400 KHz {F13.4}
P28L .OHMM                                             :ARC Phase-Shift Resistivity 28-in. at 400 KHz {F13.4}
P34L .OHMM                                             :ARC Phase-Shift Resistivity 34-in. at 400 KHz {F13.4}
P40L .OHMM                                             :ARC Phase-Shift Resistivity 40-in. at 400 KHz {F13.4}
APRS_ARC.PSI                                           :ARC Annular Pressure {F13.4}
ATMP .DEGC                                             :ARC Annular Temperature {F13.4}
TAB_ARC_RES.HR                                         :ARC Resistivity Time After Bit {F13.4}
#-----------------------------------------------------------------------------
# 
#     DEPT        TDEP       ROP5_RM       GR_ARC      ECD_ARC        A16H         A22H         A28H         A34H         A40H         A16L         A22L         A28L         A34L         A40L         P16H         P22H         P28H         P34H         P40H         P16L         P22L         P28L         P34L         P40L       APRS_ARC       ATMP     TAB_ARC_RES
#
~A  
# ...
  144.3228   56820.0000     232.8943      56.4460       9.4141       0.5243       0.5357       0.5454       0.5538       0.5619       0.5399       0.5557       0.5648       0.5717       0.5801       0.4837       0.4889       0.5027       0.5202       0.5327       0.5182       0.5277       0.5375       0.5385       0.5305     218.0000      34.0000       0.1722
  144.4752   56880.0000     242.0479      56.4460       9.3897       0.5243       0.5357       0.5454       0.5538       0.5619       0.5399       0.5557       0.5648       0.5717       0.5801       0.4837       0.4889       0.5027       0.5202       0.5327       0.5182       0.5277       0.5375       0.5385       0.5305     218.0000      34.0000       0.1722
  144.6276   56940.0000     249.6596      56.3703       9.3669       0.5243       0.5357       0.5454       0.5538       0.5619       0.5399       0.5557       0.5648       0.5717       0.5801       0.4837       0.4889       0.5027       0.5202       0.5327       0.5182       0.5277       0.5375       0.5385       0.5305     218.0000      34.0000       0.1694
  144.7800   57000.0000     251.1037      56.2946       9.6282       0.5107       0.5210       0.5288       0.5381       0.5511       0.5178       0.5359       0.5459       0.5567       0.5730       0.4700       0.4850       0.4997       0.5112       0.5209       0.5000       0.5158       0.5284       0.5288       0.5201     221.0000      34.0000       0.1722
  144.9324   57060.0000     252.5479      56.2189       9.6050       0.5107       0.5210       0.5288       0.5381       0.5511       0.5178       0.5359       0.5459       0.5567       0.5730       0.4700       0.4850       0.4997       0.5112       0.5209       0.5000       0.5158       0.5284       0.5288       0.5201     221.0000      34.0000       0.1722
  145.0848   57120.0000     253.9921      56.2189       9.5819       0.5107       0.5210       0.5288       0.5381       0.5511       0.5178       0.5359       0.5459       0.5567       0.5730       0.4700       0.4850       0.4997       0.5112       0.5209       0.5000       0.5158       0.5284       0.5288       0.5201     221.0000      34.0000       0.1722
  145.2372   57180.0000     255.4362      56.4272       9.5573       0.5107       0.5210       0.5288       0.5381       0.5511       0.5178       0.5359       0.5459       0.5567       0.5730       0.4700       0.4850       0.4997       0.5112       0.5209       0.5000       0.5158       0.5284       0.5288       0.5201     221.0000      34.0000       0.1722
  145.3896   57240.0000     254.0047      56.6356       9.5344       0.4922       0.5054       0.5148       0.5222       0.5321       0.5099       0.5323       0.5446       0.5610       0.5874       0.4543       0.4646       0.4887       0.5173       0.5353       0.4872       0.5016       0.5208       0.5312       0.5267     221.0000      34.0000       0.1722
  145.5420   57300.0000     250.6562      56.8439       9.5118       0.4922       0.5054       0.5148       0.5222       0.5321       0.5099       0.5323       0.5446       0.5610       0.5874       0.4543       0.4646       0.4887       0.5173       0.5353       0.4872       0.5016       0.5208       0.5312       0.5267     221.0016      34.0000       0.1722
  145.6944   57360.0000     247.3077      56.3892       9.4891       0.4922       0.5054       0.5148       0.5222       0.5321       0.5099       0.5323       0.5446       0.5610       0.5874       0.4543       0.4646       0.4887       0.5173       0.5353       0.4872       0.5016       0.5208       0.5312       0.5267     221.0016      34.0000       0.1722
  145.8468   57420.0000     243.9592      55.9344       9.4650       0.5180       0.5329       0.5482       0.5633       0.5773       0.5331       0.5458       0.5611       0.5831       0.6071       0.4899       0.5014       0.5110       0.5306       0.5651       0.5077       0.5277       0.5474       0.5568       0.5562     221.0016      34.0000       0.1750
  145.9992   57480.0000     233.5566      55.5555       9.4425       0.5180       0.5329       0.5482       0.5633       0.5773       0.5331       0.5458       0.5611       0.5831       0.6071       0.4899       0.5014       0.5110       0.5306       0.5651       0.5077       0.5277       0.5474       0.5568       0.5562     221.0016      34.0000       0.1722
  146.1516   57540.0000     221.3904      55.6312       9.7906       0.4928       0.5136       0.5275       0.5363       0.5474       0.5262       0.5410       0.5512       0.5674       0.5909       0.4431       0.4738       0.4989       0.5190       0.5442       0.4930       0.5145       0.5356       0.5454       0.5441     225.0000      34.0000       0.1750
  146.3040   57600.0000     209.2242      55.3281       9.7674       0.4928       0.5136       0.5275       0.5363       0.5474       0.5262       0.5410       0.5512       0.5674       0.5909       0.4431       0.4738       0.4989       0.5190       0.5442       0.4930       0.5145       0.5356       0.5454       0.5441     225.0000      34.0000       0.1750
  146.4564   57660.0000     199.5543      54.9491       9.7429       0.5036       0.5147       0.5323       0.5573       0.5830       0.5268       0.5425       0.5561       0.5741       0.5958       0.4661       0.4832       0.5049       0.5281       0.5498       0.4879       0.5106       0.5263       0.5300       0.5286     225.0000      34.0000       0.1750
  146.6088   57720.0000     135.3552      53.0541       9.4441       0.5036       0.5147       0.5323       0.5573       0.5830       0.5268       0.5425       0.5561       0.5741       0.5958       0.4661       0.4832       0.5049       0.5281       0.5498       0.4879       0.5106       0.5263       0.5300       0.5286     222.0000      34.0000       0.0278
  146.7612   57780.0000      59.6292      51.5381       9.4219       0.5036       0.5147       0.5323       0.5573       0.5830       0.5268       0.5425       0.5561       0.5741       0.5958       0.4661       0.4832       0.5049       0.5281       0.5498       0.4879       0.5106       0.5263       0.5300       0.5286     222.0000      34.0000       0.0278
  146.9136   57840.0000      29.1158      50.0220       9.3999       0.4849       0.5121       0.5346       0.5474       0.5574       0.5088       0.5297       0.5445       0.5615       0.5832       0.4571       0.4861       0.5139       0.5284       0.5325       0.4703       0.5135       0.5404       0.5406       0.5329     222.0000      34.0000       0.0278
  147.0660   57900.0000      28.7441      49.5106       9.3765       0.4849       0.5121       0.5346       0.5474       0.5574       0.5088       0.5297       0.5445       0.5615       0.5832       0.4571       0.4861       0.5139       0.5284       0.5325       0.4703       0.5135       0.5404       0.5406       0.5329     222.0000      34.0000       0.0278
  147.2184   57960.0000      28.3724      48.9992       9.2636       0.4788       0.5051       0.5221       0.5295       0.5394       0.5090       0.5272       0.5401       0.5607       0.5909       0.4393       0.4705       0.4996       0.5261       0.5572       0.4857       0.5073       0.5245       0.5287       0.5238     221.0000      34.0000       0.0306
  147.3708   58020.0000      28.5650      47.9763       9.2420       0.4788       0.5051       0.5221       0.5295       0.5394       0.5090       0.5272       0.5401       0.5607       0.5909       0.4393       0.4705       0.4996       0.5261       0.5572       0.4857       0.5073       0.5245       0.5287       0.5238     221.0000      34.0000       0.0278
  147.5232   58080.0000      28.8987      47.4647       9.3114       0.4817       0.4979       0.5150       0.5294       0.5419       0.5006       0.5230       0.5382       0.5581       0.5857       0.4192       0.4333       0.4491       0.4570       0.4552       0.4666       0.4861       0.5061       0.5179       0.5215     222.0008      34.0000       0.0306
  147.6756   58140.0000      29.2324      49.0373       9.2884       0.4817       0.4979       0.5150       0.5294       0.5419       0.5006       0.5230       0.5382       0.5581       0.5857       0.4192       0.4333       0.4491       0.4570       0.4552       0.4666       0.4861       0.5061       0.5179       0.5215     222.0008      34.0000       0.0306
