~VERSION INFORMATION
VERS.           2.0   :CWLS Log ASCII Standard - VERSION 2.0
WRAP.           NO    :One Line per depth step
PROD.  Company   :LAS Producer
PROG.  DLIS to ASCII 12C0-302                          :LAS Program name and version
CREA.        2006/12/02 23:41                          :LAS Creation date {YYYY/MM/DD hh:mm}
SOURCE.     KGIII6-B1_8in_Pilot_DLIS_120-505m_MD_Index.DLIS  :DLIS File Name
FILE-ID.     Run_1                                     :File Identification Number
#--------------------------------------------------
~WELL INFORMATION
#MNEM.UNIT      DATA             DESCRIPTION
#---- ------ --------------   -----------------------------
STRT .M       119.7864       :START DEPTH     
STOP .M       503.9868       :STOP DEPTH     
STEP .M         0.1524       :STEP     
NULL .          -999.25      :NULL VALUE
COMP .        Company      :COMPANY
WELL .        W2                  :WELL
FLD  .        Block                  :FIELD
LOC  .                                                 :LOCATION
CNTY .        Actinia                                  :COUNTY
STAT .        State                           :STATE
CTRY .                                                 :COUNTRY
JOB  .        06INM0159                                :Job NUMBER
UWI  .                                                 :UNIQUE WELL ID
DATE .        02-Dec-2006                              :LOG DATE {DD-MMM-YYYY}
SRVC .        Company                             :SERVICE COMPANY
LATI .DEG     16.276 N                                :LATITUDE
LONG .DEG     82.0962 E                                :LONGITUDE
GDAT .                                                 :GeoDetic Datum
SECT .        8.5 in                                   :Section
#-----------------------------------------------------------------------------
~PARAMETER INFORMATION
#MNEM.UNIT    VALUE                      DESCRIPTION
#---- -----   --------------------       ------------------------
TN1 .        PowerPulse                  :Tool Number 1
TN2 .        ARC                         :Tool Number 2
OS3  .          N/A                      :Other Services Line 3
OS2  .          InterACT                 :Other Services Line 2
OS1  .          Directional Surveys      :Other Services Line 1
MST  .DEGC      20.00000                 :Mud Sample Temperature
BHT  .DEGC      36.00000                 :Bottom Hole Temperature
RMS.OHMM         3.00000                 :Resistivity of Mud Sample (RM)
MST.DEGC        20.00000                 :Mud Sample temperature (RM)
MW.LB/G         11.00000                 :Mud Weight (RM)
SHT.DEGC        20.00000                 :Surface Hole Temperature (RM)
BSAL .PPM     3300.00000                 :Mud Salinity
MRT  .DEGC     67.00000                  :Maximum Recorded Temperature
MCST .DEGC      20.00000                 :Mud Cake Sample Temperature
RMCS .OHMM       4.50000                 :Resistivity of Mud Cake Sample
MFST .DEGC      20.00000                 :Mud Filtrate Sample Temperature
RMFS .OHMM       2.25000                 :Resistivity of Mud Filtrate Sample
MSS  .        Mud Pit                    :Mud Sample Source
MFSS  .       Mud Pit                    :Mud Filtrate Sample Source
MCSS  .       Mud Pit                    :Mud Cake Sample Source
TCS  .         16:00                     :End Log Time
DCS  .         2-Dec-2006                :End Log Date
DFT  .        WBM                        :Drilling Fluid Type
DFPH .           N/A                     :Drilling Fluid PH
DFV  .S       45.00000                   :Drilling Fluid Viscosity
DFD  .LB/G    11.000000                  :Drilling Fluid Density
DOWR .        71/29                      :Oil/Water Ratio
TLAB .        05:00                      :Begin Log Time
DLAB .        2-Dec-2006                 :Begin Log Date
RUN  .        1                          :Run Number
BLI  .M       500.00000                  :Bottom Log Interval
TLI  .M       120.00000                  :Top Log Interval
WITN .        Mr Lindsay                 :Witness's Name
ENGI .        Hatim/Victor/Harsh         :Engineer's Name
LUL  .        Zone 2                     :Logging Unit Location
LUN  .        OLU-KC-0103                :Logging Unit Number
RR2  .        ARC6 Resistivity is environmentally corrected for mud resistivity and bit size. :Remark Line 2
RR1  .        GR is corrected for bit size, tool size and mud weight               :Remark Line 1
PDAT .        Lowest Astronomical Tide   :Permanent Datum
EPD  .M          0.00000                 :Elevation of Permanent Datum
DMF  .        Driller's Depth            :Drilling Measured From
LMF  .        Drill Floor                :Log Measured From
APD  .M         25.60000                 :Above Permanent Datum
EDF  .M         25.60000                 :Elevation of Derrick Floor
EGL  .M        -79.80000                 :Elevation of Ground Level
EKB  .M         25.60000                 :Elevation of Kelly Bushing
TDL  .M        505.00000                 :Total Depth - Logger
TDD  .M        505.00000                 :Total Depth - Driller
MHD  .DEG        0.09000                 :Maximum Hole Deviation
AMD  .DEG      63.350000                 :Azimuth of Maximum Hole Deviation
BS   .IN         8.50                    :Bit Size
BSDT .M        505.00000                 :Bit Size Depth To
BSDF .M        105.00000                 :Bit Size Depth From
#-----------------------------------------------------------------------------
~CURVE INFORMATION
#MNEM.UNIT   API CODE                                  DESCRIPTION
#---- -----  --------                                  -----------------------
DEPT .M                                                :DEPTH (BOREHOLE) {F10.4}
TDEP ..1IN                                             :0.1-ft Frame Depth {F13.4}
ROP5_RM.M/HR                                           :Rate of Penetration, Averaged over Last 5ft {F13.4}
GR_ARC.GAPI                                            :ARC Gamma Ray {F13.4}
ECD_ARC.LB/G                                           :Equivalent Circulating Density {F13.4}
A16H .OHMM                                             :ARC Attenuation Resistivity 16-in. at 2 MHz {F13.4}
A22H .OHMM                                             :ARC Attenuation Resistivity 22-in. at 2 MHz {F13.4}
A28H .OHMM                                             :ARC Attenuation Resistivity 28-in. at 2 MHz {F13.4}
A34H .OHMM                                             :ARC Attenuation Resistivity 34-in. at 2 MHz {F13.4}
A40H .OHMM                                             :ARC Attenuation Resistivity 40-in. at 2 MHz {F13.4}
A16L .OHMM                                             :ARC Attenuation Resistivity 16-in. at 400 KHz {F13.4}
A22L .OHMM                                             :ARC Attenuation Resistivity 22-in. at 400 KHz {F13.4}
A28L .OHMM                                             :ARC Attenuation Resistivity 28-in. at 400 KHz {F13.4}
A34L .OHMM                                             :ARC Attenuation Resistivity 34-in. at 400 KHz {F13.4}
A40L .OHMM                                             :ARC Attenuation Resistivity 40-in. at 400 KHz {F13.4}
P16H .OHMM                                             :ARC Phase-Shift Resistivity 16-in. at 2 MHz {F13.4}
P22H .OHMM                                             :ARC Phase-Shift Resistivity 22-in. at 2 MHz {F13.4}
P28H .OHMM                                             :ARC Phase-Shift Resistivity 28-in. at 2 MHz {F13.4}
P34H .OHMM                                             :ARC Phase-Shift Resistivity 34-in. at 2 MHz {F13.4}
P40H .OHMM                                             :ARC Phase-Shift Resistivity 40-in. at 2 MHz {F13.4}
P16L .OHMM                                             :ARC Phase-Shift Resistivity 16-in. at 400 KHz {F13.4}
P22L .OHMM                                             :ARC Phase-Shift Resistivity 22-in. at 400 KHz {F13.4}
P28L .OHMM                                             :ARC Phase-Shift Resistivity 28-in. at 400 KHz {F13.4}
P34L .OHMM                                             :ARC Phase-Shift Resistivity 34-in. at 400 KHz {F13.4}
P40L .OHMM                                             :ARC Phase-Shift Resistivity 40-in. at 400 KHz {F13.4}
APRS_ARC.PSI                                           :ARC Annular Pressure {F13.4}
ATMP .DEGC                                             :ARC Annular Temperature {F13.4}
TAB_ARC_RES.HR                                         :ARC Resistivity Time After Bit {F13.4}
#-----------------------------------------------------------------------------
# 
#     DEPT        TDEP       ROP5_RM       GR_ARC      ECD_ARC        A16H         A22H         A28H         A34H         A40H         A16L         A22L         A28L         A34L         A40L         P16H         P22H         P28H         P34H         P40H         P16L         P22L         P28L         P34L         P40L       APRS_ARC       ATMP     TAB_ARC_RES
#
~A  
# ...
  445.7700  175500.0000      28.5105      96.7302      14.7881       0.7151       0.7808       0.8188       0.8366       0.8610       0.8538       0.9020       0.9280       0.9283       0.9183       0.5506       0.5917       0.6158       0.6291       0.6540       0.7027       0.7515       0.7821       0.7924       0.8028    1034.0000      66.0000       0.5694
  445.9224  175560.0000      27.3750      95.3470      11.6145       0.8412       0.8727       0.8835       0.8829       0.8892       0.8786       0.9061       0.9201       0.9200       0.9150       0.8164       0.8662       0.8937       0.9025       0.9190       0.8451       0.8822       0.8976       0.8941       0.8930     838.0000      36.0000       0.5667
  446.0748  175620.0000      26.5172      95.1563      11.5774       0.8869       0.9190       0.9299       0.9290       0.9354       0.8945       0.9206       0.9305       0.9245       0.9144       0.8591       0.9035       0.9314       0.9423       0.9557       0.8793       0.9154       0.9340       0.9331       0.9298     836.0000      36.0000       0.5639
  446.2272  175680.0000      26.1272      93.4510      11.5724       0.8779       0.9226       0.9425       0.9441       0.9502       0.8675       0.9100       0.9287       0.9248       0.9152       0.8409       0.8940       0.9260       0.9373       0.9536       0.8693       0.9108       0.9332       0.9374       0.9425     836.0032      36.0000       0.5611
  446.3796  175740.0000      26.3196      93.5078      11.6321       0.9380       0.9421       0.9427       0.9463       0.9562       0.9243       0.9377       0.9437       0.9387       0.9285       0.8969       0.9039       0.9076       0.9159       0.9327       0.9267       0.9344       0.9382       0.9341       0.9255     840.0000      36.0000       0.5583
  446.5320  175800.0000      25.8452      91.6134      11.7403       0.9548       0.9451       0.9380       0.9446       0.9629       0.9335       0.9405       0.9481       0.9467       0.9363       0.8943       0.8975       0.8999       0.9079       0.9227       0.9385       0.9313       0.9266       0.9285       0.9348     847.0008      36.0000       0.5556
  446.6844  175860.0000      26.2843      89.2828      11.7516       0.9545       0.9509       0.9483       0.9516       0.9596       0.9283       0.9458       0.9578       0.9537       0.9379       0.8958       0.9094       0.9177       0.9213       0.9260       0.9280       0.9373       0.9415       0.9379       0.9314     848.0000      36.0000       0.5528
  446.8368  175920.0000      26.2822      87.1417      11.7142       0.9543       0.9491       0.9495       0.9499       0.9456       0.9260       0.9450       0.9644       0.9614       0.9369       0.9009       0.9229       0.9396       0.9443       0.9430       0.9393       0.9449       0.9493       0.9460       0.9364     846.0000      36.0000       0.5472
  446.9892  175980.0000      25.6714      88.4112      11.7093       0.9498       0.9509       0.9521       0.9502       0.9453       0.9340       0.9555       0.9705       0.9623       0.9369       0.8705       0.8800       0.8919       0.8999       0.9015       0.9099       0.9203       0.9297       0.9279       0.9157     846.0008      36.0000       0.5472
  447.1416  176040.0000      25.4203      91.6326      11.7206       0.9521       0.9525       0.9551       0.9566       0.9547       0.9352       0.9586       0.9700       0.9587       0.9350       0.8716       0.8829       0.8937       0.8998       0.9018       0.9188       0.9224       0.9260       0.9254       0.9207     847.0000      36.0000       0.5444
  447.2940  176100.0000      25.1239      94.2095      11.7802       0.9335       0.9326       0.9298       0.9263       0.9239       0.9396       0.9534       0.9637       0.9573       0.9378       0.8881       0.9003       0.9109       0.9131       0.9085       0.9269       0.9298       0.9362       0.9340       0.9202     851.0000      36.0000       0.5444
  447.4464  176160.0000      24.7093      93.4516      11.7428       0.9280       0.9393       0.9450       0.9458       0.9463       0.9281       0.9602       0.9732       0.9609       0.9388       0.7985       0.8106       0.8188       0.8208       0.8210       0.8745       0.8914       0.9030       0.9030       0.8962     849.0000      36.0000       0.5417
  447.5988  176220.0000      25.2256      90.3439      11.7058       0.9267       0.9415       0.9473       0.9506       0.9594       0.9244       0.9619       0.9829       0.9751       0.9518       0.7903       0.8112       0.8213       0.8241       0.8316       0.8723       0.8938       0.9048       0.9072       0.9109     847.0000      36.0000       0.5417
  447.7512  176280.0000      25.1119      88.9036      11.6849       0.9545       0.9638       0.9668       0.9679       0.9726       0.9397       0.9614       0.9692       0.9642       0.9565       0.9048       0.9364       0.9588       0.9674       0.9725       0.9422       0.9637       0.9775       0.9799       0.9780     846.0000      36.0000       0.5389
  447.9036  176340.0000      25.3731      89.3394      11.7123       0.9589       0.9680       0.9707       0.9716       0.9763       0.9319       0.9604       0.9711       0.9596       0.9402       0.9380       0.9645       0.9840       0.9940       1.0021       0.9547       0.9719       0.9773       0.9730       0.9702     848.0000      36.0000       0.5389
  448.0560  176400.0000      24.8236      93.2034      11.6911       0.9742       0.9754       0.9772       0.9824       0.9903       0.9603       0.9795       0.9879       0.9797       0.9637       0.9278       0.9382       0.9471       0.9517       0.9534       0.9590       0.9659       0.9707       0.9684       0.9611     847.0016      36.0000       0.5306
  448.2084  176460.0000      25.1672      93.3932      11.7184       0.9756       0.9768       0.9778       0.9808       0.9858       0.9581       0.9825       0.9896       0.9790       0.9642       0.9116       0.9223       0.9311       0.9360       0.9392       0.9597       0.9642       0.9658       0.9593       0.9479     849.0000      36.0000       0.5222
  448.3608  176520.0000      20.8608      93.4690      11.7457       0.9799       0.9811       0.9796       0.9806       0.9863       0.9690       0.9909       1.0017       0.9965       0.9851       0.9160       0.9290       0.9346       0.9325       0.9303       0.9684       0.9756       0.9774       0.9736       0.9692     851.0000      36.0000       0.5056
  448.5132  176580.0000      19.5944      91.9355      11.7409       0.9853       0.9836       0.9814       0.9833       0.9895       0.9702       0.9958       1.0040       0.9917       0.9760       0.9188       0.9297       0.9366       0.9368       0.9343       0.9633       0.9709       0.9754       0.9752       0.9729     851.0000      36.0000       0.4972
  448.6656  176640.0000      18.7163      93.6971      11.7358       1.0000       1.0085       1.0117       1.0113       1.0113       0.9793       1.0002       1.0157       1.0076       0.9889       0.9845       0.9996       1.0105       1.0153       1.0181       0.9992       1.0124       1.0189       1.0124       0.9994     851.0000      36.0000       0.4889
  448.8180  176700.0000      16.8298      95.1371      11.7309       0.9977       1.0099       1.0132       1.0118       1.0130       0.9799       0.9988       1.0105       1.0000       0.9825       0.9568       0.9809       0.9942       0.9952       0.9956       0.9907       1.0053       1.0113       1.0045       0.9925     851.0000      36.0000       0.4806
  448.9704  176760.0000      16.1842      96.2742      11.7262       1.0006       1.0023       1.0045       1.0094       1.0164       0.9841       1.0126       1.0321       1.0254       1.0041       0.9398       0.9490       0.9563       0.9578       0.9554       0.9847       0.9907       0.9959       0.9950       0.9889     851.0032      36.0000       0.4750
  449.1228  176820.0000      15.1560      96.0854      11.7854       0.9895       0.9951       0.9982       1.0004       1.0041       0.9870       1.0137       1.0310       1.0273       1.0130       0.9248       0.9379       0.9422       0.9355       0.9269       0.9690       0.9789       0.9833       0.9829       0.9827     855.0000      36.0000       0.4694
