~VERSION INFORMATION
VERS.           2.0   :CWLS Log ASCII Standard - VERSION 2.0
WRAP.           NO    :One Line per depth step
PROD.  Company   :LAS Producer
PROG.  DLIS to ASCII 12C0-302                          :LAS Program name and version
CREA.        2006/12/02 23:41                          :LAS Creation date {YYYY/MM/DD hh:mm}
SOURCE.     KGIII6-B1_8in_Pilot_DLIS_120-505m_MD_Index.DLIS  :DLIS File Name
FILE-ID.     Run_1                                     :File Identification Number
#--------------------------------------------------
~WELL INFORMATION
#MNEM.UNIT      DATA             DESCRIPTION
#---- ------ --------------   -----------------------------
STRT .M       119.7864       :START DEPTH     
STOP .M       503.9868       :STOP DEPTH     
STEP .M         0.1524       :STEP     
NULL .          -999.25      :NULL VALUE
COMP .        Company      :COMPANY
WELL .        W2                  :WELL
FLD  .        Block                  :FIELD
LOC  .                                                 :LOCATION
CNTY .        Actinia                                  :COUNTY
STAT .        State                           :STATE
CTRY .                                                 :COUNTRY
JOB  .        06INM0159                                :Job NUMBER
UWI  .                                                 :UNIQUE WELL ID
DATE .        02-Dec-2006                              :LOG DATE {DD-MMM-YYYY}
SRVC .        Company                             :SERVICE COMPANY
LATI .DEG     16.276 N                                :LATITUDE
LONG .DEG     82.0962 E                                :LONGITUDE
GDAT .                                                 :GeoDetic Datum
SECT .        8.5 in                                   :Section
#-----------------------------------------------------------------------------
~PARAMETER INFORMATION
#MNEM.UNIT    VALUE                      DESCRIPTION
#---- -----   --------------------       ------------------------
TN1 .        PowerPulse                  :Tool Number 1
TN2 .        ARC                         :Tool Number 2
OS3  .          N/A                      :Other Services Line 3
OS2  .          InterACT                 :Other Services Line 2
OS1  .          Directional Surveys      :Other Services Line 1
MST  .DEGC      20.00000                 :Mud Sample Temperature
BHT  .DEGC      36.00000                 :Bottom Hole Temperature
RMS.OHMM         3.00000                 :Resistivity of Mud Sample (RM)
MST.DEGC        20.00000                 :Mud Sample temperature (RM)
MW.LB/G         11.00000                 :Mud Weight (RM)
SHT.DEGC        20.00000                 :Surface Hole Temperature (RM)
BSAL .PPM     3300.00000                 :Mud Salinity
MRT  .DEGC     67.00000                  :Maximum Recorded Temperature
MCST .DEGC      20.00000                 :Mud Cake Sample Temperature
RMCS .OHMM       4.50000                 :Resistivity of Mud Cake Sample
MFST .DEGC      20.00000                 :Mud Filtrate Sample Temperature
RMFS .OHMM       2.25000                 :Resistivity of Mud Filtrate Sample
MSS  .        Mud Pit                    :Mud Sample Source
MFSS  .       Mud Pit                    :Mud Filtrate Sample Source
MCSS  .       Mud Pit                    :Mud Cake Sample Source
TCS  .         16:00                     :End Log Time
DCS  .         2-Dec-2006                :End Log Date
DFT  .        WBM                        :Drilling Fluid Type
DFPH .           N/A                     :Drilling Fluid PH
DFV  .S       45.00000                   :Drilling Fluid Viscosity
DFD  .LB/G    11.000000                  :Drilling Fluid Density
DOWR .        71/29                      :Oil/Water Ratio
TLAB .        05:00                      :Begin Log Time
DLAB .        2-Dec-2006                 :Begin Log Date
RUN  .        1                          :Run Number
BLI  .M       500.00000                  :Bottom Log Interval
TLI  .M       120.00000                  :Top Log Interval
WITN .        Mr Lindsay                 :Witness's Name
ENGI .        Hatim/Victor/Harsh         :Engineer's Name
LUL  .        Zone 2                     :Logging Unit Location
LUN  .        OLU-KC-0103                :Logging Unit Number
RR2  .        ARC6 Resistivity is environmentally corrected for mud resistivity and bit size. :Remark Line 2
RR1  .        GR is corrected for bit size, tool size and mud weight               :Remark Line 1
PDAT .        Lowest Astronomical Tide   :Permanent Datum
EPD  .M          0.00000                 :Elevation of Permanent Datum
DMF  .        Driller's Depth            :Drilling Measured From
LMF  .        Drill Floor                :Log Measured From
APD  .M         25.60000                 :Above Permanent Datum
EDF  .M         25.60000                 :Elevation of Derrick Floor
EGL  .M        -79.80000                 :Elevation of Ground Level
EKB  .M         25.60000                 :Elevation of Kelly Bushing
TDL  .M        505.00000                 :Total Depth - Logger
TDD  .M        505.00000                 :Total Depth - Driller
MHD  .DEG        0.09000                 :Maximum Hole Deviation
AMD  .DEG      63.350000                 :Azimuth of Maximum Hole Deviation
BS   .IN         8.50                    :Bit Size
BSDT .M        505.00000                 :Bit Size Depth To
BSDF .M        105.00000                 :Bit Size Depth From
#-----------------------------------------------------------------------------
~CURVE INFORMATION
#MNEM.UNIT   API CODE                                  DESCRIPTION
#---- -----  --------                                  -----------------------
DEPT .M                                                :DEPTH (BOREHOLE) {F10.4}
TDEP ..1IN                                             :0.1-ft Frame Depth {F13.4}
ROP5_RM.M/HR                                           :Rate of Penetration, Averaged over Last 5ft {F13.4}
GR_ARC.GAPI                                            :ARC Gamma Ray {F13.4}
ECD_ARC.LB/G                                           :Equivalent Circulating Density {F13.4}
A16H .OHMM                                             :ARC Attenuation Resistivity 16-in. at 2 MHz {F13.4}
A22H .OHMM                                             :ARC Attenuation Resistivity 22-in. at 2 MHz {F13.4}
A28H .OHMM                                             :ARC Attenuation Resistivity 28-in. at 2 MHz {F13.4}
A34H .OHMM                                             :ARC Attenuation Resistivity 34-in. at 2 MHz {F13.4}
A40H .OHMM                                             :ARC Attenuation Resistivity 40-in. at 2 MHz {F13.4}
A16L .OHMM                                             :ARC Attenuation Resistivity 16-in. at 400 KHz {F13.4}
A22L .OHMM                                             :ARC Attenuation Resistivity 22-in. at 400 KHz {F13.4}
A28L .OHMM                                             :ARC Attenuation Resistivity 28-in. at 400 KHz {F13.4}
A34L .OHMM                                             :ARC Attenuation Resistivity 34-in. at 400 KHz {F13.4}
A40L .OHMM                                             :ARC Attenuation Resistivity 40-in. at 400 KHz {F13.4}
P16H .OHMM                                             :ARC Phase-Shift Resistivity 16-in. at 2 MHz {F13.4}
P22H .OHMM                                             :ARC Phase-Shift Resistivity 22-in. at 2 MHz {F13.4}
P28H .OHMM                                             :ARC Phase-Shift Resistivity 28-in. at 2 MHz {F13.4}
P34H .OHMM                                             :ARC Phase-Shift Resistivity 34-in. at 2 MHz {F13.4}
P40H .OHMM                                             :ARC Phase-Shift Resistivity 40-in. at 2 MHz {F13.4}
P16L .OHMM                                             :ARC Phase-Shift Resistivity 16-in. at 400 KHz {F13.4}
P22L .OHMM                                             :ARC Phase-Shift Resistivity 22-in. at 400 KHz {F13.4}
P28L .OHMM                                             :ARC Phase-Shift Resistivity 28-in. at 400 KHz {F13.4}
P34L .OHMM                                             :ARC Phase-Shift Resistivity 34-in. at 400 KHz {F13.4}
P40L .OHMM                                             :ARC Phase-Shift Resistivity 40-in. at 400 KHz {F13.4}
APRS_ARC.PSI                                           :ARC Annular Pressure {F13.4}
ATMP .DEGC                                             :ARC Annular Temperature {F13.4}
TAB_ARC_RES.HR                                         :ARC Resistivity Time After Bit {F13.4}
#-----------------------------------------------------------------------------
# 
#     DEPT        TDEP       ROP5_RM       GR_ARC      ECD_ARC        A16H         A22H         A28H         A34H         A40H         A16L         A22L         A28L         A34L         A40L         P16H         P22H         P28H         P34H         P40H         P16L         P22L         P28L         P34L         P40L       APRS_ARC       ATMP     TAB_ARC_RES
#
~A  
# ...
  344.1192  135480.0000      52.9711      82.4237      12.3889       0.9876       1.0019       1.0102       1.0160       1.0259       0.9620       0.9987       1.0202       1.0271       1.0357       0.9520       0.9791       0.9939       0.9965       0.9999       0.9890       1.0083       1.0167       1.0045       0.9816     671.0000      35.0000       0.2583
  344.2716  135540.0000      53.9074      82.4237      12.4267       0.9867       0.9920       0.9979       1.0070       1.0176       0.9598       0.9984       1.0266       1.0360       1.0396       0.9590       0.9750       0.9871       0.9905       0.9893       0.9903       1.0002       1.0066       0.9972       0.9746     673.0000      34.0000       0.2583
  344.4240  135600.0000      54.4429      83.7311      12.4645       0.9703       0.9793       0.9850       0.9912       1.0006       0.9608       0.9987       1.0228       1.0336       1.0461       0.8903       0.9031       0.9122       0.9195       0.9292       0.9561       0.9671       0.9728       0.9621       0.9405     675.0024      34.0000       0.2583
  344.5764  135660.0000      54.8771      85.0385      12.4569       0.9670       0.9730       0.9751       0.9784       0.9863       0.9634       0.9996       1.0244       1.0331       1.0393       0.9372       0.9506       0.9587       0.9622       0.9668       0.9751       0.9853       0.9915       0.9807       0.9572     675.0024      34.0000       0.2583
  344.7288  135720.0000      54.7283      87.2916      12.5169       0.9670       0.9730       0.9751       0.9784       0.9863       0.9634       0.9996       1.0244       1.0331       1.0393       0.9372       0.9506       0.9587       0.9622       0.9668       0.9751       0.9853       0.9915       0.9807       0.9572     678.0000      34.0000       0.2556
  344.8812  135780.0000      54.3352      86.1737      12.5321       0.9843       0.9993       1.0075       1.0161       1.0329       0.9684       1.0126       1.0301       1.0451       1.0790       0.9151       0.9266       0.9376       0.9452       0.9497       0.9771       0.9922       0.9989       0.9901       0.9741     679.0000      34.0000       0.2556
  345.0336  135840.0000      54.3341      84.2221      12.5250       1.0034       1.0166       1.0204       1.0269       1.0434       0.9847       1.0259       1.0393       1.0551       1.0909       0.9495       0.9640       0.9790       0.9919       1.0027       1.0037       1.0167       1.0242       1.0145       0.9930     679.0000      34.0000       0.2556
  345.1860  135900.0000      54.3334      82.5942      12.5844       1.0705       1.0704       1.0652       1.0661       1.0770       0.9964       1.0375       1.0500       1.0578       1.0776       1.1002       1.1156       1.1251       1.1268       1.1268       1.1053       1.1132       1.1113       1.0888       1.0561     682.0000      34.0000       0.2556
  345.3384  135960.0000      54.3334      82.5926      12.6219       1.0751       1.0773       1.0709       1.0701       1.0817       0.9960       1.0388       1.0578       1.0628       1.0685       1.1197       1.1351       1.1443       1.1470       1.1498       1.1083       1.1143       1.1153       1.1014       1.0777     684.0000      34.0000       0.2556
  345.4908  136020.0000      54.3341      81.3988      12.6147       1.1006       1.1008       1.0982       1.1020       1.1142       1.0159       1.0488       1.0645       1.0733       1.0839       0.9486       0.9675       0.9821       0.9926       1.0038       1.0312       1.0438       1.0515       1.0437       1.0253     684.0000      34.0000       0.2583
  345.6432  136080.0000      54.1211      77.9882      12.6075       1.0591       1.0582       1.0558       1.0558       1.0593       0.9884       1.0235       1.0378       1.0446       1.0580       1.0436       1.0593       1.0668       1.0675       1.0699       1.0664       1.0732       1.0833       1.0724       1.0385     683.9992      34.0000       0.2583
  345.7956  136140.0000      53.5678      72.1160      12.5775       1.0604       1.0526       1.0520       1.0542       1.0528       0.9942       1.0241       1.0419       1.0520       1.0608       1.0528       1.0580       1.0647       1.0676       1.0650       1.0701       1.0716       1.0719       1.0523       1.0161     683.0000      34.0000       0.2583
  345.9480  136200.0000      52.9929      70.5243      12.5481       0.9554       0.9653       0.9717       0.9745       0.9766       0.9437       0.9780       0.9978       1.0149       1.0341       0.9413       0.9462       0.9570       0.9551       0.9348       0.9633       0.9726       0.9804       0.9702       0.9443     682.0000      34.0000       0.2667
  346.1004  136260.0000      53.1195      72.3623      12.4963       0.9592       0.9683       0.9711       0.9760       0.9884       0.9371       0.9816       1.0010       1.0173       1.0445       0.8918       0.9066       0.9174       0.9237       0.9300       0.9344       0.9550       0.9658       0.9556       0.9342     680.0000      34.0000       0.2667
  346.2528  136320.0000      52.4175      77.9142      12.4669       0.9455       0.9641       0.9733       0.9802       0.9929       0.9362       0.9732       0.9873       1.0045       1.0437       0.8881       0.9238       0.9448       0.9527       0.9645       0.9348       0.9682       0.9832       0.9723       0.9539     678.9992      34.0000       0.2667
  346.4052  136380.0000      52.2612      81.4575      12.4371       0.9772       0.9944       1.0022       1.0126       1.0342       0.9383       0.9740       0.9950       1.0150       1.0397       0.9120       0.9395       0.9558       0.9616       0.9692       0.9563       0.9850       0.9964       0.9846       0.9667     678.0000      34.0000       0.2667
  346.5576  136440.0000      51.2841      80.4343      12.4746       0.9710       0.9799       0.9826       0.9909       1.0113       0.9247       0.9625       0.9809       0.9916       1.0074       1.0192       1.0445       1.0533       1.0562       1.0710       1.0083       1.0239       1.0289       1.0166       0.9973     680.0000      34.0000       0.2667
  346.7100  136500.0000      51.2841      78.0277      12.4675       0.9906       0.9927       0.9956       1.0037       1.0162       0.9438       0.9715       0.9862       0.9993       1.0216       0.9580       0.9677       0.9787       0.9881       0.9947       0.9719       0.9842       0.9901       0.9795       0.9588     680.0000      34.0000       0.2667
  346.8624  136560.0000      51.2860      77.6481      12.4382       0.9987       0.9989       1.0014       1.0110       1.0247       0.9448       0.9706       0.9873       1.0023       1.0223       0.9025       0.9242       0.9414       0.9546       0.9692       0.9568       0.9677       0.9785       0.9727       0.9510     679.0000      34.0000       0.2667
  347.0148  136620.0000      51.2860      79.3529      12.3867       0.9732       0.9739       0.9751       0.9812       0.9913       0.9352       0.9656       0.9810       0.9891       0.9986       0.8895       0.9117       0.9281       0.9337       0.9350       0.9629       0.9660       0.9728       0.9631       0.9348     677.0000      34.0000       0.2667
  347.1672  136680.0000      51.2832      80.8687      12.3792       0.9545       0.9605       0.9659       0.9709       0.9757       0.9381       0.9690       0.9864       0.9954       1.0041       0.8907       0.8999       0.9063       0.9062       0.9025       0.9392       0.9466       0.9551       0.9504       0.9318     677.0000      34.0000       0.2667
  347.3196  136740.0000      51.3317      80.8693      12.3722       0.9452       0.9537       0.9623       0.9702       0.9767       0.9283       0.9657       0.9849       0.9923       0.9991       0.9572       0.9787       0.9991       1.0018       0.9885       0.9670       0.9860       0.9958       0.9796       0.9476     677.0000      34.0000       0.2667
  347.4720  136800.0000      51.8174      79.8657      12.4095       0.9682       0.9789       0.9839       0.9906       1.0042       0.9303       0.9720       0.9948       1.0055       1.0151       0.9063       0.9371       0.9586       0.9643       0.9644       0.9410       0.9685       0.9851       0.9746       0.9485     679.0000      34.0000       0.2667
