~VERSION INFORMATION
VERS.           2.0   :CWLS Log ASCII Standard - VERSION 2.0
WRAP.           NO    :One Line per depth step
PROD.  Company   :LAS Producer
PROG.  DLIS to ASCII 12C0-302                          :LAS Program name and version
CREA.        2006/12/02 23:41                          :LAS Creation date {YYYY/MM/DD hh:mm}
SOURCE.     KGIII6-B1_8in_Pilot_DLIS_120-505m_MD_Index.DLIS  :DLIS File Name
FILE-ID.     Run_1                                     :File Identification Number
#--------------------------------------------------
~WELL INFORMATION
#MNEM.UNIT      DATA             DESCRIPTION
#---- ------ --------------   -----------------------------
STRT .M       119.7864       :START DEPTH     
STOP .M       503.9868       :STOP DEPTH     
STEP .M         0.1524       :STEP     
NULL .          -999.25      :NULL VALUE
COMP .        Company      :COMPANY
WELL .        W2                  :WELL
FLD  .        Block                  :FIELD
LOC  .                                                 :LOCATION
CNTY .        Actinia                                  :COUNTY
STAT .        State                           :STATE
CTRY .                                                 :COUNTRY
JOB  .        06INM0159                                :Job NUMBER
UWI  .                                                 :UNIQUE WELL ID
DATE .        02-Dec-2006                              :LOG DATE {DD-MMM-YYYY}
SRVC .        Company                             :SERVICE COMPANY
LATI .DEG     16.276 N                                :LATITUDE
LONG .DEG     82.0962 E                                :LONGITUDE
GDAT .                                                 :GeoDetic Datum
SECT .        8.5 in                                   :Section
#-----------------------------------------------------------------------------
~PARAMETER INFORMATION
#MNEM.UNIT    VALUE                      DESCRIPTION
#---- -----   --------------------       ------------------------
TN1 .        PowerPulse                  :Tool Number 1
TN2 .        ARC                         :Tool Number 2
OS3  .          N/A                      :Other Services Line 3
OS2  .          InterACT                 :Other Services Line 2
OS1  .          Directional Surveys      :Other Services Line 1
MST  .DEGC      20.00000                 :Mud Sample Temperature
BHT  .DEGC      36.00000                 :Bottom Hole Temperature
RMS.OHMM         3.00000                 :Resistivity of Mud Sample (RM)
MST.DEGC        20.00000                 :Mud Sample temperature (RM)
MW.LB/G         11.00000                 :Mud Weight (RM)
SHT.DEGC        20.00000                 :Surface Hole Temperature (RM)
BSAL .PPM     3300.00000                 :Mud Salinity
MRT  .DEGC     67.00000                  :Maximum Recorded Temperature
MCST .DEGC      20.00000                 :Mud Cake Sample Temperature
RMCS .OHMM       4.50000                 :Resistivity of Mud Cake Sample
MFST .DEGC      20.00000                 :Mud Filtrate Sample Temperature
RMFS .OHMM       2.25000                 :Resistivity of Mud Filtrate Sample
MSS  .        Mud Pit                    :Mud Sample Source
MFSS  .       Mud Pit                    :Mud Filtrate Sample Source
MCSS  .       Mud Pit                    :Mud Cake Sample Source
TCS  .         16:00                     :End Log Time
DCS  .         2-Dec-2006                :End Log Date
DFT  .        WBM                        :Drilling Fluid Type
DFPH .           N/A                     :Drilling Fluid PH
DFV  .S       45.00000                   :Drilling Fluid Viscosity
DFD  .LB/G    11.000000                  :Drilling Fluid Density
DOWR .        71/29                      :Oil/Water Ratio
TLAB .        05:00                      :Begin Log Time
DLAB .        2-Dec-2006                 :Begin Log Date
RUN  .        1                          :Run Number
BLI  .M       500.00000                  :Bottom Log Interval
TLI  .M       120.00000                  :Top Log Interval
WITN .        Mr Lindsay                 :Witness's Name
ENGI .        Hatim/Victor/Harsh         :Engineer's Name
LUL  .        Zone 2                     :Logging Unit Location
LUN  .        OLU-KC-0103                :Logging Unit Number
RR2  .        ARC6 Resistivity is environmentally corrected for mud resistivity and bit size. :Remark Line 2
RR1  .        GR is corrected for bit size, tool size and mud weight               :Remark Line 1
PDAT .        Lowest Astronomical Tide   :Permanent Datum
EPD  .M          0.00000                 :Elevation of Permanent Datum
DMF  .        Driller's Depth            :Drilling Measured From
LMF  .        Drill Floor                :Log Measured From
APD  .M         25.60000                 :Above Permanent Datum
EDF  .M         25.60000                 :Elevation of Derrick Floor
EGL  .M        -79.80000                 :Elevation of Ground Level
EKB  .M         25.60000                 :Elevation of Kelly Bushing
TDL  .M        505.00000                 :Total Depth - Logger
TDD  .M        505.00000                 :Total Depth - Driller
MHD  .DEG        0.09000                 :Maximum Hole Deviation
AMD  .DEG      63.350000                 :Azimuth of Maximum Hole Deviation
BS   .IN         8.50                    :Bit Size
BSDT .M        505.00000                 :Bit Size Depth To
BSDF .M        105.00000                 :Bit Size Depth From
#-----------------------------------------------------------------------------
~CURVE INFORMATION
#MNEM.UNIT   API CODE                                  DESCRIPTION
#---- -----  --------                                  -----------------------
DEPT .M                                                :DEPTH (BOREHOLE) {F10.4}
TDEP ..1IN                                             :0.1-ft Frame Depth {F13.4}
ROP5_RM.M/HR                                           :Rate of Penetration, Averaged over Last 5ft {F13.4}
GR_ARC.GAPI                                            :ARC Gamma Ray {F13.4}
ECD_ARC.LB/G                                           :Equivalent Circulating Density {F13.4}
A16H .OHMM                                             :ARC Attenuation Resistivity 16-in. at 2 MHz {F13.4}
A22H .OHMM                                             :ARC Attenuation Resistivity 22-in. at 2 MHz {F13.4}
A28H .OHMM                                             :ARC Attenuation Resistivity 28-in. at 2 MHz {F13.4}
A34H .OHMM                                             :ARC Attenuation Resistivity 34-in. at 2 MHz {F13.4}
A40H .OHMM                                             :ARC Attenuation Resistivity 40-in. at 2 MHz {F13.4}
A16L .OHMM                                             :ARC Attenuation Resistivity 16-in. at 400 KHz {F13.4}
A22L .OHMM                                             :ARC Attenuation Resistivity 22-in. at 400 KHz {F13.4}
A28L .OHMM                                             :ARC Attenuation Resistivity 28-in. at 400 KHz {F13.4}
A34L .OHMM                                             :ARC Attenuation Resistivity 34-in. at 400 KHz {F13.4}
A40L .OHMM                                             :ARC Attenuation Resistivity 40-in. at 400 KHz {F13.4}
P16H .OHMM                                             :ARC Phase-Shift Resistivity 16-in. at 2 MHz {F13.4}
P22H .OHMM                                             :ARC Phase-Shift Resistivity 22-in. at 2 MHz {F13.4}
P28H .OHMM                                             :ARC Phase-Shift Resistivity 28-in. at 2 MHz {F13.4}
P34H .OHMM                                             :ARC Phase-Shift Resistivity 34-in. at 2 MHz {F13.4}
P40H .OHMM                                             :ARC Phase-Shift Resistivity 40-in. at 2 MHz {F13.4}
P16L .OHMM                                             :ARC Phase-Shift Resistivity 16-in. at 400 KHz {F13.4}
P22L .OHMM                                             :ARC Phase-Shift Resistivity 22-in. at 400 KHz {F13.4}
P28L .OHMM                                             :ARC Phase-Shift Resistivity 28-in. at 400 KHz {F13.4}
P34L .OHMM                                             :ARC Phase-Shift Resistivity 34-in. at 400 KHz {F13.4}
P40L .OHMM                                             :ARC Phase-Shift Resistivity 40-in. at 400 KHz {F13.4}
APRS_ARC.PSI                                           :ARC Annular Pressure {F13.4}
ATMP .DEGC                                             :ARC Annular Temperature {F13.4}
TAB_ARC_RES.HR                                         :ARC Resistivity Time After Bit {F13.4}
#-----------------------------------------------------------------------------
# 
#     DEPT        TDEP       ROP5_RM       GR_ARC      ECD_ARC        A16H         A22H         A28H         A34H         A40H         A16L         A22L         A28L         A34L         A40L         P16H         P22H         P28H         P34H         P40H         P16L         P22L         P28L         P34L         P40L       APRS_ARC       ATMP     TAB_ARC_RES
#
~A  
# ...
  168.8592   66480.0000      53.7861      59.2692       9.7299       0.6290       0.6327       0.6362       0.6380       0.6381       0.6359       0.6391       0.6450       0.6494       0.6495       0.6091       0.6162       0.6235       0.6328       0.6447       0.6307       0.6390       0.6423       0.6359       0.6250     262.0000      37.0000       0.1000
  169.0116   66540.0000      52.9813      57.6208       9.7811       0.6336       0.6331       0.6329       0.6334       0.6345       0.6307       0.6418       0.6515       0.6543       0.6505       0.6108       0.6200       0.6299       0.6362       0.6381       0.6330       0.6387       0.6409       0.6329       0.6187     263.0000      37.0000       0.2528
  169.1640   66600.0000      52.7520      58.5109       9.6961       0.6305       0.6325       0.6319       0.6325       0.6365       0.6285       0.6404       0.6492       0.6536       0.6549       0.6097       0.6151       0.6224       0.6293       0.6337       0.6291       0.6350       0.6394       0.6342       0.6213     262.0000      37.0000       0.2528
  169.3164   66660.0000      52.3058      58.0751       9.7460       0.6279       0.6297       0.6305       0.6330       0.6380       0.6282       0.6388       0.6448       0.6506       0.6585       0.5956       0.6004       0.6060       0.6153       0.6280       0.6184       0.6267       0.6301       0.6218       0.6071     263.0004      37.0000       0.2528
  169.4688   66720.0000      51.7906      57.6393       9.7969       0.6279       0.6297       0.6305       0.6330       0.6380       0.6282       0.6388       0.6448       0.6506       0.6585       0.5956       0.6004       0.6060       0.6153       0.6280       0.6184       0.6267       0.6301       0.6218       0.6071     264.0000      37.0000       0.2500
  169.6212   66780.0000      51.7566      56.4271       9.4420       0.6192       0.6237       0.6244       0.6263       0.6328       0.6138       0.6273       0.6372       0.6480       0.6607       0.5967       0.6048       0.6129       0.6207       0.6283       0.6173       0.6234       0.6293       0.6252       0.6116     259.0000      36.0000       0.2472
  169.7736   66840.0000      51.2724      56.2376       9.5606       0.6209       0.6249       0.6266       0.6295       0.6354       0.6123       0.6285       0.6389       0.6479       0.6585       0.5991       0.6038       0.6124       0.6202       0.6230       0.6185       0.6251       0.6318       0.6292       0.6176     261.0000      36.0000       0.2472
  169.9260   66900.0000      51.7559      55.6691       9.5431       0.6209       0.6249       0.6266       0.6295       0.6354       0.6123       0.6285       0.6389       0.6479       0.6585       0.5991       0.6038       0.6124       0.6202       0.6230       0.6185       0.6251       0.6318       0.6292       0.6176     261.0000      36.0000       0.2444
  170.0784   66960.0000      51.8052      55.2902       9.6612       0.6207       0.6253       0.6259       0.6243       0.6240       0.6212       0.6316       0.6381       0.6426       0.6470       0.5930       0.5881       0.5967       0.6177       0.6379       0.6166       0.6240       0.6290       0.6238       0.6112     263.0004      36.0000       0.2444
  170.2308   67020.0000      52.3050      55.5555       9.7117       0.6207       0.6253       0.6259       0.6243       0.6240       0.6212       0.6316       0.6381       0.6426       0.6470       0.5930       0.5881       0.5967       0.6177       0.6379       0.6166       0.6240       0.6290       0.6238       0.6112     264.0000      36.0000       0.2417
  170.3832   67080.0000      52.6601      56.3133       9.6951       0.6221       0.6275       0.6312       0.6355       0.6417       0.6342       0.6366       0.6399       0.6458       0.6528       0.5808       0.5918       0.6024       0.6081       0.6094       0.6054       0.6185       0.6257       0.6203       0.6085     264.0000      36.0000       0.2417
  170.5356   67140.0000      52.3415      57.0712       9.9449       0.6221       0.6275       0.6312       0.6355       0.6417       0.6342       0.6366       0.6399       0.6458       0.6528       0.5808       0.5918       0.6024       0.6081       0.6094       0.6054       0.6185       0.6257       0.6203       0.6085     268.0000      36.0000       0.2389
  170.6880   67200.0000      53.2640      57.1281       9.9279       0.6238       0.6305       0.6314       0.6329       0.6403       0.6117       0.6277       0.6373       0.6433       0.6493       0.5879       0.5985       0.6079       0.6162       0.6249       0.6132       0.6284       0.6368       0.6309       0.6179     268.0000      36.0000       0.2389
  170.8404   67260.0000      54.7166      56.3133      10.1110       0.6274       0.6353       0.6381       0.6383       0.6404       0.6203       0.6301       0.6374       0.6440       0.6507       0.5987       0.6137       0.6284       0.6395       0.6477       0.6246       0.6378       0.6470       0.6453       0.6365     271.0000      36.0000       0.2417
  170.9928   67320.0000      55.3150      54.9302      10.0938       0.6306       0.6273       0.6272       0.6308       0.6351       0.6274       0.6323       0.6396       0.6461       0.6487       0.5943       0.6070       0.6180       0.6234       0.6250       0.6193       0.6296       0.6343       0.6276       0.6154     271.0000      36.0000       0.2417
  171.1452   67380.0000      56.2469      54.0396      10.1419       0.6191       0.6228       0.6246       0.6254       0.6270       0.6364       0.6367       0.6364       0.6415       0.6518       0.5852       0.5931       0.6025       0.6123       0.6209       0.6053       0.6153       0.6219       0.6210       0.6157     272.0000      36.0000       0.2417
  171.2976   67440.0000      56.9338      54.0969      10.0584       0.6246       0.6281       0.6266       0.6255       0.6292       0.6230       0.6301       0.6375       0.6436       0.6471       0.5800       0.5936       0.6049       0.6159       0.6298       0.6151       0.6244       0.6265       0.6162       0.6012     270.9996      36.0000       0.2417
  171.4500   67500.0000      57.4762      55.8591      10.0414       0.6218       0.6269       0.6285       0.6302       0.6348       0.6233       0.6320       0.6360       0.6396       0.6456       0.5891       0.6007       0.6086       0.6210       0.6429       0.6156       0.6244       0.6318       0.6283       0.6154     270.9996      36.0000       0.2417
  171.6024   67560.0000      58.0565      56.9960       9.9584       0.6253       0.6278       0.6278       0.6339       0.6486       0.6179       0.6273       0.6340       0.6390       0.6433       0.5806       0.5880       0.5981       0.6133       0.6315       0.6040       0.6167       0.6244       0.6236       0.6191     270.0000      36.0000       0.2417
  171.7548   67620.0000      58.3635      58.3787       9.8756       0.6253       0.6278       0.6278       0.6339       0.6486       0.6179       0.6273       0.6340       0.6390       0.6433       0.5806       0.5880       0.5981       0.6133       0.6315       0.6040       0.6167       0.6244       0.6236       0.6191     269.0000      36.0000       0.2389
  171.9072   67680.0000      58.8250      58.6250       9.7262       0.6212       0.6229       0.6242       0.6266       0.6302       0.6209       0.6252       0.6290       0.6345       0.6409       0.6010       0.6008       0.6049       0.6163       0.6312       0.6160       0.6246       0.6286       0.6241       0.6156     267.0000      36.0000       0.2389
  172.0596   67740.0000      59.6326      58.9471       9.6441       0.6168       0.6188       0.6186       0.6176       0.6177       0.6123       0.6214       0.6276       0.6317       0.6352       0.5958       0.5973       0.6091       0.6267       0.6394       0.6154       0.6204       0.6232       0.6166       0.6031     266.0000      36.0000       0.2389
  172.2120   67800.0000      59.6326      58.3976       9.6935       0.6102       0.6152       0.6165       0.6168       0.6195       0.6132       0.6189       0.6225       0.6253       0.6282       0.5890       0.5961       0.6056       0.6145       0.6207       0.6104       0.6160       0.6200       0.6170       0.6086     266.9996      36.0000       0.2389
