~VERSION INFORMATION
VERS.           2.0   :CWLS Log ASCII Standard - VERSION 2.0
WRAP.           NO    :One Line per depth step
PROD.  Company   :LAS Producer
PROG.  DLIS to ASCII 12C0-302                          :LAS Program name and version
CREA.        2006/12/02 23:41                          :LAS Creation date {YYYY/MM/DD hh:mm}
SOURCE.     KGIII6-B1_8in_Pilot_DLIS_120-505m_MD_Index.DLIS  :DLIS File Name
FILE-ID.     Run_1                                     :File Identification Number
#--------------------------------------------------
~WELL INFORMATION
#MNEM.UNIT      DATA             DESCRIPTION
#---- ------ --------------   -----------------------------
STRT .M       119.7864       :START DEPTH     
STOP .M       503.9868       :STOP DEPTH     
STEP .M         0.1524       :STEP     
NULL .          -999.25      :NULL VALUE
COMP .        Company      :COMPANY
WELL .        W2                  :WELL
FLD  .        Block                  :FIELD
LOC  .                                                 :LOCATION
CNTY .        Actinia                                  :COUNTY
STAT .        State                           :STATE
CTRY .                                                 :COUNTRY
JOB  .        06INM0159                                :Job NUMBER
UWI  .                                                 :UNIQUE WELL ID
DATE .        02-Dec-2006                              :LOG DATE {DD-MMM-YYYY}
SRVC .        Company                             :SERVICE COMPANY
LATI .DEG     16.276 N                                :LATITUDE
LONG .DEG     82.0962 E                                :LONGITUDE
GDAT .                                                 :GeoDetic Datum
SECT .        8.5 in                                   :Section
#-----------------------------------------------------------------------------
~PARAMETER INFORMATION
#MNEM.UNIT    VALUE                      DESCRIPTION
#---- -----   --------------------       ------------------------
TN1 .        PowerPulse                  :Tool Number 1
TN2 .        ARC                         :Tool Number 2
OS3  .          N/A                      :Other Services Line 3
OS2  .          InterACT                 :Other Services Line 2
OS1  .          Directional Surveys      :Other Services Line 1
MST  .DEGC      20.00000                 :Mud Sample Temperature
BHT  .DEGC      36.00000                 :Bottom Hole Temperature
RMS.OHMM         3.00000                 :Resistivity of Mud Sample (RM)
MST.DEGC        20.00000                 :Mud Sample temperature (RM)
MW.LB/G         11.00000                 :Mud Weight (RM)
SHT.DEGC        20.00000                 :Surface Hole Temperature (RM)
BSAL .PPM     3300.00000                 :Mud Salinity
MRT  .DEGC     67.00000                  :Maximum Recorded Temperature
MCST .DEGC      20.00000                 :Mud Cake Sample Temperature
RMCS .OHMM       4.50000                 :Resistivity of Mud Cake Sample
MFST .DEGC      20.00000                 :Mud Filtrate Sample Temperature
RMFS .OHMM       2.25000                 :Resistivity of Mud Filtrate Sample
MSS  .        Mud Pit                    :Mud Sample Source
MFSS  .       Mud Pit                    :Mud Filtrate Sample Source
MCSS  .       Mud Pit                    :Mud Cake Sample Source
TCS  .         16:00                     :End Log Time
DCS  .         2-Dec-2006                :End Log Date
DFT  .        WBM                        :Drilling Fluid Type
DFPH .           N/A                     :Drilling Fluid PH
DFV  .S       45.00000                   :Drilling Fluid Viscosity
DFD  .LB/G    11.000000                  :Drilling Fluid Density
DOWR .        71/29                      :Oil/Water Ratio
TLAB .        05:00                      :Begin Log Time
DLAB .        2-Dec-2006                 :Begin Log Date
RUN  .        1                          :Run Number
BLI  .M       500.00000                  :Bottom Log Interval
TLI  .M       120.00000                  :Top Log Interval
WITN .        Mr Lindsay                 :Witness's Name
ENGI .        Hatim/Victor/Harsh         :Engineer's Name
LUL  .        Zone 2                     :Logging Unit Location
LUN  .        OLU-KC-0103                :Logging Unit Number
RR2  .        ARC6 Resistivity is environmentally corrected for mud resistivity and bit size. :Remark Line 2
RR1  .        GR is corrected for bit size, tool size and mud weight               :Remark Line 1
PDAT .        Lowest Astronomical Tide   :Permanent Datum
EPD  .M          0.00000                 :Elevation of Permanent Datum
DMF  .        Driller's Depth            :Drilling Measured From
LMF  .        Drill Floor                :Log Measured From
APD  .M         25.60000                 :Above Permanent Datum
EDF  .M         25.60000                 :Elevation of Derrick Floor
EGL  .M        -79.80000                 :Elevation of Ground Level
EKB  .M         25.60000                 :Elevation of Kelly Bushing
TDL  .M        505.00000                 :Total Depth - Logger
TDD  .M        505.00000                 :Total Depth - Driller
MHD  .DEG        0.09000                 :Maximum Hole Deviation
AMD  .DEG      63.350000                 :Azimuth of Maximum Hole Deviation
BS   .IN         8.50                    :Bit Size
BSDT .M        505.00000                 :Bit Size Depth To
BSDF .M        105.00000                 :Bit Size Depth From
#-----------------------------------------------------------------------------
~CURVE INFORMATION
#MNEM.UNIT   API CODE                                  DESCRIPTION
#---- -----  --------                                  -----------------------
DEPT .M                                                :DEPTH (BOREHOLE) {F10.4}
TDEP ..1IN                                             :0.1-ft Frame Depth {F13.4}
ROP5_RM.M/HR                                           :Rate of Penetration, Averaged over Last 5ft {F13.4}
GR_ARC.GAPI                                            :ARC Gamma Ray {F13.4}
ECD_ARC.LB/G                                           :Equivalent Circulating Density {F13.4}
A16H .OHMM                                             :ARC Attenuation Resistivity 16-in. at 2 MHz {F13.4}
A22H .OHMM                                             :ARC Attenuation Resistivity 22-in. at 2 MHz {F13.4}
A28H .OHMM                                             :ARC Attenuation Resistivity 28-in. at 2 MHz {F13.4}
A34H .OHMM                                             :ARC Attenuation Resistivity 34-in. at 2 MHz {F13.4}
A40H .OHMM                                             :ARC Attenuation Resistivity 40-in. at 2 MHz {F13.4}
A16L .OHMM                                             :ARC Attenuation Resistivity 16-in. at 400 KHz {F13.4}
A22L .OHMM                                             :ARC Attenuation Resistivity 22-in. at 400 KHz {F13.4}
A28L .OHMM                                             :ARC Attenuation Resistivity 28-in. at 400 KHz {F13.4}
A34L .OHMM                                             :ARC Attenuation Resistivity 34-in. at 400 KHz {F13.4}
A40L .OHMM                                             :ARC Attenuation Resistivity 40-in. at 400 KHz {F13.4}
P16H .OHMM                                             :ARC Phase-Shift Resistivity 16-in. at 2 MHz {F13.4}
P22H .OHMM                                             :ARC Phase-Shift Resistivity 22-in. at 2 MHz {F13.4}
P28H .OHMM                                             :ARC Phase-Shift Resistivity 28-in. at 2 MHz {F13.4}
P34H .OHMM                                             :ARC Phase-Shift Resistivity 34-in. at 2 MHz {F13.4}
P40H .OHMM                                             :ARC Phase-Shift Resistivity 40-in. at 2 MHz {F13.4}
P16L .OHMM                                             :ARC Phase-Shift Resistivity 16-in. at 400 KHz {F13.4}
P22L .OHMM                                             :ARC Phase-Shift Resistivity 22-in. at 400 KHz {F13.4}
P28L .OHMM                                             :ARC Phase-Shift Resistivity 28-in. at 400 KHz {F13.4}
P34L .OHMM                                             :ARC Phase-Shift Resistivity 34-in. at 400 KHz {F13.4}
P40L .OHMM                                             :ARC Phase-Shift Resistivity 40-in. at 400 KHz {F13.4}
APRS_ARC.PSI                                           :ARC Annular Pressure {F13.4}
ATMP .DEGC                                             :ARC Annular Temperature {F13.4}
TAB_ARC_RES.HR                                         :ARC Resistivity Time After Bit {F13.4}
#-----------------------------------------------------------------------------
# 
#     DEPT        TDEP       ROP5_RM       GR_ARC      ECD_ARC        A16H         A22H         A28H         A34H         A40H         A16L         A22L         A28L         A34L         A40L         P16H         P22H         P28H         P34H         P40H         P16L         P22L         P28L         P34L         P40L       APRS_ARC       ATMP     TAB_ARC_RES
#
~A  
# ...
  245.9736   96840.0000      58.7404      72.5900      11.5334       0.7101       0.7191       0.7222       0.7248       0.7321       0.7087       0.7356       0.7502       0.7551       0.7577       0.6671       0.6809       0.6880       0.6932       0.7038       0.7045       0.7138       0.7192       0.7163       0.7090     440.0004      34.0000       0.1028
  246.1260   96900.0000      58.1183      72.5328      11.5580       0.7121       0.7216       0.7235       0.7263       0.7361       0.7094       0.7350       0.7467       0.7506       0.7552       0.6612       0.6746       0.6825       0.6903       0.7044       0.6945       0.7092       0.7201       0.7175       0.7054     441.0000      34.0000       0.1028
  246.2784   96960.0000      57.9956      68.8190      11.5115       0.7121       0.7227       0.7256       0.7301       0.7428       0.7037       0.7322       0.7480       0.7546       0.7592       0.6807       0.6955       0.7059       0.7103       0.7135       0.7045       0.7207       0.7283       0.7224       0.7115     440.0000      34.0000       0.1028
  246.4308   97020.0000      58.1183      65.8634      11.5369       0.7186       0.7283       0.7318       0.7347       0.7422       0.7022       0.7262       0.7441       0.7562       0.7645       0.6879       0.7035       0.7109       0.7148       0.7239       0.7115       0.7240       0.7317       0.7280       0.7176     441.0000      34.0000       0.1028
  246.5832   97080.0000      57.5095      64.4053      11.5621       0.7213       0.7260       0.7269       0.7318       0.7435       0.7075       0.7304       0.7411       0.7468       0.7548       0.7085       0.7156       0.7251       0.7353       0.7438       0.7253       0.7316       0.7381       0.7358       0.7243     442.0008      34.0000       0.1028
  246.7356   97140.0000      56.7238      67.9296      11.6224       0.7271       0.7298       0.7314       0.7357       0.7435       0.7090       0.7309       0.7419       0.7455       0.7482       0.6916       0.7020       0.7111       0.7169       0.7207       0.7139       0.7248       0.7330       0.7293       0.7165     443.9996      34.0000       0.1028
  246.8880   97200.0000      56.1734      70.0137      11.5760       0.7213       0.7236       0.7238       0.7265       0.7333       0.7042       0.7277       0.7405       0.7456       0.7492       0.7004       0.7094       0.7141       0.7163       0.7207       0.7212       0.7305       0.7362       0.7290       0.7130     443.0000      34.0000       0.1028
  247.0404   97260.0000      56.1017      71.1496      11.6012       0.7257       0.7246       0.7226       0.7251       0.7326       0.7127       0.7319       0.7429       0.7494       0.7557       0.6939       0.7000       0.7014       0.7028       0.7089       0.7180       0.7232       0.7295       0.7248       0.7082     444.0000      34.0000       0.1028
  247.1928   97320.0000      55.4165      69.6335      11.5192       0.7143       0.7204       0.7240       0.7281       0.7347       0.7091       0.7300       0.7424       0.7501       0.7574       0.6851       0.6914       0.6978       0.7012       0.7017       0.7135       0.7206       0.7262       0.7217       0.7085     442.0000      34.0000       0.1028
  247.3452   97380.0000      55.1947      68.1744      11.6150       0.7187       0.7232       0.7254       0.7307       0.7406       0.7112       0.7325       0.7434       0.7498       0.7574       0.6824       0.6915       0.6977       0.7013       0.7054       0.7111       0.7214       0.7262       0.7169       0.6993     445.0000      34.0000       0.1028
  247.4976   97440.0000      54.6209      66.9239      11.6044       0.7265       0.7331       0.7363       0.7382       0.7413       0.7062       0.7301       0.7427       0.7494       0.7564       0.7139       0.7252       0.7328       0.7354       0.7372       0.7278       0.7375       0.7437       0.7372       0.7215     445.0004      34.0000       0.1028
  247.6500   97500.0000      54.3189      66.3557      11.6295       0.7304       0.7340       0.7361       0.7418       0.7521       0.7125       0.7311       0.7427       0.7507       0.7584       0.7102       0.7233       0.7336       0.7367       0.7361       0.7300       0.7363       0.7393       0.7335       0.7221     446.0000      34.0000       0.1028
  247.8024   97560.0000      52.7670      66.7348      11.6189       0.7248       0.7277       0.7280       0.7307       0.7379       0.7161       0.7349       0.7457       0.7477       0.7457       0.6774       0.6880       0.6935       0.6955       0.6995       0.7191       0.7240       0.7258       0.7148       0.6943     446.0000      34.0000       0.1028
  247.9548   97620.0000      51.7945      66.0338      11.6439       0.7295       0.7309       0.7316       0.7344       0.7394       0.7122       0.7336       0.7451       0.7514       0.7581       0.6845       0.6830       0.6834       0.6879       0.6948       0.7163       0.7215       0.7253       0.7211       0.7102     447.0000      34.0000       0.1028
  248.1072   97680.0000      51.4976      65.3327      11.5971       0.7308       0.7378       0.7403       0.7451       0.7556       0.7136       0.7324       0.7399       0.7446       0.7533       0.7142       0.7285       0.7369       0.7414       0.7486       0.7295       0.7405       0.7480       0.7421       0.7265     446.0004      34.0000       0.1000
  248.2596   97740.0000      50.1038      65.2190      11.6221       0.7361       0.7381       0.7391       0.7425       0.7489       0.7102       0.7321       0.7420       0.7437       0.7447       0.7205       0.7302       0.7389       0.7463       0.7533       0.7372       0.7449       0.7510       0.7426       0.7222     447.0004      34.0000       0.1000
  248.4120   97800.0000      48.5627      66.7348      11.6470       0.7311       0.7352       0.7345       0.7325       0.7332       0.7115       0.7307       0.7402       0.7467       0.7555       0.7031       0.7057       0.7080       0.7086       0.7079       0.7272       0.7359       0.7410       0.7336       0.7177     448.0000      34.0000       0.1000
  248.5644   97860.0000      47.7384      67.6249      11.6364       0.7304       0.7322       0.7314       0.7357       0.7470       0.7122       0.7340       0.7421       0.7460       0.7543       0.7000       0.7060       0.7092       0.7129       0.7200       0.7272       0.7313       0.7323       0.7239       0.7093     448.0000      34.0000       0.1000
  248.7168   97920.0000      47.6155      68.0607      11.6252       0.7293       0.7364       0.7358       0.7344       0.7388       0.7188       0.7320       0.7375       0.7442       0.7560       0.7013       0.7115       0.7159       0.7142       0.7124       0.7257       0.7358       0.7416       0.7369       0.7260     448.0000      34.0000       0.1000
  248.8692   97980.0000      46.8018      69.1976      11.6147       0.7361       0.7440       0.7430       0.7444       0.7558       0.7072       0.7274       0.7354       0.7387       0.7449       0.7102       0.7231       0.7304       0.7348       0.7423       0.7335       0.7426       0.7458       0.7378       0.7243     448.0008      34.0000       0.1000
  249.0216   98040.0000      46.4930      73.1774      11.6748       0.7367       0.7415       0.7413       0.7415       0.7462       0.7046       0.7211       0.7292       0.7341       0.7403       0.7330       0.7451       0.7517       0.7540       0.7579       0.7424       0.7497       0.7521       0.7456       0.7349     450.0000      34.0000       0.1028
  249.1740   98100.0000      46.3189      77.7818      11.6290       0.7379       0.7322       0.7275       0.7305       0.7405       0.6940       0.7137       0.7230       0.7231       0.7219       0.7233       0.7317       0.7371       0.7410       0.7463       0.7379       0.7384       0.7396       0.7319       0.7152     449.0000      34.0000       0.1028
  249.3264   98160.0000      46.5405      81.3251      11.7236       0.7283       0.7241       0.7217       0.7211       0.7211       0.6976       0.7128       0.7174       0.7170       0.7188       0.7100       0.7125       0.7155       0.7180       0.7195       0.7212       0.7264       0.7313       0.7251       0.7084     452.0000      34.0000       0.1028
