~VERSION INFORMATION
VERS.           2.0   :CWLS Log ASCII Standard - VERSION 2.0
WRAP.           NO    :One Line per depth step
PROD.  Company   :LAS Producer
PROG.  DLIS to ASCII 12C0-302                          :LAS Program name and version
CREA.        2006/12/02 23:41                          :LAS Creation date {YYYY/MM/DD hh:mm}
SOURCE.     KGIII6-B1_8in_Pilot_DLIS_120-505m_MD_Index.DLIS  :DLIS File Name
FILE-ID.     Run_1                                     :File Identification Number
#--------------------------------------------------
~WELL INFORMATION
#MNEM.UNIT      DATA             DESCRIPTION
#---- ------ --------------   -----------------------------
STRT .M       119.7864       :START DEPTH     
STOP .M       503.9868       :STOP DEPTH     
STEP .M         0.1524       :STEP     
NULL .          -999.25      :NULL VALUE
COMP .        Company      :COMPANY
WELL .        W2                  :WELL
FLD  .        Block                  :FIELD
LOC  .                                                 :LOCATION
CNTY .        Actinia                                  :COUNTY
STAT .        State                           :STATE
CTRY .                                                 :COUNTRY
JOB  .        06INM0159                                :Job NUMBER
UWI  .                                                 :UNIQUE WELL ID
DATE .        02-Dec-2006                              :LOG DATE {DD-MMM-YYYY}
SRVC .        Company                             :SERVICE COMPANY
LATI .DEG     16.276 N                                :LATITUDE
LONG .DEG     82.0962 E                                :LONGITUDE
GDAT .                                                 :GeoDetic Datum
SECT .        8.5 in                                   :Section
#-----------------------------------------------------------------------------
~PARAMETER INFORMATION
#MNEM.UNIT    VALUE                      DESCRIPTION
#---- -----   --------------------       ------------------------
TN1 .        PowerPulse                  :Tool Number 1
TN2 .        ARC                         :Tool Number 2
OS3  .          N/A                      :Other Services Line 3
OS2  .          InterACT                 :Other Services Line 2
OS1  .          Directional Surveys      :Other Services Line 1
MST  .DEGC      20.00000                 :Mud Sample Temperature
BHT  .DEGC      36.00000                 :Bottom Hole Temperature
RMS.OHMM         3.00000                 :Resistivity of Mud Sample (RM)
MST.DEGC        20.00000                 :Mud Sample temperature (RM)
MW.LB/G         11.00000                 :Mud Weight (RM)
SHT.DEGC        20.00000                 :Surface Hole Temperature (RM)
BSAL .PPM     3300.00000                 :Mud Salinity
MRT  .DEGC     67.00000                  :Maximum Recorded Temperature
MCST .DEGC      20.00000                 :Mud Cake Sample Temperature
RMCS .OHMM       4.50000                 :Resistivity of Mud Cake Sample
MFST .DEGC      20.00000                 :Mud Filtrate Sample Temperature
RMFS .OHMM       2.25000                 :Resistivity of Mud Filtrate Sample
MSS  .        Mud Pit                    :Mud Sample Source
MFSS  .       Mud Pit                    :Mud Filtrate Sample Source
MCSS  .       Mud Pit                    :Mud Cake Sample Source
TCS  .         16:00                     :End Log Time
DCS  .         2-Dec-2006                :End Log Date
DFT  .        WBM                        :Drilling Fluid Type
DFPH .           N/A                     :Drilling Fluid PH
DFV  .S       45.00000                   :Drilling Fluid Viscosity
DFD  .LB/G    11.000000                  :Drilling Fluid Density
DOWR .        71/29                      :Oil/Water Ratio
TLAB .        05:00                      :Begin Log Time
DLAB .        2-Dec-2006                 :Begin Log Date
RUN  .        1                          :Run Number
BLI  .M       500.00000                  :Bottom Log Interval
TLI  .M       120.00000                  :Top Log Interval
WITN .        Mr Lindsay                 :Witness's Name
ENGI .        Hatim/Victor/Harsh         :Engineer's Name
LUL  .        Zone 2                     :Logging Unit Location
LUN  .        OLU-KC-0103                :Logging Unit Number
RR2  .        ARC6 Resistivity is environmentally corrected for mud resistivity and bit size. :Remark Line 2
RR1  .        GR is corrected for bit size, tool size and mud weight               :Remark Line 1
PDAT .        Lowest Astronomical Tide   :Permanent Datum
EPD  .M          0.00000                 :Elevation of Permanent Datum
DMF  .        Driller's Depth            :Drilling Measured From
LMF  .        Drill Floor                :Log Measured From
APD  .M         25.60000                 :Above Permanent Datum
EDF  .M         25.60000                 :Elevation of Derrick Floor
EGL  .M        -79.80000                 :Elevation of Ground Level
EKB  .M         25.60000                 :Elevation of Kelly Bushing
TDL  .M        505.00000                 :Total Depth - Logger
TDD  .M        505.00000                 :Total Depth - Driller
MHD  .DEG        0.09000                 :Maximum Hole Deviation
AMD  .DEG      63.350000                 :Azimuth of Maximum Hole Deviation
BS   .IN         8.50                    :Bit Size
BSDT .M        505.00000                 :Bit Size Depth To
BSDF .M        105.00000                 :Bit Size Depth From
#-----------------------------------------------------------------------------
~CURVE INFORMATION
#MNEM.UNIT   API CODE                                  DESCRIPTION
#---- -----  --------                                  -----------------------
DEPT .M                                                :DEPTH (BOREHOLE) {F10.4}
TDEP ..1IN                                             :0.1-ft Frame Depth {F13.4}
ROP5_RM.M/HR                                           :Rate of Penetration, Averaged over Last 5ft {F13.4}
GR_ARC.GAPI                                            :ARC Gamma Ray {F13.4}
ECD_ARC.LB/G                                           :Equivalent Circulating Density {F13.4}
A16H .OHMM                                             :ARC Attenuation Resistivity 16-in. at 2 MHz {F13.4}
A22H .OHMM                                             :ARC Attenuation Resistivity 22-in. at 2 MHz {F13.4}
A28H .OHMM                                             :ARC Attenuation Resistivity 28-in. at 2 MHz {F13.4}
A34H .OHMM                                             :ARC Attenuation Resistivity 34-in. at 2 MHz {F13.4}
A40H .OHMM                                             :ARC Attenuation Resistivity 40-in. at 2 MHz {F13.4}
A16L .OHMM                                             :ARC Attenuation Resistivity 16-in. at 400 KHz {F13.4}
A22L .OHMM                                             :ARC Attenuation Resistivity 22-in. at 400 KHz {F13.4}
A28L .OHMM                                             :ARC Attenuation Resistivity 28-in. at 400 KHz {F13.4}
A34L .OHMM                                             :ARC Attenuation Resistivity 34-in. at 400 KHz {F13.4}
A40L .OHMM                                             :ARC Attenuation Resistivity 40-in. at 400 KHz {F13.4}
P16H .OHMM                                             :ARC Phase-Shift Resistivity 16-in. at 2 MHz {F13.4}
P22H .OHMM                                             :ARC Phase-Shift Resistivity 22-in. at 2 MHz {F13.4}
P28H .OHMM                                             :ARC Phase-Shift Resistivity 28-in. at 2 MHz {F13.4}
P34H .OHMM                                             :ARC Phase-Shift Resistivity 34-in. at 2 MHz {F13.4}
P40H .OHMM                                             :ARC Phase-Shift Resistivity 40-in. at 2 MHz {F13.4}
P16L .OHMM                                             :ARC Phase-Shift Resistivity 16-in. at 400 KHz {F13.4}
P22L .OHMM                                             :ARC Phase-Shift Resistivity 22-in. at 400 KHz {F13.4}
P28L .OHMM                                             :ARC Phase-Shift Resistivity 28-in. at 400 KHz {F13.4}
P34L .OHMM                                             :ARC Phase-Shift Resistivity 34-in. at 400 KHz {F13.4}
P40L .OHMM                                             :ARC Phase-Shift Resistivity 40-in. at 400 KHz {F13.4}
APRS_ARC.PSI                                           :ARC Annular Pressure {F13.4}
ATMP .DEGC                                             :ARC Annular Temperature {F13.4}
TAB_ARC_RES.HR                                         :ARC Resistivity Time After Bit {F13.4}
#-----------------------------------------------------------------------------
# 
#     DEPT        TDEP       ROP5_RM       GR_ARC      ECD_ARC        A16H         A22H         A28H         A34H         A40H         A16L         A22L         A28L         A34L         A40L         P16H         P22H         P28H         P34H         P40H         P16L         P22L         P28L         P34L         P40L       APRS_ARC       ATMP     TAB_ARC_RES
#
~A  
# ...
  295.0464  116160.0000      57.0877      84.1473      12.0736       0.8981       0.9070       0.9073       0.9083       0.9174       0.8764       0.9059       0.9195       0.9183       0.9133       0.8659       0.8768       0.8828       0.8844       0.8866       0.8967       0.9048       0.9096       0.9027       0.8875     556.0000      34.0000       0.1167
  295.1988  116220.0000      56.5585      85.4175      11.9822       0.8927       0.8979       0.8985       0.9021       0.9122       0.8703       0.8983       0.9091       0.9089       0.9090       0.8787       0.8817       0.8837       0.8852       0.8874       0.9018       0.8999       0.8980       0.8900       0.8763     553.0000      34.0000       0.1167
  295.3512  116280.0000      56.0738      87.8243      12.0290       0.8937       0.8991       0.8977       0.8985       0.9072       0.8678       0.8986       0.9117       0.9124       0.9125       0.8808       0.8819       0.8820       0.8810       0.8799       0.8975       0.8964       0.8965       0.8907       0.8779     555.0000      34.0000       0.1167
  295.5036  116340.0000      54.2158      89.7949      11.9929       0.8885       0.8932       0.8939       0.8957       0.9019       0.8630       0.8917       0.9041       0.9007       0.8930       0.8612       0.8679       0.8726       0.8746       0.8759       0.8874       0.8921       0.8936       0.8837       0.8658     554.0000      34.0000       0.1167
  295.6560  116400.0000      51.8061      88.0896      12.0665       0.8844       0.8869       0.8864       0.8885       0.8957       0.8524       0.8853       0.9026       0.9027       0.8960       0.8598       0.8668       0.8718       0.8739       0.8753       0.8910       0.8893       0.8867       0.8789       0.8670     556.9984      34.0000       0.1167
  295.8084  116460.0000      51.7566      86.1185      12.0581       0.8680       0.8725       0.8740       0.8761       0.8813       0.8362       0.8698       0.8827       0.8827       0.8836       0.8300       0.8361       0.8408       0.8436       0.8460       0.8648       0.8665       0.8663       0.8589       0.8463     557.0000      34.0000       0.1083
  295.9608  116520.0000      41.5908      83.5227      12.0221       0.8586       0.8639       0.8660       0.8683       0.8733       0.8397       0.8669       0.8741       0.8666       0.8591       0.8302       0.8343       0.8361       0.8396       0.8474       0.8532       0.8550       0.8587       0.8557       0.8441     556.0000      34.0000       0.1083
  296.1132  116580.0000      39.8317      81.4384      12.0961       0.8438       0.8494       0.8502       0.8515       0.8571       0.8260       0.8576       0.8702       0.8668       0.8608       0.8274       0.8336       0.8383       0.8404       0.8415       0.8508       0.8530       0.8530       0.8433       0.8268     559.0000      34.0000       0.1083
  296.2656  116640.0000      39.4102      79.7324      12.0322       0.8414       0.8468       0.8469       0.8490       0.8575       0.8212       0.8501       0.8625       0.8628       0.8617       0.8077       0.8153       0.8200       0.8219       0.8241       0.8326       0.8404       0.8461       0.8386       0.8199     557.0024      34.0000       0.1056
  296.4180  116700.0000      38.1992      77.2123      12.1061       0.8268       0.8342       0.8341       0.8339       0.8398       0.8119       0.8380       0.8467       0.8465       0.8488       0.8045       0.8104       0.8124       0.8111       0.8105       0.8285       0.8348       0.8377       0.8283       0.8101     560.0000      34.0000       0.1056
  296.5704  116760.0000      37.6573      75.2607      12.0976       0.8211       0.8292       0.8305       0.8315       0.8379       0.7989       0.8295       0.8413       0.8415       0.8426       0.7914       0.8050       0.8122       0.8140       0.8171       0.8205       0.8233       0.8257       0.8216       0.8112     560.0000      34.0000       0.1056
  296.7228  116820.0000      37.1321      73.7455      12.0617       0.8154       0.8218       0.8222       0.8231       0.8293       0.7914       0.8227       0.8357       0.8355       0.8346       0.7953       0.7998       0.8031       0.8064       0.8111       0.8164       0.8214       0.8246       0.8172       0.8012     559.0000      34.0000       0.1056
  296.8752  116880.0000      37.0686      74.4466      12.0526       0.8108       0.8164       0.8171       0.8197       0.8282       0.7782       0.8057       0.8205       0.8244       0.8252       0.7902       0.7967       0.8015       0.8056       0.8107       0.8127       0.8211       0.8268       0.8188       0.8002     559.0000      34.0000       0.1028
  297.0276  116940.0000      37.3393      76.2834      12.0442       0.7974       0.8032       0.8040       0.8037       0.8065       0.7724       0.8010       0.8169       0.8240       0.8294       0.7821       0.7842       0.7850       0.7843       0.7836       0.7975       0.8046       0.8073       0.7952       0.7732     559.0000      34.0000       0.1028
  297.1800  117000.0000      37.6826      76.6055      12.0084       0.7907       0.7939       0.7950       0.7981       0.8047       0.7662       0.7910       0.8062       0.8117       0.8125       0.7616       0.7618       0.7647       0.7714       0.7792       0.7823       0.7891       0.7936       0.7848       0.7656     558.0016      34.0000       0.1028
  297.3324  117060.0000      39.2443      75.5254      12.0547       0.7818       0.7877       0.7885       0.7903       0.7976       0.7583       0.7878       0.8009       0.8032       0.8053       0.7639       0.7667       0.7688       0.7735       0.7818       0.7795       0.7854       0.7909       0.7839       0.7650     560.0000      34.0000       0.1028
  297.4848  117120.0000      45.3396      74.0676      12.0736       0.7760       0.7814       0.7822       0.7843       0.7914       0.7557       0.7837       0.7949       0.7959       0.7975       0.7574       0.7609       0.7658       0.7715       0.7767       0.7747       0.7802       0.7852       0.7803       0.7659     561.0000      34.0000       0.1028
  297.6372  117180.0000      48.1238      73.4992      12.0646       0.7649       0.7690       0.7701       0.7740       0.7829       0.7422       0.7717       0.7827       0.7835       0.7864       0.7506       0.7506       0.7530       0.7584       0.7646       0.7609       0.7686       0.7740       0.7679       0.7530     561.0000      34.0000       0.1028
  297.7896  117240.0000      51.4263      72.5518      12.0835       0.7595       0.7626       0.7623       0.7643       0.7711       0.7327       0.7625       0.7739       0.7753       0.7786       0.7353       0.7342       0.7351       0.7400       0.7468       0.7521       0.7582       0.7624       0.7569       0.7435     562.0000      34.0000       0.1111
  297.9420  117300.0000      53.1133      71.6044      12.0478       0.7561       0.7597       0.7597       0.7629       0.7721       0.7311       0.7574       0.7693       0.7728       0.7769       0.7284       0.7310       0.7329       0.7366       0.7429       0.7530       0.7584       0.7626       0.7569       0.7426     561.0000      34.0000       0.1111
  298.0944  117360.0000      53.7344      70.7896      12.0394       0.7455       0.7508       0.7518       0.7533       0.7590       0.7253       0.7480       0.7571       0.7589       0.7620       0.7338       0.7355       0.7377       0.7417       0.7475       0.7460       0.7518       0.7556       0.7498       0.7365     561.0000      34.0000       0.1139
  298.2468  117420.0000      54.7543      72.1160      12.0305       0.7446       0.7499       0.7512       0.7535       0.7600       0.7255       0.7495       0.7627       0.7663       0.7670       0.7267       0.7302       0.7326       0.7353       0.7397       0.7403       0.7488       0.7551       0.7496       0.7348     561.0000      34.0000       0.1139
  298.3992  117480.0000      55.3596      72.6844      12.0765       0.7408       0.7438       0.7442       0.7475       0.7558       0.7163       0.7401       0.7531       0.7566       0.7570       0.7315       0.7344       0.7379       0.7423       0.7473       0.7420       0.7487       0.7535       0.7474       0.7324     563.0000      34.0000       0.1167
