~VERSION INFORMATION
VERS.           2.0   :CWLS Log ASCII Standard - VERSION 2.0
WRAP.           NO    :One Line per depth step
PROD.  Company   :LAS Producer
PROG.  DLIS to ASCII 12C0-302                          :LAS Program name and version
CREA.        2006/12/02 23:41                          :LAS Creation date {YYYY/MM/DD hh:mm}
SOURCE.     KGIII6-B1_8in_Pilot_DLIS_120-505m_MD_Index.DLIS  :DLIS File Name
FILE-ID.     Run_1                                     :File Identification Number
#--------------------------------------------------
~WELL INFORMATION
#MNEM.UNIT      DATA             DESCRIPTION
#---- ------ --------------   -----------------------------
STRT .M       119.7864       :START DEPTH     
STOP .M       503.9868       :STOP DEPTH     
STEP .M         0.1524       :STEP     
NULL .          -999.25      :NULL VALUE
COMP .        Company      :COMPANY
WELL .        W2                  :WELL
FLD  .        Block                  :FIELD
LOC  .                                                 :LOCATION
CNTY .        Actinia                                  :COUNTY
STAT .        State                           :STATE
CTRY .                                                 :COUNTRY
JOB  .        06INM0159                                :Job NUMBER
UWI  .                                                 :UNIQUE WELL ID
DATE .        02-Dec-2006                              :LOG DATE {DD-MMM-YYYY}
SRVC .        Company                             :SERVICE COMPANY
LATI .DEG     16.276 N                                :LATITUDE
LONG .DEG     82.0962 E                                :LONGITUDE
GDAT .                                                 :GeoDetic Datum
SECT .        8.5 in                                   :Section
#-----------------------------------------------------------------------------
~PARAMETER INFORMATION
#MNEM.UNIT    VALUE                      DESCRIPTION
#---- -----   --------------------       ------------------------
TN1 .        PowerPulse                  :Tool Number 1
TN2 .        ARC                         :Tool Number 2
OS3  .          N/A                      :Other Services Line 3
OS2  .          InterACT                 :Other Services Line 2
OS1  .          Directional Surveys      :Other Services Line 1
MST  .DEGC      20.00000                 :Mud Sample Temperature
BHT  .DEGC      36.00000                 :Bottom Hole Temperature
RMS.OHMM         3.00000                 :Resistivity of Mud Sample (RM)
MST.DEGC        20.00000                 :Mud Sample temperature (RM)
MW.LB/G         11.00000                 :Mud Weight (RM)
SHT.DEGC        20.00000                 :Surface Hole Temperature (RM)
BSAL .PPM     3300.00000                 :Mud Salinity
MRT  .DEGC     67.00000                  :Maximum Recorded Temperature
MCST .DEGC      20.00000                 :Mud Cake Sample Temperature
RMCS .OHMM       4.50000                 :Resistivity of Mud Cake Sample
MFST .DEGC      20.00000                 :Mud Filtrate Sample Temperature
RMFS .OHMM       2.25000                 :Resistivity of Mud Filtrate Sample
MSS  .        Mud Pit                    :Mud Sample Source
MFSS  .       Mud Pit                    :Mud Filtrate Sample Source
MCSS  .       Mud Pit                    :Mud Cake Sample Source
TCS  .         16:00                     :End Log Time
DCS  .         2-Dec-2006                :End Log Date
DFT  .        WBM                        :Drilling Fluid Type
DFPH .           N/A                     :Drilling Fluid PH
DFV  .S       45.00000                   :Drilling Fluid Viscosity
DFD  .LB/G    11.000000                  :Drilling Fluid Density
DOWR .        71/29                      :Oil/Water Ratio
TLAB .        05:00                      :Begin Log Time
DLAB .        2-Dec-2006                 :Begin Log Date
RUN  .        1                          :Run Number
BLI  .M       500.00000                  :Bottom Log Interval
TLI  .M       120.00000                  :Top Log Interval
WITN .        Mr Lindsay                 :Witness's Name
ENGI .        Hatim/Victor/Harsh         :Engineer's Name
LUL  .        Zone 2                     :Logging Unit Location
LUN  .        OLU-KC-0103                :Logging Unit Number
RR2  .        ARC6 Resistivity is environmentally corrected for mud resistivity and bit size. :Remark Line 2
RR1  .        GR is corrected for bit size, tool size and mud weight               :Remark Line 1
PDAT .        Lowest Astronomical Tide   :Permanent Datum
EPD  .M          0.00000                 :Elevation of Permanent Datum
DMF  .        Driller's Depth            :Drilling Measured From
LMF  .        Drill Floor                :Log Measured From
APD  .M         25.60000                 :Above Permanent Datum
EDF  .M         25.60000                 :Elevation of Derrick Floor
EGL  .M        -79.80000                 :Elevation of Ground Level
EKB  .M         25.60000                 :Elevation of Kelly Bushing
TDL  .M        505.00000                 :Total Depth - Logger
TDD  .M        505.00000                 :Total Depth - Driller
MHD  .DEG        0.09000                 :Maximum Hole Deviation
AMD  .DEG      63.350000                 :Azimuth of Maximum Hole Deviation
BS   .IN         8.50                    :Bit Size
BSDT .M        505.00000                 :Bit Size Depth To
BSDF .M        105.00000                 :Bit Size Depth From
#-----------------------------------------------------------------------------
~CURVE INFORMATION
#MNEM.UNIT   API CODE                                  DESCRIPTION
#---- -----  --------                                  -----------------------
DEPT .M                                                :DEPTH (BOREHOLE) {F10.4}
TDEP ..1IN                                             :0.1-ft Frame Depth {F13.4}
ROP5_RM.M/HR                                           :Rate of Penetration, Averaged over Last 5ft {F13.4}
GR_ARC.GAPI                                            :ARC Gamma Ray {F13.4}
ECD_ARC.LB/G                                           :Equivalent Circulating Density {F13.4}
A16H .OHMM                                             :ARC Attenuation Resistivity 16-in. at 2 MHz {F13.4}
A22H .OHMM                                             :ARC Attenuation Resistivity 22-in. at 2 MHz {F13.4}
A28H .OHMM                                             :ARC Attenuation Resistivity 28-in. at 2 MHz {F13.4}
A34H .OHMM                                             :ARC Attenuation Resistivity 34-in. at 2 MHz {F13.4}
A40H .OHMM                                             :ARC Attenuation Resistivity 40-in. at 2 MHz {F13.4}
A16L .OHMM                                             :ARC Attenuation Resistivity 16-in. at 400 KHz {F13.4}
A22L .OHMM                                             :ARC Attenuation Resistivity 22-in. at 400 KHz {F13.4}
A28L .OHMM                                             :ARC Attenuation Resistivity 28-in. at 400 KHz {F13.4}
A34L .OHMM                                             :ARC Attenuation Resistivity 34-in. at 400 KHz {F13.4}
A40L .OHMM                                             :ARC Attenuation Resistivity 40-in. at 400 KHz {F13.4}
P16H .OHMM                                             :ARC Phase-Shift Resistivity 16-in. at 2 MHz {F13.4}
P22H .OHMM                                             :ARC Phase-Shift Resistivity 22-in. at 2 MHz {F13.4}
P28H .OHMM                                             :ARC Phase-Shift Resistivity 28-in. at 2 MHz {F13.4}
P34H .OHMM                                             :ARC Phase-Shift Resistivity 34-in. at 2 MHz {F13.4}
P40H .OHMM                                             :ARC Phase-Shift Resistivity 40-in. at 2 MHz {F13.4}
P16L .OHMM                                             :ARC Phase-Shift Resistivity 16-in. at 400 KHz {F13.4}
P22L .OHMM                                             :ARC Phase-Shift Resistivity 22-in. at 400 KHz {F13.4}
P28L .OHMM                                             :ARC Phase-Shift Resistivity 28-in. at 400 KHz {F13.4}
P34L .OHMM                                             :ARC Phase-Shift Resistivity 34-in. at 400 KHz {F13.4}
P40L .OHMM                                             :ARC Phase-Shift Resistivity 40-in. at 400 KHz {F13.4}
APRS_ARC.PSI                                           :ARC Annular Pressure {F13.4}
ATMP .DEGC                                             :ARC Annular Temperature {F13.4}
TAB_ARC_RES.HR                                         :ARC Resistivity Time After Bit {F13.4}
#-----------------------------------------------------------------------------
# 
#     DEPT        TDEP       ROP5_RM       GR_ARC      ECD_ARC        A16H         A22H         A28H         A34H         A40H         A16L         A22L         A28L         A34L         A40L         P16H         P22H         P28H         P34H         P40H         P16L         P22L         P28L         P34L         P40L       APRS_ARC       ATMP     TAB_ARC_RES
#
~A  
# ...
  221.4372   87180.0000      55.3483      69.3493      10.9921       0.8303       0.8250       0.8206       0.8230       0.8311       0.8022       0.8198       0.8259       0.8259       0.8272       0.8097       0.8155       0.8201       0.8219       0.8222       0.8345       0.8361       0.8355       0.8226       0.8004     379.0000      35.0000       0.1000
  221.5896   87240.0000      57.7696      67.7011      10.9379       0.8354       0.8296       0.8245       0.8265       0.8351       0.8119       0.8214       0.8291       0.8336       0.8351       0.7907       0.7977       0.8023       0.8050       0.8084       0.8171       0.8257       0.8294       0.8169       0.7934     378.0000      35.0000       0.1000
  221.7420   87300.0000      59.7539      67.3790      10.9683       0.8252       0.8244       0.8220       0.8245       0.8331       0.8030       0.8185       0.8283       0.8331       0.8358       0.7847       0.7945       0.8021       0.8023       0.7973       0.8180       0.8248       0.8280       0.8153       0.7910     378.9996      35.0000       0.1000
  221.8944   87360.0000      60.9580      67.6255      10.9143       0.8140       0.8168       0.8178       0.8210       0.8277       0.7893       0.8112       0.8203       0.8198       0.8182       0.7913       0.8011       0.8069       0.8091       0.8120       0.8140       0.8188       0.8236       0.8134       0.7890     378.0000      35.0000       0.1000
  222.0468   87420.0000      61.6436      68.0611      10.9439       0.8045       0.8077       0.8069       0.8084       0.8156       0.7887       0.8097       0.8141       0.8089       0.8059       0.7924       0.7989       0.8004       0.8004       0.8039       0.8062       0.8145       0.8227       0.8134       0.7877     379.0000      35.0000       0.1000
  222.1992   87480.0000      61.5963      67.4923      10.8901       0.7868       0.7909       0.7893       0.7911       0.8008       0.7755       0.7993       0.8100       0.8151       0.8225       0.7206       0.7313       0.7344       0.7342       0.7386       0.7629       0.7758       0.7838       0.7730       0.7490     378.0000      35.0000       0.1000
  222.3516   87540.0000      60.8835      65.5973      10.9204       0.7799       0.7845       0.7849       0.7882       0.7976       0.7721       0.7943       0.8035       0.8075       0.8139       0.7273       0.7360       0.7382       0.7389       0.7447       0.7657       0.7766       0.7796       0.7682       0.7505     379.0008      35.0000       0.1000
  222.5040   87600.0000      59.8600      63.8920      10.9927       0.7713       0.7767       0.7752       0.7749       0.7820       0.7594       0.7867       0.7976       0.8002       0.8049       0.7482       0.7541       0.7602       0.7627       0.7613       0.7678       0.7785       0.7826       0.7709       0.7505     380.9996      35.0000       0.1000
  222.6564   87660.0000      57.9579      62.3765      10.9382       0.7695       0.7763       0.7760       0.7762       0.7831       0.7605       0.7816       0.7898       0.7975       0.8116       0.7417       0.7496       0.7554       0.7584       0.7609       0.7666       0.7775       0.7801       0.7665       0.7455     380.0000      35.0000       0.1000
  222.8088   87720.0000      56.6285      62.1870      10.9684       0.7662       0.7710       0.7710       0.7748       0.7865       0.7437       0.7675       0.7803       0.7900       0.8020       0.7545       0.7602       0.7630       0.7660       0.7724       0.7670       0.7764       0.7810       0.7709       0.7512     381.0000      35.0000       0.1000
  222.9612   87780.0000      54.6644      61.6186      11.0404       0.7648       0.7700       0.7704       0.7751       0.7883       0.7456       0.7691       0.7776       0.7814       0.7898       0.7475       0.7580       0.7649       0.7683       0.7722       0.7640       0.7766       0.7812       0.7699       0.7509     383.0000      35.0000       0.1000
  223.1136   87840.0000      52.3866      61.5618      10.9449       0.7528       0.7539       0.7541       0.7576       0.7652       0.7271       0.7541       0.7695       0.7772       0.7834       0.7400       0.7440       0.7489       0.7526       0.7539       0.7511       0.7582       0.7593       0.7477       0.7295     381.0008      35.0000       0.1000
  223.2660   87900.0000      54.3710      61.6189      11.0160       0.7507       0.7528       0.7551       0.7605       0.7684       0.7348       0.7559       0.7646       0.7710       0.7819       0.7406       0.7471       0.7523       0.7552       0.7573       0.7503       0.7581       0.7662       0.7597       0.7390     382.9992      35.0000       0.1000
  223.4184   87960.0000      58.1060      61.9978      10.9625       0.7253       0.7277       0.7289       0.7329       0.7403       0.7160       0.7393       0.7481       0.7529       0.7624       0.6815       0.6907       0.6981       0.6995       0.6969       0.7173       0.7231       0.7281       0.7194       0.6981     382.0000      35.0000       0.1028
  223.5708   88020.0000      61.8409      62.3008      10.9508       0.7278       0.7285       0.7281       0.7324       0.7421       0.7185       0.7376       0.7474       0.7521       0.7570       0.6884       0.6909       0.6925       0.6941       0.6968       0.7163       0.7218       0.7285       0.7211       0.6992     382.0000      35.0000       0.1056
  223.7232   88080.0000      63.1220      61.6756      10.9808       0.7082       0.7120       0.7126       0.7165       0.7263       0.6960       0.7194       0.7327       0.7393       0.7457       0.6753       0.6844       0.6864       0.6845       0.6860       0.7045       0.7119       0.7163       0.7096       0.6948     383.0004      35.0000       0.1083
  223.8756   88140.0000      64.5611      61.4295      11.0100       0.7082       0.7120       0.7126       0.7165       0.7263       0.6960       0.7194       0.7327       0.7393       0.7457       0.6753       0.6844       0.6864       0.6845       0.6860       0.7045       0.7119       0.7163       0.7096       0.6948     384.0004      35.0000       0.1056
  224.0280   88200.0000      65.5978      61.3728      11.0398       0.6918       0.6994       0.7028       0.7080       0.7194       0.6875       0.7111       0.7266       0.7344       0.7415       0.6769       0.6850       0.6989       0.7063       0.7011       0.6961       0.7074       0.7125       0.7054       0.6922     385.0000      35.0000       0.1056
  224.1804   88260.0000      65.5976      61.3726      10.9451       0.6967       0.7039       0.7077       0.7138       0.7255       0.6879       0.7115       0.7223       0.7268       0.7352       0.6778       0.6852       0.6864       0.6865       0.6921       0.6909       0.7035       0.7113       0.7049       0.6886     383.0000      35.0000       0.1056
  224.3328   88320.0000      65.0493      61.2398      10.9749       0.6970       0.6993       0.6994       0.7042       0.7157       0.6862       0.7046       0.7176       0.7261       0.7349       0.6690       0.6762       0.6802       0.6836       0.6898       0.6927       0.7011       0.7066       0.6975       0.6766     384.0000      35.0000       0.1056
  224.4852   88380.0000      64.8929      61.0503      10.9212       0.6952       0.6988       0.6993       0.7034       0.7139       0.6866       0.7063       0.7212       0.7319       0.7424       0.6702       0.6776       0.6830       0.6856       0.6876       0.6921       0.6989       0.7030       0.6944       0.6755     383.0012      35.0000       0.1028
  224.6376   88440.0000      64.2880      61.0501      11.0337       0.6967       0.7025       0.7039       0.7060       0.7132       0.6871       0.7072       0.7226       0.7354       0.7493       0.6591       0.6680       0.6720       0.6741       0.6797       0.6874       0.6980       0.7051       0.6977       0.6788     385.9992      35.0000       0.1028
  224.7900   88500.0000      64.6317      60.6143      11.0220       0.6971       0.7045       0.7065       0.7074       0.7120       0.6917       0.7107       0.7240       0.7368       0.7526       0.6720       0.6806       0.6818       0.6798       0.6820       0.6924       0.7027       0.7063       0.6970       0.6808     385.9992      35.0000       0.1028
