~VERSION INFORMATION
VERS.           2.0   :CWLS Log ASCII Standard - VERSION 2.0
WRAP.           NO    :One Line per depth step
PROD.  Company   :LAS Producer
PROG.  DLIS to ASCII 12C0-302                          :LAS Program name and version
CREA.        2006/12/02 23:41                          :LAS Creation date {YYYY/MM/DD hh:mm}
SOURCE.     KGIII6-B1_8in_Pilot_DLIS_120-505m_MD_Index.DLIS  :DLIS File Name
FILE-ID.     Run_1                                     :File Identification Number
#--------------------------------------------------
~WELL INFORMATION
#MNEM.UNIT      DATA             DESCRIPTION
#---- ------ --------------   -----------------------------
STRT .M       119.7864       :START DEPTH     
STOP .M       503.9868       :STOP DEPTH     
STEP .M         0.1524       :STEP     
NULL .          -999.25      :NULL VALUE
COMP .        Company      :COMPANY
WELL .        W2                  :WELL
FLD  .        Block                  :FIELD
LOC  .                                                 :LOCATION
CNTY .        Actinia                                  :COUNTY
STAT .        State                           :STATE
CTRY .                                                 :COUNTRY
JOB  .        06INM0159                                :Job NUMBER
UWI  .                                                 :UNIQUE WELL ID
DATE .        02-Dec-2006                              :LOG DATE {DD-MMM-YYYY}
SRVC .        Company                             :SERVICE COMPANY
LATI .DEG     16.276 N                                :LATITUDE
LONG .DEG     82.0962 E                                :LONGITUDE
GDAT .                                                 :GeoDetic Datum
SECT .        8.5 in                                   :Section
#-----------------------------------------------------------------------------
~PARAMETER INFORMATION
#MNEM.UNIT    VALUE                      DESCRIPTION
#---- -----   --------------------       ------------------------
TN1 .        PowerPulse                  :Tool Number 1
TN2 .        ARC                         :Tool Number 2
OS3  .          N/A                      :Other Services Line 3
OS2  .          InterACT                 :Other Services Line 2
OS1  .          Directional Surveys      :Other Services Line 1
MST  .DEGC      20.00000                 :Mud Sample Temperature
BHT  .DEGC      36.00000                 :Bottom Hole Temperature
RMS.OHMM         3.00000                 :Resistivity of Mud Sample (RM)
MST.DEGC        20.00000                 :Mud Sample temperature (RM)
MW.LB/G         11.00000                 :Mud Weight (RM)
SHT.DEGC        20.00000                 :Surface Hole Temperature (RM)
BSAL .PPM     3300.00000                 :Mud Salinity
MRT  .DEGC     67.00000                  :Maximum Recorded Temperature
MCST .DEGC      20.00000                 :Mud Cake Sample Temperature
RMCS .OHMM       4.50000                 :Resistivity of Mud Cake Sample
MFST .DEGC      20.00000                 :Mud Filtrate Sample Temperature
RMFS .OHMM       2.25000                 :Resistivity of Mud Filtrate Sample
MSS  .        Mud Pit                    :Mud Sample Source
MFSS  .       Mud Pit                    :Mud Filtrate Sample Source
MCSS  .       Mud Pit                    :Mud Cake Sample Source
TCS  .         16:00                     :End Log Time
DCS  .         2-Dec-2006                :End Log Date
DFT  .        WBM                        :Drilling Fluid Type
DFPH .           N/A                     :Drilling Fluid PH
DFV  .S       45.00000                   :Drilling Fluid Viscosity
DFD  .LB/G    11.000000                  :Drilling Fluid Density
DOWR .        71/29                      :Oil/Water Ratio
TLAB .        05:00                      :Begin Log Time
DLAB .        2-Dec-2006                 :Begin Log Date
RUN  .        1                          :Run Number
BLI  .M       500.00000                  :Bottom Log Interval
TLI  .M       120.00000                  :Top Log Interval
WITN .        Mr Lindsay                 :Witness's Name
ENGI .        Hatim/Victor/Harsh         :Engineer's Name
LUL  .        Zone 2                     :Logging Unit Location
LUN  .        OLU-KC-0103                :Logging Unit Number
RR2  .        ARC6 Resistivity is environmentally corrected for mud resistivity and bit size. :Remark Line 2
RR1  .        GR is corrected for bit size, tool size and mud weight               :Remark Line 1
PDAT .        Lowest Astronomical Tide   :Permanent Datum
EPD  .M          0.00000                 :Elevation of Permanent Datum
DMF  .        Driller's Depth            :Drilling Measured From
LMF  .        Drill Floor                :Log Measured From
APD  .M         25.60000                 :Above Permanent Datum
EDF  .M         25.60000                 :Elevation of Derrick Floor
EGL  .M        -79.80000                 :Elevation of Ground Level
EKB  .M         25.60000                 :Elevation of Kelly Bushing
TDL  .M        505.00000                 :Total Depth - Logger
TDD  .M        505.00000                 :Total Depth - Driller
MHD  .DEG        0.09000                 :Maximum Hole Deviation
AMD  .DEG      63.350000                 :Azimuth of Maximum Hole Deviation
BS   .IN         8.50                    :Bit Size
BSDT .M        505.00000                 :Bit Size Depth To
BSDF .M        105.00000                 :Bit Size Depth From
#-----------------------------------------------------------------------------
~CURVE INFORMATION
#MNEM.UNIT   API CODE                                  DESCRIPTION
#---- -----  --------                                  -----------------------
DEPT .M                                                :DEPTH (BOREHOLE) {F10.4}
TDEP ..1IN                                             :0.1-ft Frame Depth {F13.4}
ROP5_RM.M/HR                                           :Rate of Penetration, Averaged over Last 5ft {F13.4}
GR_ARC.GAPI                                            :ARC Gamma Ray {F13.4}
ECD_ARC.LB/G                                           :Equivalent Circulating Density {F13.4}
A16H .OHMM                                             :ARC Attenuation Resistivity 16-in. at 2 MHz {F13.4}
A22H .OHMM                                             :ARC Attenuation Resistivity 22-in. at 2 MHz {F13.4}
A28H .OHMM                                             :ARC Attenuation Resistivity 28-in. at 2 MHz {F13.4}
A34H .OHMM                                             :ARC Attenuation Resistivity 34-in. at 2 MHz {F13.4}
A40H .OHMM                                             :ARC Attenuation Resistivity 40-in. at 2 MHz {F13.4}
A16L .OHMM                                             :ARC Attenuation Resistivity 16-in. at 400 KHz {F13.4}
A22L .OHMM                                             :ARC Attenuation Resistivity 22-in. at 400 KHz {F13.4}
A28L .OHMM                                             :ARC Attenuation Resistivity 28-in. at 400 KHz {F13.4}
A34L .OHMM                                             :ARC Attenuation Resistivity 34-in. at 400 KHz {F13.4}
A40L .OHMM                                             :ARC Attenuation Resistivity 40-in. at 400 KHz {F13.4}
P16H .OHMM                                             :ARC Phase-Shift Resistivity 16-in. at 2 MHz {F13.4}
P22H .OHMM                                             :ARC Phase-Shift Resistivity 22-in. at 2 MHz {F13.4}
P28H .OHMM                                             :ARC Phase-Shift Resistivity 28-in. at 2 MHz {F13.4}
P34H .OHMM                                             :ARC Phase-Shift Resistivity 34-in. at 2 MHz {F13.4}
P40H .OHMM                                             :ARC Phase-Shift Resistivity 40-in. at 2 MHz {F13.4}
P16L .OHMM                                             :ARC Phase-Shift Resistivity 16-in. at 400 KHz {F13.4}
P22L .OHMM                                             :ARC Phase-Shift Resistivity 22-in. at 400 KHz {F13.4}
P28L .OHMM                                             :ARC Phase-Shift Resistivity 28-in. at 400 KHz {F13.4}
P34L .OHMM                                             :ARC Phase-Shift Resistivity 34-in. at 400 KHz {F13.4}
P40L .OHMM                                             :ARC Phase-Shift Resistivity 40-in. at 400 KHz {F13.4}
APRS_ARC.PSI                                           :ARC Annular Pressure {F13.4}
ATMP .DEGC                                             :ARC Annular Temperature {F13.4}
TAB_ARC_RES.HR                                         :ARC Resistivity Time After Bit {F13.4}
#-----------------------------------------------------------------------------
# 
#     DEPT        TDEP       ROP5_RM       GR_ARC      ECD_ARC        A16H         A22H         A28H         A34H         A40H         A16L         A22L         A28L         A34L         A40L         P16H         P22H         P28H         P34H         P40H         P16L         P22L         P28L         P34L         P40L       APRS_ARC       ATMP     TAB_ARC_RES
#
~A  
# ...
  494.8428  194820.0000       9.9034      83.4088      12.6996       1.0008       1.0027       1.0028       1.0036       1.0066       0.9785       1.0078       1.0199       1.0075       0.9914       0.9758       0.9845       0.9890       0.9880       0.9860       1.0031       1.0076       1.0083       1.0004       0.9868    1011.0136      35.0000       0.1722
  494.9952  194880.0000       9.5027      83.7109      12.8654       1.0019       1.0056       1.0069       1.0098       1.0157       0.9803       1.0118       1.0259       1.0138       0.9951       0.9624       0.9692       0.9737       0.9736       0.9710       0.9993       1.0038       1.0058       1.0024       0.9956    1023.0000      35.0000       0.1694
  495.1476  194940.0000       9.1850      82.1951      12.8607       0.9971       0.9982       1.0007       1.0055       1.0109       0.9718       1.0033       1.0244       1.0126       0.9877       0.9509       0.9550       0.9602       0.9593       0.9512       0.9893       0.9947       0.9977       0.9920       0.9801    1023.0000      35.0000       0.1667
  495.3000  195000.0000       8.9178      80.4898      12.7564       0.9971       0.9982       1.0007       1.0055       1.0109       0.9718       1.0033       1.0244       1.0126       0.9877       0.9509       0.9550       0.9602       0.9593       0.9512       0.9893       0.9947       0.9977       0.9920       0.9801    1016.0000      35.0000       0.1556
  495.4524  195060.0000       8.7020      79.7331      12.8513       0.9781       0.9818       0.9838       0.9845       0.9853       0.9663       0.9957       1.0116       0.9976       0.9748       0.9420       0.9461       0.9496       0.9485       0.9432       0.9790       0.9807       0.9847       0.9829       0.9735    1023.0000      35.0000       0.1556
  495.6048  195120.0000       8.5354      80.4910      12.8324       0.9781       0.9818       0.9838       0.9845       0.9853       0.9663       0.9957       1.0116       0.9976       0.9748       0.9420       0.9461       0.9496       0.9485       0.9432       0.9790       0.9807       0.9847       0.9829       0.9735    1021.9960      35.0000       0.1472
  495.7572  195180.0000       8.3285      82.6516      12.8274       0.9691       0.9786       0.9822       0.9842       0.9896       0.9652       0.9980       1.0181       1.0088       0.9901       0.9056       0.9164       0.9225       0.9233       0.9235       0.9611       0.9677       0.9685       0.9635       0.9583    1021.9960      35.0000       0.1500
  495.9096  195240.0000      11.4826      85.5694      12.7377       0.9701       0.9785       0.9835       0.9886       0.9965       0.9667       0.9954       1.0088       0.9977       0.9816       0.9069       0.9150       0.9208       0.9215       0.9196       0.9572       0.9658       0.9669       0.9588       0.9487    1016.0088      35.0000       0.1472
  496.0620  195300.0000      23.5976      87.5212      12.8892       0.9802       0.9880       0.9925       0.9985       1.0099       0.9717       1.0066       1.0285       1.0166       0.9916       0.9297       0.9356       0.9406       0.9415       0.9392       0.9739       0.9807       0.9823       0.9765       0.9683    1027.0000      35.0000       0.1472
  496.2144  195360.0000      23.7015      88.4681      12.8845       0.9802       0.9862       0.9893       0.9954       1.0074       0.9626       1.0042       1.0327       1.0229       0.9963       0.9308       0.9386       0.9436       0.9454       0.9470       0.9723       0.9791       0.9818       0.9771       0.9690    1027.0000      35.0000       0.1444
  496.3668  195420.0000      24.4767      85.1156      12.7944       0.9952       0.9983       1.0009       1.0079       1.0190       0.9749       1.0093       1.0288       1.0180       0.9962       0.9674       0.9715       0.9774       0.9813       0.9814       0.9947       1.0029       1.0028       0.9924       0.9797    1021.0056      35.0000       0.1472
  496.5192  195480.0000      26.6796      84.1112      12.8890       1.0061       1.0111       1.0130       1.0163       1.0234       0.9771       1.0148       1.0320       1.0214       1.0039       0.9550       0.9610       0.9650       0.9641       0.9602       1.0046       1.0054       1.0034       0.9966       0.9876    1028.0000      35.0000       0.1472
  496.6716  195540.0000      27.9674      82.2164      12.7568       1.0058       1.0102       1.0118       1.0141       1.0192       0.9886       1.0243       1.0454       1.0364       1.0122       0.9617       0.9711       0.9777       0.9770       0.9720       1.0055       1.0078       1.0083       1.0041       0.9970    1019.0048      35.0000       0.1444
  496.8240  195600.0000      28.8752      85.5675      12.7946       1.0058       1.0102       1.0118       1.0141       1.0192       0.9886       1.0243       1.0454       1.0364       1.0122       0.9617       0.9711       0.9777       0.9770       0.9720       1.0055       1.0078       1.0083       1.0041       0.9970    1022.0000      35.0000       0.1361
  496.9764  195660.0000      29.5808      85.5675      12.8747       1.0211       1.0312       1.0350       1.0377       1.0441       0.9885       1.0306       1.0524       1.0384       1.0083       0.9577       0.9726       0.9841       0.9900       0.9937       1.0067       1.0204       1.0266       1.0218       1.0127    1028.0000      35.0000       0.1361
  497.1288  195720.0000      28.7270      89.2813      12.8700       1.0232       1.0295       1.0320       1.0324       1.0337       0.9991       1.0352       1.0543       1.0433       1.0164       0.9901       1.0027       1.0124       1.0144       1.0113       1.0257       1.0302       1.0317       1.0256       1.0148    1028.0000      35.0000       0.1278
  497.2812  195780.0000      28.3613      89.7185      12.9644       1.0139       1.0172       1.0188       1.0238       1.0331       0.9989       1.0318       1.0502       1.0413       1.0174       0.9405       0.9437       0.9471       0.9468       0.9426       1.0008       1.0042       1.0063       1.0011       0.9896    1034.9937      35.0000       0.1278
  497.4336  195840.0000      26.2834      94.7191      12.8466       1.0072       1.0187       1.0237       1.0253       1.0287       0.9944       1.0429       1.0575       1.0383       1.0127       0.9316       0.9452       0.9530       0.9531       0.9514       0.9937       1.0030       1.0092       1.0051       0.9930    1027.0000      35.0000       0.1278
  497.5860  195900.0000      25.6574      94.7191      12.8275       1.0088       1.0197       1.0240       1.0260       1.0307       0.9948       1.0339       1.0555       1.0482       1.0263       0.9351       0.9511       0.9588       0.9611       0.9667       0.9904       1.0038       1.0137       1.0147       1.0094    1026.0000      35.0000       0.1250
  497.7384  195960.0000      25.0511      94.3959      12.7380       1.0105       1.0192       1.0211       1.0217       1.0262       0.9980       1.0379       1.0524       1.0350       1.0064       0.9944       1.0039       1.0118       1.0132       1.0094       1.0236       1.0305       1.0353       1.0312       1.0204    1020.0016      35.0000       0.1222
  497.8908  196020.0000      24.5701      89.9638      12.7617       1.0250       1.0310       1.0333       1.0363       1.0427       0.9973       1.0453       1.0687       1.0606       1.0394       0.9894       0.9960       1.0016       1.0011       0.9950       1.0289       1.0336       1.0336       1.0278       1.0205    1022.0000      35.0000       0.1250
  498.0432  196080.0000      24.1032      87.5006      12.7005       1.0299       1.0356       1.0381       1.0413       1.0476       1.0024       1.0422       1.0609       1.0533       1.0347       0.9750       0.9771       0.9812       0.9848       0.9857       1.0222       1.0264       1.0276       1.0222       1.0133    1018.0000      35.0000       0.1278
  498.1956  196140.0000      24.7293      85.5503      12.7239       1.0297       1.0358       1.0387       1.0434       1.0517       1.0062       1.0440       1.0599       1.0499       1.0300       0.9741       0.9790       0.9827       0.9839       0.9837       1.0187       1.0254       1.0306       1.0274       1.0173    1020.0000      35.0000       0.1278
