~VERSION INFORMATION
VERS.           2.0   :CWLS Log ASCII Standard - VERSION 2.0
WRAP.           NO    :One Line per depth step
PROD.  Company   :LAS Producer
PROG.  DLIS to ASCII 12C0-302                          :LAS Program name and version
CREA.        2006/12/02 23:41                          :LAS Creation date {YYYY/MM/DD hh:mm}
SOURCE.     KGIII6-B1_8in_Pilot_DLIS_120-505m_MD_Index.DLIS  :DLIS File Name
FILE-ID.     Run_1                                     :File Identification Number
#--------------------------------------------------
~WELL INFORMATION
#MNEM.UNIT      DATA             DESCRIPTION
#---- ------ --------------   -----------------------------
STRT .M       119.7864       :START DEPTH     
STOP .M       503.9868       :STOP DEPTH     
STEP .M         0.1524       :STEP     
NULL .          -999.25      :NULL VALUE
COMP .        Company      :COMPANY
WELL .        W2                  :WELL
FLD  .        Block                  :FIELD
LOC  .                                                 :LOCATION
CNTY .        Actinia                                  :COUNTY
STAT .        State                           :STATE
CTRY .                                                 :COUNTRY
JOB  .        06INM0159                                :Job NUMBER
UWI  .                                                 :UNIQUE WELL ID
DATE .        02-Dec-2006                              :LOG DATE {DD-MMM-YYYY}
SRVC .        Company                             :SERVICE COMPANY
LATI .DEG     16.276 N                                :LATITUDE
LONG .DEG     82.0962 E                                :LONGITUDE
GDAT .                                                 :GeoDetic Datum
SECT .        8.5 in                                   :Section
#-----------------------------------------------------------------------------
~PARAMETER INFORMATION
#MNEM.UNIT    VALUE                      DESCRIPTION
#---- -----   --------------------       ------------------------
TN1 .        PowerPulse                  :Tool Number 1
TN2 .        ARC                         :Tool Number 2
OS3  .          N/A                      :Other Services Line 3
OS2  .          InterACT                 :Other Services Line 2
OS1  .          Directional Surveys      :Other Services Line 1
MST  .DEGC      20.00000                 :Mud Sample Temperature
BHT  .DEGC      36.00000                 :Bottom Hole Temperature
RMS.OHMM         3.00000                 :Resistivity of Mud Sample (RM)
MST.DEGC        20.00000                 :Mud Sample temperature (RM)
MW.LB/G         11.00000                 :Mud Weight (RM)
SHT.DEGC        20.00000                 :Surface Hole Temperature (RM)
BSAL .PPM     3300.00000                 :Mud Salinity
MRT  .DEGC     67.00000                  :Maximum Recorded Temperature
MCST .DEGC      20.00000                 :Mud Cake Sample Temperature
RMCS .OHMM       4.50000                 :Resistivity of Mud Cake Sample
MFST .DEGC      20.00000                 :Mud Filtrate Sample Temperature
RMFS .OHMM       2.25000                 :Resistivity of Mud Filtrate Sample
MSS  .        Mud Pit                    :Mud Sample Source
MFSS  .       Mud Pit                    :Mud Filtrate Sample Source
MCSS  .       Mud Pit                    :Mud Cake Sample Source
TCS  .         16:00                     :End Log Time
DCS  .         2-Dec-2006                :End Log Date
DFT  .        WBM                        :Drilling Fluid Type
DFPH .           N/A                     :Drilling Fluid PH
DFV  .S       45.00000                   :Drilling Fluid Viscosity
DFD  .LB/G    11.000000                  :Drilling Fluid Density
DOWR .        71/29                      :Oil/Water Ratio
TLAB .        05:00                      :Begin Log Time
DLAB .        2-Dec-2006                 :Begin Log Date
RUN  .        1                          :Run Number
BLI  .M       500.00000                  :Bottom Log Interval
TLI  .M       120.00000                  :Top Log Interval
WITN .        Mr Lindsay                 :Witness's Name
ENGI .        Hatim/Victor/Harsh         :Engineer's Name
LUL  .        Zone 2                     :Logging Unit Location
LUN  .        OLU-KC-0103                :Logging Unit Number
RR2  .        ARC6 Resistivity is environmentally corrected for mud resistivity and bit size. :Remark Line 2
RR1  .        GR is corrected for bit size, tool size and mud weight               :Remark Line 1
PDAT .        Lowest Astronomical Tide   :Permanent Datum
EPD  .M          0.00000                 :Elevation of Permanent Datum
DMF  .        Driller's Depth            :Drilling Measured From
LMF  .        Drill Floor                :Log Measured From
APD  .M         25.60000                 :Above Permanent Datum
EDF  .M         25.60000                 :Elevation of Derrick Floor
EGL  .M        -79.80000                 :Elevation of Ground Level
EKB  .M         25.60000                 :Elevation of Kelly Bushing
TDL  .M        505.00000                 :Total Depth - Logger
TDD  .M        505.00000                 :Total Depth - Driller
MHD  .DEG        0.09000                 :Maximum Hole Deviation
AMD  .DEG      63.350000                 :Azimuth of Maximum Hole Deviation
BS   .IN         8.50                    :Bit Size
BSDT .M        505.00000                 :Bit Size Depth To
BSDF .M        105.00000                 :Bit Size Depth From
#-----------------------------------------------------------------------------
~CURVE INFORMATION
#MNEM.UNIT   API CODE                                  DESCRIPTION
#---- -----  --------                                  -----------------------
DEPT .M                                                :DEPTH (BOREHOLE) {F10.4}
TDEP ..1IN                                             :0.1-ft Frame Depth {F13.4}
ROP5_RM.M/HR                                           :Rate of Penetration, Averaged over Last 5ft {F13.4}
GR_ARC.GAPI                                            :ARC Gamma Ray {F13.4}
ECD_ARC.LB/G                                           :Equivalent Circulating Density {F13.4}
A16H .OHMM                                             :ARC Attenuation Resistivity 16-in. at 2 MHz {F13.4}
A22H .OHMM                                             :ARC Attenuation Resistivity 22-in. at 2 MHz {F13.4}
A28H .OHMM                                             :ARC Attenuation Resistivity 28-in. at 2 MHz {F13.4}
A34H .OHMM                                             :ARC Attenuation Resistivity 34-in. at 2 MHz {F13.4}
A40H .OHMM                                             :ARC Attenuation Resistivity 40-in. at 2 MHz {F13.4}
A16L .OHMM                                             :ARC Attenuation Resistivity 16-in. at 400 KHz {F13.4}
A22L .OHMM                                             :ARC Attenuation Resistivity 22-in. at 400 KHz {F13.4}
A28L .OHMM                                             :ARC Attenuation Resistivity 28-in. at 400 KHz {F13.4}
A34L .OHMM                                             :ARC Attenuation Resistivity 34-in. at 400 KHz {F13.4}
A40L .OHMM                                             :ARC Attenuation Resistivity 40-in. at 400 KHz {F13.4}
P16H .OHMM                                             :ARC Phase-Shift Resistivity 16-in. at 2 MHz {F13.4}
P22H .OHMM                                             :ARC Phase-Shift Resistivity 22-in. at 2 MHz {F13.4}
P28H .OHMM                                             :ARC Phase-Shift Resistivity 28-in. at 2 MHz {F13.4}
P34H .OHMM                                             :ARC Phase-Shift Resistivity 34-in. at 2 MHz {F13.4}
P40H .OHMM                                             :ARC Phase-Shift Resistivity 40-in. at 2 MHz {F13.4}
P16L .OHMM                                             :ARC Phase-Shift Resistivity 16-in. at 400 KHz {F13.4}
P22L .OHMM                                             :ARC Phase-Shift Resistivity 22-in. at 400 KHz {F13.4}
P28L .OHMM                                             :ARC Phase-Shift Resistivity 28-in. at 400 KHz {F13.4}
P34L .OHMM                                             :ARC Phase-Shift Resistivity 34-in. at 400 KHz {F13.4}
P40L .OHMM                                             :ARC Phase-Shift Resistivity 40-in. at 400 KHz {F13.4}
APRS_ARC.PSI                                           :ARC Annular Pressure {F13.4}
ATMP .DEGC                                             :ARC Annular Temperature {F13.4}
TAB_ARC_RES.HR                                         :ARC Resistivity Time After Bit {F13.4}
#-----------------------------------------------------------------------------
# 
#     DEPT        TDEP       ROP5_RM       GR_ARC      ECD_ARC        A16H         A22H         A28H         A34H         A40H         A16L         A22L         A28L         A34L         A40L         P16H         P22H         P28H         P34H         P40H         P16L         P22L         P28L         P34L         P40L       APRS_ARC       ATMP     TAB_ARC_RES
#
~A  
# ...
  393.1920  154800.0000      60.0124      71.0351      11.9428       0.8460       0.8592       0.8624       0.8618       0.8660       0.8312       0.8591       0.8737       0.8725       0.8647       0.7814       0.8050       0.8171       0.8185       0.8217       0.8244       0.8491       0.8562       0.8446       0.8313     751.0000      35.0000       0.1667
  393.3444  154860.0000      59.3267      70.7335      11.9370       0.8496       0.8601       0.8637       0.8641       0.8672       0.8301       0.8600       0.8771       0.8758       0.8651       0.8846       0.8945       0.9028       0.9045       0.9015       0.8724       0.8841       0.8881       0.8800       0.8671     750.9992      35.0000       0.1694
  393.4968  154920.0000      57.4180      71.2451      11.9498       0.8722       0.8799       0.8813       0.8834       0.8916       0.8441       0.8650       0.8738       0.8691       0.8595       0.8524       0.8718       0.8793       0.8806       0.8883       0.8728       0.8857       0.8881       0.8785       0.8669     752.0000      35.0000       0.1694
  393.6492  154980.0000      55.0773      77.6684      11.9440       0.8836       0.8822       0.8803       0.8810       0.8844       0.8557       0.8735       0.8814       0.8749       0.8619       0.8739       0.8843       0.8917       0.8973       0.9040       0.8906       0.8965       0.8982       0.8887       0.8725     752.0000      35.0000       0.1722
  393.8016  155040.0000      54.3767      85.4160      11.9383       0.8817       0.8827       0.8813       0.8799       0.8804       0.8509       0.8670       0.8749       0.8703       0.8594       0.8540       0.8661       0.8763       0.8812       0.8827       0.8766       0.8858       0.8907       0.8841       0.8702     752.0008      35.0000       0.1722
  393.9540  155100.0000      51.2214      90.5320      11.9514       0.8697       0.8711       0.8685       0.8673       0.8708       0.8400       0.8620       0.8717       0.8655       0.8527       0.8622       0.8719       0.8800       0.8822       0.8805       0.8770       0.8866       0.8905       0.8790       0.8581     753.0000      35.0000       0.1722
  394.1064  155160.0000      49.3817      90.0394      11.9641       0.8628       0.8668       0.8673       0.8682       0.8725       0.8239       0.8529       0.8630       0.8522       0.8353       0.8522       0.8687       0.8802       0.8836       0.8845       0.8653       0.8775       0.8843       0.8795       0.8681     754.0000      35.0000       0.1722
  394.2588  155220.0000      46.4834      89.3017      11.9960       0.8710       0.8735       0.8744       0.8758       0.8792       0.8433       0.8648       0.8750       0.8668       0.8496       0.8389       0.8524       0.8615       0.8658       0.8700       0.8624       0.8733       0.8767       0.8716       0.8653     755.9984      35.0000       0.1694
  394.4112  155280.0000      40.9013      91.1965      11.9526       0.8619       0.8657       0.8669       0.8690       0.8741       0.8238       0.8498       0.8635       0.8577       0.8416       0.8467       0.8611       0.8702       0.8741       0.8785       0.8587       0.8696       0.8768       0.8733       0.8630     754.0000      35.0000       0.1722
  394.5636  155340.0000      39.5654      93.7166      11.9845       0.8437       0.8462       0.8473       0.8502       0.8557       0.8192       0.8397       0.8525       0.8501       0.8380       0.8229       0.8312       0.8374       0.8420       0.8472       0.8401       0.8467       0.8506       0.8473       0.8391     756.0000      35.0000       0.1694
  394.7160  155400.0000      38.6398      94.1524      11.9971       0.8312       0.8319       0.8272       0.8250       0.8298       0.8025       0.8253       0.8353       0.8296       0.8178       0.7923       0.8067       0.8152       0.8167       0.8176       0.8164       0.8305       0.8354       0.8268       0.8135     757.0000      35.0000       0.1694
  394.8684  155460.0000      35.6348      93.3201      11.9914       0.8394       0.8403       0.8360       0.8343       0.8398       0.8067       0.8282       0.8373       0.8311       0.8187       0.7896       0.8040       0.8120       0.8163       0.8239       0.8181       0.8306       0.8352       0.8267       0.8129     757.0000      35.0000       0.1694
  395.0208  155520.0000      35.2053      95.7265      12.0232       0.8205       0.8261       0.8259       0.8269       0.8340       0.7973       0.8209       0.8327       0.8288       0.8181       0.7833       0.7965       0.8041       0.8034       0.8003       0.8072       0.8189       0.8225       0.8156       0.8058     759.0000      35.0000       0.1694
  395.1732  155580.0000      34.3772     102.3582      11.9986       0.8169       0.8225       0.8266       0.8315       0.8382       0.7803       0.8032       0.8155       0.8144       0.8070       0.8016       0.8206       0.8339       0.8390       0.8422       0.8125       0.8266       0.8346       0.8307       0.8207     758.0000      35.0000       0.1694
  395.3256  155640.0000      34.2208     110.5614      12.0113       0.8153       0.8209       0.8238       0.8265       0.8310       0.7771       0.8015       0.8153       0.8127       0.8015       0.8044       0.8253       0.8402       0.8475       0.8538       0.8164       0.8305       0.8385       0.8352       0.8265     759.0000      35.0000       0.1667
  395.4780  155700.0000      34.0788     110.1824      12.0430       0.8102       0.8119       0.8119       0.8117       0.8127       0.7715       0.7916       0.8049       0.8050       0.7964       0.8499       0.8682       0.8792       0.8826       0.8862       0.8317       0.8375       0.8414       0.8354       0.8217     761.0000      35.0000       0.1694
  395.6304  155760.0000      34.0186     102.6032      12.0373       0.7963       0.7897       0.7876       0.7879       0.7868       0.7728       0.7902       0.8018       0.7996       0.7878       0.7875       0.7998       0.8099       0.8163       0.8217       0.8027       0.8059       0.8133       0.8104       0.7930     761.0000      35.0000       0.1667
  395.7828  155820.0000      35.0446      88.9038      12.0502       0.7815       0.7867       0.7902       0.7953       0.8027       0.7676       0.7929       0.8056       0.8043       0.7976       0.6399       0.6557       0.6663       0.6703       0.6737       0.7220       0.7351       0.7427       0.7394       0.7306     762.0000      35.0000       0.1694
  395.9352  155880.0000      35.4746      80.7588      12.0441       0.7805       0.7918       0.7936       0.7944       0.8022       0.7604       0.7873       0.8016       0.8056       0.8071       0.6467       0.6706       0.6829       0.6875       0.6978       0.7234       0.7463       0.7552       0.7507       0.7467     762.0000      35.0000       0.1667
  396.0876  155940.0000      36.3669      80.2472      12.0571       0.7716       0.7806       0.7810       0.7809       0.7876       0.7565       0.7821       0.7937       0.7927       0.7885       0.7720       0.7965       0.8108       0.8117       0.8106       0.7805       0.8015       0.8121       0.8046       0.7896     763.0000      35.0000       0.1667
  396.2400  156000.0000      36.8229      86.8790      12.0513       0.7932       0.8050       0.8105       0.8144       0.8218       0.7621       0.7955       0.8097       0.8043       0.7932       0.7791       0.8054       0.8215       0.8237       0.8232       0.7906       0.8110       0.8213       0.8191       0.8142     763.0000      35.0000       0.1667
  396.3924  156060.0000      37.0818      92.5611      12.0455       0.8027       0.8119       0.8155       0.8203       0.8311       0.7655       0.7969       0.8136       0.8132       0.8060       0.7607       0.7881       0.8048       0.8099       0.8156       0.7823       0.8048       0.8159       0.8112       0.8017     763.0000      35.0000       0.1667
  396.5448  156120.0000      38.2625      95.1570      12.0585       0.8174       0.8127       0.8115       0.8159       0.8225       0.7762       0.7936       0.8045       0.8024       0.7921       0.8172       0.8295       0.8387       0.8471       0.8584       0.8217       0.8287       0.8326       0.8264       0.8136     764.0000      35.0000       0.1694
