~Version Information
VERS.             2.0 : CWLS log ASCII standard - Version 2.0
WRAP.             NO  : One line per depth step
#
~Well Information Block
#MNEM.UNIT                   Data Type:Information
#__________________________________________________________
STRT.           02-DEC-2006 06:00:00 : START INDEX                   
STOP.           02-DEC-2006 16:00:00 : STOP INDEX                    
STEP.SEC           10.0000 : STEP                          
NULL .          -999.25      :NULL VALUE
COMP .        Company      :COMPANY
WELL .        W2                  :WELL
FLD  .        Block                  :FIELD
LOC  .                                                 :LOCATION
CNTY .        Actinia                                  :COUNTY
STAT .        State                           :STATE
CTRY .                                                 :COUNTRY
JOB  .        06INM0159                                :Job NUMBER
UWI  .                                                 :UNIQUE WELL ID
DATE .        02-Dec-2006                              :LOG DATE {DD-MMM-YYYY}
SRVC .        Company                             :SERVICE COMPANY
LATI .DEG     16.276 N                                :LATITUDE
LONG .DEG     82.0962 E                                :LONGITUDE
GDAT .                                                 :GeoDetic Datum
SECT .        8.5 in                                   :Section
#-----------------------------------------------------------------------------
~PARAMETER INFORMATION
#MNEM.UNIT    VALUE                      DESCRIPTION
#---- -----   --------------------       ------------------------
TN1 .        PowerPulse                  :Tool Number 1
TN2 .        ARC                         :Tool Number 2
OS3  .          N/A                      :Other Services Line 3
OS2  .          InterACT                 :Other Services Line 2
OS1  .          Directional Surveys      :Other Services Line 1
MST  .DEGC      20.00000                 :Mud Sample Temperature
BHT  .DEGC      36.00000                 :Bottom Hole Temperature
RMS.OHMM         3.00000                 :Resistivity of Mud Sample (RM)
MST.DEGC        20.00000                 :Mud Sample temperature (RM)
MW.LB/G         11.00000                 :Mud Weight (RM)
SHT.DEGC        20.00000                 :Surface Hole Temperature (RM)
BSAL .PPM     3300.00000                 :Mud Salinity
MRT  .DEGC     67.00000                  :Maximum Recorded Temperature
MCST .DEGC      20.00000                 :Mud Cake Sample Temperature
RMCS .OHMM       4.50000                 :Resistivity of Mud Cake Sample
MFST .DEGC      20.00000                 :Mud Filtrate Sample Temperature
RMFS .OHMM       2.25000                 :Resistivity of Mud Filtrate Sample
MSS  .        Mud Pit                    :Mud Sample Source
MFSS  .       Mud Pit                    :Mud Filtrate Sample Source
MCSS  .       Mud Pit                    :Mud Cake Sample Source
TCS  .         16:00                     :End Log Time
DCS  .         2-Dec-2006                :End Log Date
DFT  .        WBM                        :Drilling Fluid Type
DFPH .           N/A                     :Drilling Fluid PH
DFV  .S       45.00000                   :Drilling Fluid Viscosity
DFD  .LB/G    11.000000                  :Drilling Fluid Density
DOWR .        71/29                      :Oil/Water Ratio
TLAB .        05:00                      :Begin Log Time
DLAB .        2-Dec-2006                 :Begin Log Date
RUN  .        1                          :Run Number
BLI  .M       500.00000                  :Bottom Log Interval
TLI  .M       120.00000                  :Top Log Interval
WITN .        Mr Lindsay                 :Witness's Name
ENGI .        Hatim/Victor/Harsh         :Engineer's Name
LUL  .        Zone 2                     :Logging Unit Location
LUN  .        OLU-KC-0103                :Logging Unit Number
RR2  .        ARC6 Resistivity is environmentally corrected for mud resistivity and bit size. :Remark Line 2
RR1  .        GR is corrected for bit size, tool size and mud weight               :Remark Line 1
PDAT .        Lowest Astronomical Tide   :Permanent Datum
EPD  .M          0.00000                 :Elevation of Permanent Datum
DMF  .        Driller's Depth            :Drilling Measured From
LMF  .        Drill Floor                :Log Measured From
APD  .M         25.60000                 :Above Permanent Datum
EDF  .M         25.60000                 :Elevation of Derrick Floor
EGL  .M        -79.80000                 :Elevation of Ground Level
EKB  .M         25.60000                 :Elevation of Kelly Bushing
TDL  .M        505.00000                 :Total Depth - Logger
TDD  .M        505.00000                 :Total Depth - Driller
MHD  .DEG        0.09000                 :Maximum Hole Deviation
AMD  .DEG      63.350000                 :Azimuth of Maximum Hole Deviation
BS   .IN         8.50                    :Bit Size
BSDT .M        505.00000                 :Bit Size Depth To
BSDF .M        105.00000                 :Bit Size Depth From
#-----------------------------------------------------------------------------                   
#
~Curve Information Block
#MNEM.UNIT                     : Curve Description
#---------                     --------------------
TIME	    .HHMMSS	       : 
DATE	    .D		       : 
RM_DEPTH    .M                 : LWDRM 1HZ River Depth                                           
ECD_ARC     .LB/G              : Equivalent Circulating Density                                  
APRS_ARC    .PSI               : ARC Annular Pressure                                            
ATMP        .DEGC              : ARC Annular Temperature                                         
#
~Parameter Information Block
#MNEM.UNIT                       Value:Description
#__________________________________________________________
#
~Other Information Block

#
~A TIME       DATE   RM_DEPTH    ECD_ARC   APRS_ARC       ATMP
# ...
08:28:16 02-Dec-06     249.11      11.45     435.00      34.00
08:28:26 02-Dec-06     249.25      11.44     435.00      34.00
08:28:36 02-Dec-06     249.39      11.50     437.00      34.00
08:28:46 02-Dec-06     249.54      11.49     437.00      34.00
08:28:56 02-Dec-06     249.69      11.48     437.00      34.00
08:29:06 02-Dec-06     249.84      11.47     437.00      34.00
08:29:16 02-Dec-06     250.01      11.50     438.00      34.00
08:29:26 02-Dec-06     250.16      11.49     438.00      34.00
08:29:36 02-Dec-06     250.32      11.55     440.00      34.00
08:29:46 02-Dec-06     250.47      11.54     440.00      34.00
08:29:56 02-Dec-06     250.61      11.56     441.00      34.00
08:30:06 02-Dec-06     250.74      11.52     440.00      34.00
08:30:16 02-Dec-06     250.88      11.54     441.00      34.00
08:30:26 02-Dec-06     251.03      11.57     442.00      34.00
08:30:36 02-Dec-06     251.19      11.63     444.00      34.00
08:30:46 02-Dec-06     251.32      11.58     443.00      34.00
08:30:56 02-Dec-06     251.46      11.61     444.00      34.00
08:31:06 02-Dec-06     251.61      11.53     442.00      34.00
08:31:16 02-Dec-06     251.75      11.62     445.00      34.00
08:31:26 02-Dec-06     251.90      11.61     445.00      34.00
08:31:36 02-Dec-06     252.04      11.64     446.00      34.00
08:31:46 02-Dec-06     252.19      11.63     446.00      34.00
08:31:56 02-Dec-06     252.34      11.65     447.00      34.00
08:32:06 02-Dec-06     252.50      11.61     446.00      34.00
08:32:16 02-Dec-06     252.65      11.63     447.00      34.00
08:32:26 02-Dec-06     252.80      11.66     448.00      34.00
08:32:36 02-Dec-06     252.95      11.65     448.00      34.00
08:32:46 02-Dec-06     253.11      11.64     448.00      34.00
08:32:56 02-Dec-06     253.26      11.66     449.00      34.00
08:33:06 02-Dec-06     253.40      11.62     448.00      34.00
08:33:16 02-Dec-06     253.55      11.68     450.00      34.00
08:33:26 02-Dec-06     253.69      11.63     449.00      34.00
08:33:36 02-Dec-06     253.84      11.73     452.00      34.00
08:33:46 02-Dec-06     253.96      11.68     451.00      34.00
08:33:56 02-Dec-06     254.07      11.64     450.00      34.00
08:34:06 02-Dec-06     254.16      11.63     450.00      34.00
08:34:16 02-Dec-06     254.26      11.66     451.00      34.00
08:34:26 02-Dec-06     254.37      11.65     451.00      34.00
08:34:36 02-Dec-06     254.46      11.65     451.00      34.00
08:34:46 02-Dec-06     254.58      11.60     450.00      34.00
08:34:56 02-Dec-06     254.71      11.63     451.00      34.00
08:35:06 02-Dec-06     254.84      11.62     451.00      34.00
08:35:16 02-Dec-06     254.97      11.61     451.00      34.00
08:35:26 02-Dec-06     255.09      11.60     451.00      34.00
08:35:36 02-Dec-06     255.22      11.59     451.00      34.00
08:35:46 02-Dec-06     255.36      11.62     452.00      34.00
08:35:56 02-Dec-06     255.48      11.61     452.00      34.00
08:36:06 02-Dec-06     255.62      11.64     453.00      34.00
08:36:16 02-Dec-06     255.77      11.66     454.00      34.00
08:36:26 02-Dec-06     255.93      11.65     454.00      34.00
08:36:36 02-Dec-06     256.08      11.64     454.00      34.00
08:36:46 02-Dec-06     256.23      11.63     454.00      34.00
08:36:56 02-Dec-06     256.38      11.65     455.00      34.00
08:37:06 02-Dec-06     256.54      11.64     455.00      34.00
08:37:16 02-Dec-06     256.70      11.63     455.00      34.00
08:37:26 02-Dec-06     256.89      11.58     454.00      34.00
08:37:36 02-Dec-06     257.07      11.61     455.00      34.00
08:37:46 02-Dec-06     257.24      11.63     456.00      34.00
08:37:56 02-Dec-06     257.43      11.62     456.00      34.00
08:38:06 02-Dec-06     257.60      11.60     456.00      34.00
08:38:16 02-Dec-06     257.78      11.63     457.00      34.00
08:38:26 02-Dec-06     257.97      11.61     457.00      34.00
08:38:36 02-Dec-06     258.15      11.64     458.00      34.00
08:38:46 02-Dec-06     258.30      11.66     459.00      34.00
08:38:56 02-Dec-06     258.44      11.68     460.00      34.00
08:39:06 02-Dec-06     258.59      11.61     458.00      34.00
08:39:16 02-Dec-06     258.73      11.67     460.00      34.00
08:39:26 02-Dec-06     258.88      11.62     459.00      34.00
08:39:36 02-Dec-06     259.02      11.65     460.00      34.00
08:39:46 02-Dec-06     259.17      11.64     460.00      34.00
08:39:56 02-Dec-06     259.31      11.66     461.00      34.00
08:40:06 02-Dec-06     259.45      11.65     461.00      34.00
08:40:16 02-Dec-06     259.58      11.64     461.00      34.00
08:40:26 02-Dec-06     259.72      11.63     461.00      34.00
08:40:36 02-Dec-06     259.86      11.69     463.00      34.00
08:40:46 02-Dec-06     259.99      11.68     463.00      34.00
08:40:56 02-Dec-06     260.12      11.71     464.00      34.00
08:41:06 02-Dec-06     260.24      11.66     463.00      34.00
08:41:16 02-Dec-06     260.36      11.66     463.00      34.00
08:41:26 02-Dec-06     260.49      11.72     465.00      34.00
08:41:36 02-Dec-06     260.65      11.67     464.00      34.00
08:41:46 02-Dec-06     260.69      11.70     465.00      34.00
08:41:56 02-Dec-06     260.68      11.67     464.00      34.00
08:42:06 02-Dec-06     260.52      11.65     463.00      34.00
08:42:16 02-Dec-06     259.27      11.63     460.00      34.00
08:42:26 02-Dec-06     258.84      11.52     456.00      34.00
08:42:36 02-Dec-06     259.90      11.48     457.00      34.00
08:42:46 02-Dec-06     260.45      11.28     452.00      34.00
08:42:56 02-Dec-06     260.32      11.18     449.00      34.00
08:43:06 02-Dec-06     260.27      11.12     447.00      34.00
08:43:16 02-Dec-06     260.27      11.09     446.00      34.00
08:43:26 02-Dec-06     260.27      10.95     442.00      34.00
08:43:36 02-Dec-06     260.27      10.92     441.00      34.00
08:43:46 02-Dec-06     260.27      10.81     438.00      34.00
08:43:56 02-Dec-06     260.27      10.78     437.00      34.00
08:44:06 02-Dec-06     260.27      10.78     437.00      34.00
08:44:16 02-Dec-06     260.27      10.78     437.00      34.00
08:44:26 02-Dec-06     260.27      10.71     435.00      34.00
08:44:36 02-Dec-06     260.27      10.71     435.00      34.00
08:44:46 02-Dec-06     260.27      10.68     434.00      34.00
08:44:56 02-Dec-06     260.27      10.68     434.00      34.00
08:45:06 02-Dec-06     260.27      10.61     432.00      34.00
08:45:16 02-Dec-06     260.27      10.61     432.00      34.00
08:45:26 02-Dec-06     260.27      10.61     432.00      34.00
08:45:36 02-Dec-06     260.27      10.61     432.00      34.00
08:45:46 02-Dec-06     260.27      10.64     433.00      34.00
08:45:56 02-Dec-06     260.27      10.64     433.00      34.00
08:46:06 02-Dec-06     260.27      10.61     432.00      34.00
08:46:16 02-Dec-06     260.27      10.61     432.00      34.00
08:46:26 02-Dec-06     260.27      10.61     432.00      34.00
08:46:36 02-Dec-06     260.27      10.61     432.00      34.00
08:46:46 02-Dec-06     260.25      10.65     433.00      34.00
08:46:56 02-Dec-06     259.78      10.71     434.00      34.00
08:47:06 02-Dec-06     259.30      10.84     437.00      34.00
08:47:16 02-Dec-06     259.32      11.08     444.01      34.00
08:47:26 02-Dec-06     259.63      11.67     462.00      34.00
08:47:36 02-Dec-06     259.93      11.75     465.00      34.00
08:47:46 02-Dec-06     260.15      11.74     465.00      34.00
08:47:56 02-Dec-06     260.39      11.72     465.00      34.00
08:48:06 02-Dec-06     260.62      11.77     467.00      34.00
08:48:16 02-Dec-06     260.85      11.86     470.00      34.00
08:48:26 02-Dec-06     261.09      11.88     471.00      34.00
08:48:36 02-Dec-06     261.31      11.83     470.00      34.00
08:48:46 02-Dec-06     261.56      11.85     471.00      34.00
08:48:56 02-Dec-06     261.55      11.81     470.00      34.00
08:49:06 02-Dec-06     261.82      11.93     474.00      34.00
08:49:16 02-Dec-06     262.05      11.78     470.00      34.00
