~Version Information
VERS.             2.0 : CWLS log ASCII standard - Version 2.0
WRAP.             NO  : One line per depth step
#
~Well Information Block
#MNEM.UNIT                   Data Type:Information
#__________________________________________________________
STRT.           02-DEC-2006 06:00:00 : START INDEX                   
STOP.           02-DEC-2006 16:00:00 : STOP INDEX                    
STEP.SEC           10.0000 : STEP                          
NULL .          -999.25      :NULL VALUE
COMP .        Company      :COMPANY
WELL .        W2                  :WELL
FLD  .        Block                  :FIELD
LOC  .                                                 :LOCATION
CNTY .        Actinia                                  :COUNTY
STAT .        State                           :STATE
CTRY .                                                 :COUNTRY
JOB  .        06INM0159                                :Job NUMBER
UWI  .                                                 :UNIQUE WELL ID
DATE .        02-Dec-2006                              :LOG DATE {DD-MMM-YYYY}
SRVC .        Company                             :SERVICE COMPANY
LATI .DEG     16.276 N                                :LATITUDE
LONG .DEG     82.0962 E                                :LONGITUDE
GDAT .                                                 :GeoDetic Datum
SECT .        8.5 in                                   :Section
#-----------------------------------------------------------------------------
~PARAMETER INFORMATION
#MNEM.UNIT    VALUE                      DESCRIPTION
#---- -----   --------------------       ------------------------
TN1 .        PowerPulse                  :Tool Number 1
TN2 .        ARC                         :Tool Number 2
OS3  .          N/A                      :Other Services Line 3
OS2  .          InterACT                 :Other Services Line 2
OS1  .          Directional Surveys      :Other Services Line 1
MST  .DEGC      20.00000                 :Mud Sample Temperature
BHT  .DEGC      36.00000                 :Bottom Hole Temperature
RMS.OHMM         3.00000                 :Resistivity of Mud Sample (RM)
MST.DEGC        20.00000                 :Mud Sample temperature (RM)
MW.LB/G         11.00000                 :Mud Weight (RM)
SHT.DEGC        20.00000                 :Surface Hole Temperature (RM)
BSAL .PPM     3300.00000                 :Mud Salinity
MRT  .DEGC     67.00000                  :Maximum Recorded Temperature
MCST .DEGC      20.00000                 :Mud Cake Sample Temperature
RMCS .OHMM       4.50000                 :Resistivity of Mud Cake Sample
MFST .DEGC      20.00000                 :Mud Filtrate Sample Temperature
RMFS .OHMM       2.25000                 :Resistivity of Mud Filtrate Sample
MSS  .        Mud Pit                    :Mud Sample Source
MFSS  .       Mud Pit                    :Mud Filtrate Sample Source
MCSS  .       Mud Pit                    :Mud Cake Sample Source
TCS  .         16:00                     :End Log Time
DCS  .         2-Dec-2006                :End Log Date
DFT  .        WBM                        :Drilling Fluid Type
DFPH .           N/A                     :Drilling Fluid PH
DFV  .S       45.00000                   :Drilling Fluid Viscosity
DFD  .LB/G    11.000000                  :Drilling Fluid Density
DOWR .        71/29                      :Oil/Water Ratio
TLAB .        05:00                      :Begin Log Time
DLAB .        2-Dec-2006                 :Begin Log Date
RUN  .        1                          :Run Number
BLI  .M       500.00000                  :Bottom Log Interval
TLI  .M       120.00000                  :Top Log Interval
WITN .        Mr Lindsay                 :Witness's Name
ENGI .        Hatim/Victor/Harsh         :Engineer's Name
LUL  .        Zone 2                     :Logging Unit Location
LUN  .        OLU-KC-0103                :Logging Unit Number
RR2  .        ARC6 Resistivity is environmentally corrected for mud resistivity and bit size. :Remark Line 2
RR1  .        GR is corrected for bit size, tool size and mud weight               :Remark Line 1
PDAT .        Lowest Astronomical Tide   :Permanent Datum
EPD  .M          0.00000                 :Elevation of Permanent Datum
DMF  .        Driller's Depth            :Drilling Measured From
LMF  .        Drill Floor                :Log Measured From
APD  .M         25.60000                 :Above Permanent Datum
EDF  .M         25.60000                 :Elevation of Derrick Floor
EGL  .M        -79.80000                 :Elevation of Ground Level
EKB  .M         25.60000                 :Elevation of Kelly Bushing
TDL  .M        505.00000                 :Total Depth - Logger
TDD  .M        505.00000                 :Total Depth - Driller
MHD  .DEG        0.09000                 :Maximum Hole Deviation
AMD  .DEG      63.350000                 :Azimuth of Maximum Hole Deviation
BS   .IN         8.50                    :Bit Size
BSDT .M        505.00000                 :Bit Size Depth To
BSDF .M        105.00000                 :Bit Size Depth From
#-----------------------------------------------------------------------------                   
#
~Curve Information Block
#MNEM.UNIT                     : Curve Description
#---------                     --------------------
TIME	    .HHMMSS	       : 
DATE	    .D		       : 
RM_DEPTH    .M                 : LWDRM 1HZ River Depth                                           
ECD_ARC     .LB/G              : Equivalent Circulating Density                                  
APRS_ARC    .PSI               : ARC Annular Pressure                                            
ATMP        .DEGC              : ARC Annular Temperature                                         
#
~Parameter Information Block
#MNEM.UNIT                       Value:Description
#__________________________________________________________
#
~Other Information Block

#
~A TIME       DATE   RM_DEPTH    ECD_ARC   APRS_ARC       ATMP
# ...
12:21:06 02-Dec-06     403.38      12.10     771.00      36.00
12:21:16 02-Dec-06     403.47      12.08     770.00      36.00
12:21:26 02-Dec-06     403.57      12.11     772.00      36.00
12:21:36 02-Dec-06     403.64      12.09     771.00      36.00
12:21:46 02-Dec-06     403.71      12.14     774.00      36.00
12:21:56 02-Dec-06     403.79      12.12     773.00      36.00
12:22:06 02-Dec-06     403.86      12.14     774.00      36.00
12:22:16 02-Dec-06     403.94      12.12     773.00      36.00
12:22:26 02-Dec-06     404.03      12.17     776.00      36.00
12:22:36 02-Dec-06     404.10      12.15     775.00      36.00
12:22:46 02-Dec-06     404.19      12.16     776.00      36.00
12:22:56 02-Dec-06     404.27      12.12     774.00      36.00
12:23:06 02-Dec-06     404.34      12.19     778.00      36.00
12:23:16 02-Dec-06     404.42      12.15     776.00      36.00
12:23:26 02-Dec-06     404.51      12.13     775.00      36.00
12:23:36 02-Dec-06     404.59      12.11     774.00      36.00
12:23:46 02-Dec-06     404.68      12.11     774.00      36.00
12:23:56 02-Dec-06     404.78      12.10     774.00      36.00
12:24:06 02-Dec-06     404.87      12.10     774.00      36.00
12:24:16 02-Dec-06     404.96      12.08     773.00      36.00
12:24:26 02-Dec-06     405.06      12.07     773.00      36.00
12:24:36 02-Dec-06     405.13      12.05     772.00      36.00
12:24:46 02-Dec-06     405.21      12.05     772.00      36.00
12:24:56 02-Dec-06     405.30      12.05     772.00      36.00
12:25:06 02-Dec-06     405.38      12.02     771.00      36.00
12:25:16 02-Dec-06     405.46      12.04     772.00      36.00
12:25:26 02-Dec-06     405.54      12.02     771.00      36.00
12:25:36 02-Dec-06     405.62      12.03     772.00      36.00
12:25:46 02-Dec-06     405.70      11.99     770.00      36.00
12:25:56 02-Dec-06     405.79      12.01     771.00      36.00
12:26:06 02-Dec-06     405.86      11.97     769.00      36.00
12:26:16 02-Dec-06     405.94      12.00     771.00      36.00
12:26:26 02-Dec-06     406.04      11.98     770.00      36.00
12:26:36 02-Dec-06     406.12      12.00     771.00      36.00
12:26:46 02-Dec-06     406.20      11.98     770.00      36.00
12:26:56 02-Dec-06     406.30      11.99     771.00      36.00
12:27:06 02-Dec-06     406.37      11.99     771.00      35.00
12:27:16 02-Dec-06     406.45      11.98     771.00      35.00
12:27:26 02-Dec-06     406.53      11.96     770.00      35.00
12:27:36 02-Dec-06     406.48      11.95     769.00      35.00
12:27:46 02-Dec-06     406.00      11.93     767.00      35.00
12:27:56 02-Dec-06     405.26      11.86     762.00      35.00
12:28:06 02-Dec-06     404.47      11.87     761.00      35.00
12:28:16 02-Dec-06     403.74      11.85     758.00      35.00
12:28:26 02-Dec-06     403.22      11.85     757.00      35.00
12:28:36 02-Dec-06     403.56      11.91     761.00      35.00
12:28:46 02-Dec-06     404.10      11.93     763.00      35.00
12:28:56 02-Dec-06     405.17      11.92     765.00      35.00
12:29:06 02-Dec-06     405.68      11.90     765.00      35.00
12:29:16 02-Dec-06     405.44      11.80     759.00      35.00
12:29:26 02-Dec-06     405.69      11.87     763.00      35.00
12:29:36 02-Dec-06     406.15      11.83     762.00      35.00
12:29:46 02-Dec-06     406.18      11.83     762.00      35.00
12:29:56 02-Dec-06     406.18      11.81     761.00      35.00
12:30:06 02-Dec-06     406.18      11.53     746.00      35.00
12:30:16 02-Dec-06     406.18      11.48     743.00      35.00
12:30:26 02-Dec-06     406.18      11.44     741.00      35.00
12:30:36 02-Dec-06     406.18      11.42     740.00      35.00
12:30:46 02-Dec-06     406.18      11.39     738.00      35.00
12:30:56 02-Dec-06     406.18      11.37     737.00      35.00
12:31:06 02-Dec-06     406.18      11.37     737.00      35.00
12:31:16 02-Dec-06     406.18      11.35     736.00      35.00
12:31:26 02-Dec-06     406.18      11.33     735.00      35.00
12:31:36 02-Dec-06     406.18      11.35     736.00      35.00
12:31:46 02-Dec-06     406.18      11.31     734.00      35.00
12:31:56 02-Dec-06     406.18      11.26     731.00      35.00
12:32:06 02-Dec-06     406.18      11.26     731.00      35.00
12:32:16 02-Dec-06     406.18      11.24     730.00      35.00
12:32:26 02-Dec-06     406.18      11.22     729.00      35.00
12:32:36 02-Dec-06     406.18      11.20     728.00      35.00
12:32:46 02-Dec-06     406.18      11.20     728.00      35.00
12:32:56 02-Dec-06     406.18      11.18     727.00      35.00
12:33:06 02-Dec-06     406.18      11.18     727.00      35.00
12:33:16 02-Dec-06     406.18      11.18     727.00      35.00
12:33:26 02-Dec-06     406.18      11.17     726.00      35.00
12:33:36 02-Dec-06     406.18      11.17     726.00      35.00
12:33:46 02-Dec-06     406.18      11.15     725.00      35.00
12:33:56 02-Dec-06     406.18      11.11     723.00      35.00
12:34:06 02-Dec-06     406.18      11.11     723.00      35.00
12:34:16 02-Dec-06     406.18      11.09     722.00      35.00
12:34:26 02-Dec-06     406.18      11.09     722.00      35.00
12:34:36 02-Dec-06     406.18      11.07     721.00      35.00
12:34:46 02-Dec-06     406.18      11.07     721.00      35.00
12:34:56 02-Dec-06     406.18      11.07     721.00      35.00
12:35:06 02-Dec-06     406.18      11.07     721.00      35.00
12:35:16 02-Dec-06     406.18      11.06     720.00      35.00
12:35:26 02-Dec-06     406.18      11.06     720.00      35.00
12:35:36 02-Dec-06     406.18      11.06     720.00      35.00
12:35:46 02-Dec-06     406.18      11.00     717.00      35.00
12:35:56 02-Dec-06     406.18      11.02     718.00      35.00
12:36:06 02-Dec-06     406.18      11.02     718.00      35.00
12:36:16 02-Dec-06     406.18      11.02     718.00      35.00
12:36:26 02-Dec-06     406.18      11.02     718.00      35.00
12:36:36 02-Dec-06     406.18      11.02     718.00      35.00
12:36:46 02-Dec-06     406.18      11.00     717.00      35.00
12:36:56 02-Dec-06     406.18      11.00     717.00      35.00
12:37:06 02-Dec-06     406.18      10.98     716.00      35.00
12:37:16 02-Dec-06     406.18      10.98     716.00      35.00
12:37:26 02-Dec-06     406.18      10.98     716.00      35.00
12:37:36 02-Dec-06     406.18      10.98     716.00      35.00
12:37:46 02-Dec-06     406.18      10.98     716.00      35.00
12:37:56 02-Dec-06     406.18      10.98     716.00      35.00
12:38:06 02-Dec-06     406.18      10.98     716.00      35.00
12:38:16 02-Dec-06     406.18      10.98     716.00      35.00
12:38:26 02-Dec-06     406.18      10.98     716.00      35.00
12:38:36 02-Dec-06     406.18      10.96     715.00      35.00
12:38:46 02-Dec-06     406.18      10.98     716.00      35.00
12:38:56 02-Dec-06     406.18      10.96     715.00      35.00
12:39:06 02-Dec-06     406.18      10.98     716.00      35.00
12:39:16 02-Dec-06     406.18      10.96     715.00      35.00
12:39:26 02-Dec-06     406.18      10.96     715.00      35.00
12:39:36 02-Dec-06     406.18      10.96     715.00      35.00
12:39:46 02-Dec-06     406.18      10.96     715.00      35.00
12:39:56 02-Dec-06     406.18      10.95     714.00      35.00
12:40:06 02-Dec-06     406.18      10.93     713.00      35.00
12:40:16 02-Dec-06     406.18      10.96     715.00      35.00
12:40:26 02-Dec-06     406.18      10.96     715.00      35.00
12:40:36 02-Dec-06     406.18      10.96     715.00      35.00
12:40:46 02-Dec-06     406.18      10.95     714.00      35.00
12:40:56 02-Dec-06     406.18      10.93     713.00      35.00
12:41:06 02-Dec-06     406.18      10.93     713.00      35.00
12:41:16 02-Dec-06     406.18      10.93     713.00      35.00
12:41:26 02-Dec-06     406.18      10.95     714.00      35.00
12:41:36 02-Dec-06     406.18      10.93     713.00      35.00
12:41:46 02-Dec-06     406.18      10.95     714.00      35.00
12:41:56 02-Dec-06     406.18      10.95     714.00      35.00
12:42:06 02-Dec-06     406.18      10.93     713.00      35.00
