~Version Information
VERS.             2.0 : CWLS log ASCII standard - Version 2.0
WRAP.             NO  : One line per depth step
#
~Well Information Block
#MNEM.UNIT                   Data Type:Information
#__________________________________________________________
STRT.           02-DEC-2006 06:00:00 : START INDEX                   
STOP.           02-DEC-2006 16:00:00 : STOP INDEX                    
STEP.SEC           10.0000 : STEP                          
NULL .          -999.25      :NULL VALUE
COMP .        Company      :COMPANY
WELL .        W2                  :WELL
FLD  .        Block                  :FIELD
LOC  .                                                 :LOCATION
CNTY .        Actinia                                  :COUNTY
STAT .        State                           :STATE
CTRY .                                                 :COUNTRY
JOB  .        06INM0159                                :Job NUMBER
UWI  .                                                 :UNIQUE WELL ID
DATE .        02-Dec-2006                              :LOG DATE {DD-MMM-YYYY}
SRVC .        Company                             :SERVICE COMPANY
LATI .DEG     16.276 N                                :LATITUDE
LONG .DEG     82.0962 E                                :LONGITUDE
GDAT .                                                 :GeoDetic Datum
SECT .        8.5 in                                   :Section
#-----------------------------------------------------------------------------
~PARAMETER INFORMATION
#MNEM.UNIT    VALUE                      DESCRIPTION
#---- -----   --------------------       ------------------------
TN1 .        PowerPulse                  :Tool Number 1
TN2 .        ARC                         :Tool Number 2
OS3  .          N/A                      :Other Services Line 3
OS2  .          InterACT                 :Other Services Line 2
OS1  .          Directional Surveys      :Other Services Line 1
MST  .DEGC      20.00000                 :Mud Sample Temperature
BHT  .DEGC      36.00000                 :Bottom Hole Temperature
RMS.OHMM         3.00000                 :Resistivity of Mud Sample (RM)
MST.DEGC        20.00000                 :Mud Sample temperature (RM)
MW.LB/G         11.00000                 :Mud Weight (RM)
SHT.DEGC        20.00000                 :Surface Hole Temperature (RM)
BSAL .PPM     3300.00000                 :Mud Salinity
MRT  .DEGC     67.00000                  :Maximum Recorded Temperature
MCST .DEGC      20.00000                 :Mud Cake Sample Temperature
RMCS .OHMM       4.50000                 :Resistivity of Mud Cake Sample
MFST .DEGC      20.00000                 :Mud Filtrate Sample Temperature
RMFS .OHMM       2.25000                 :Resistivity of Mud Filtrate Sample
MSS  .        Mud Pit                    :Mud Sample Source
MFSS  .       Mud Pit                    :Mud Filtrate Sample Source
MCSS  .       Mud Pit                    :Mud Cake Sample Source
TCS  .         16:00                     :End Log Time
DCS  .         2-Dec-2006                :End Log Date
DFT  .        WBM                        :Drilling Fluid Type
DFPH .           N/A                     :Drilling Fluid PH
DFV  .S       45.00000                   :Drilling Fluid Viscosity
DFD  .LB/G    11.000000                  :Drilling Fluid Density
DOWR .        71/29                      :Oil/Water Ratio
TLAB .        05:00                      :Begin Log Time
DLAB .        2-Dec-2006                 :Begin Log Date
RUN  .        1                          :Run Number
BLI  .M       500.00000                  :Bottom Log Interval
TLI  .M       120.00000                  :Top Log Interval
WITN .        Mr Lindsay                 :Witness's Name
ENGI .        Hatim/Victor/Harsh         :Engineer's Name
LUL  .        Zone 2                     :Logging Unit Location
LUN  .        OLU-KC-0103                :Logging Unit Number
RR2  .        ARC6 Resistivity is environmentally corrected for mud resistivity and bit size. :Remark Line 2
RR1  .        GR is corrected for bit size, tool size and mud weight               :Remark Line 1
PDAT .        Lowest Astronomical Tide   :Permanent Datum
EPD  .M          0.00000                 :Elevation of Permanent Datum
DMF  .        Driller's Depth            :Drilling Measured From
LMF  .        Drill Floor                :Log Measured From
APD  .M         25.60000                 :Above Permanent Datum
EDF  .M         25.60000                 :Elevation of Derrick Floor
EGL  .M        -79.80000                 :Elevation of Ground Level
EKB  .M         25.60000                 :Elevation of Kelly Bushing
TDL  .M        505.00000                 :Total Depth - Logger
TDD  .M        505.00000                 :Total Depth - Driller
MHD  .DEG        0.09000                 :Maximum Hole Deviation
AMD  .DEG      63.350000                 :Azimuth of Maximum Hole Deviation
BS   .IN         8.50                    :Bit Size
BSDT .M        505.00000                 :Bit Size Depth To
BSDF .M        105.00000                 :Bit Size Depth From
#-----------------------------------------------------------------------------                   
#
~Curve Information Block
#MNEM.UNIT                     : Curve Description
#---------                     --------------------
TIME	    .HHMMSS	       : 
DATE	    .D		       : 
RM_DEPTH    .M                 : LWDRM 1HZ River Depth                                           
ECD_ARC     .LB/G              : Equivalent Circulating Density                                  
APRS_ARC    .PSI               : ARC Annular Pressure                                            
ATMP        .DEGC              : ARC Annular Temperature                                         
#
~Parameter Information Block
#MNEM.UNIT                       Value:Description
#__________________________________________________________
#
~Other Information Block

#
~A TIME       DATE   RM_DEPTH    ECD_ARC   APRS_ARC       ATMP
# ...
11:38:46 02-Dec-06     376.96      11.42     683.00      34.00
11:38:56 02-Dec-06     376.95      11.40     682.00      34.00
11:39:06 02-Dec-06     376.94      11.42     683.00      34.00
11:39:16 02-Dec-06     376.93      11.40     682.00      34.00
11:39:26 02-Dec-06     376.91      11.42     683.00      34.00
11:39:36 02-Dec-06     376.90      11.40     682.00      34.00
11:39:46 02-Dec-06     376.89      11.42     683.00      34.00
11:39:56 02-Dec-06     376.86      11.38     681.00      34.00
11:40:06 02-Dec-06     376.10      11.44     682.00      34.00
11:40:16 02-Dec-06     376.12      11.43     682.00      34.00
11:40:26 02-Dec-06     376.49      11.52     687.01      34.00
11:40:36 02-Dec-06     376.60      11.68     695.00      34.00
11:40:46 02-Dec-06     376.64      11.80     701.00      34.00
11:40:56 02-Dec-06     376.69      11.92     707.00      34.00
11:41:06 02-Dec-06     376.76      11.96     709.00      34.00
11:41:16 02-Dec-06     376.95      11.95     709.00      34.00
11:41:26 02-Dec-06     376.97      11.97     710.00      34.00
11:41:36 02-Dec-06     377.02      12.01     712.00      34.00
11:41:46 02-Dec-06     377.10      12.02     713.00      34.00
11:41:56 02-Dec-06     377.19      12.02     713.00      34.00
11:42:06 02-Dec-06     377.34      12.01     713.00      34.00
11:42:16 02-Dec-06     377.39      12.01     713.00      34.00
11:42:26 02-Dec-06     377.44      12.05     715.00      34.00
11:42:36 02-Dec-06     377.56      12.05     715.00      34.00
11:42:46 02-Dec-06     377.62      12.02     714.00      34.00
11:42:56 02-Dec-06     377.73      12.08     717.00      34.00
11:43:06 02-Dec-06     377.86      12.07     717.00      34.00
11:43:16 02-Dec-06     377.98      12.07     717.00      34.00
11:43:26 02-Dec-06     378.13      12.04     716.00      34.00
11:43:36 02-Dec-06     378.29      12.03     716.00      34.00
11:43:46 02-Dec-06     378.44      12.03     716.00      34.00
11:43:56 02-Dec-06     378.52      12.03     716.00      34.00
11:44:06 02-Dec-06     378.54      12.00     715.00      34.00
11:44:16 02-Dec-06     378.56      11.98     714.00      34.00
11:44:26 02-Dec-06     378.60      11.96     713.00      34.00
11:44:36 02-Dec-06     378.67      11.96     713.00      34.00
11:44:46 02-Dec-06     378.79      11.93     712.00      34.00
11:44:56 02-Dec-06     378.93      11.93     712.00      34.00
11:45:06 02-Dec-06     379.08      11.94     713.00      34.00
11:45:16 02-Dec-06     379.17      11.98     715.00      34.00
11:45:26 02-Dec-06     379.13      11.98     715.00      34.00
11:45:36 02-Dec-06     378.96      11.97     714.00      34.00
11:45:46 02-Dec-06     378.74      11.96     713.00      34.00
11:45:56 02-Dec-06     378.73      11.94     712.00      34.00
11:46:06 02-Dec-06     378.87      11.95     713.00      34.00
11:46:16 02-Dec-06     379.08      11.94     713.00      34.00
11:46:26 02-Dec-06     379.29      11.93     713.00      34.00
11:46:36 02-Dec-06     379.52      11.94     714.00      34.00
11:46:46 02-Dec-06     379.72      11.94     714.00      34.00
11:46:56 02-Dec-06     379.96      11.95     715.00      34.00
11:47:06 02-Dec-06     380.22      12.00     718.00      34.00
11:47:16 02-Dec-06     380.47      11.97     717.00      34.00
11:47:26 02-Dec-06     380.70      12.00     719.00      34.00
11:47:36 02-Dec-06     380.89      12.01     720.00      34.00
11:47:46 02-Dec-06     381.05      12.02     721.00      34.00
11:47:56 02-Dec-06     381.15      12.02     721.00      34.00
11:48:06 02-Dec-06     381.27      12.01     721.00      34.00
11:48:16 02-Dec-06     381.41      11.97     719.00      34.00
11:48:26 02-Dec-06     381.51      11.94     718.00      34.00
11:48:36 02-Dec-06     381.62      11.94     718.00      34.00
11:48:46 02-Dec-06     381.73      11.95     719.00      34.00
11:48:56 02-Dec-06     381.84      11.89     716.00      34.00
11:49:06 02-Dec-06     381.98      11.92     718.00      34.00
11:49:16 02-Dec-06     382.07      11.90     717.00      34.00
11:49:26 02-Dec-06     382.16      11.90     717.00      34.00
11:49:36 02-Dec-06     382.28      11.91     718.00      34.00
11:49:46 02-Dec-06     382.38      11.95     720.00      35.00
11:49:56 02-Dec-06     382.49      11.90     718.00      35.00
11:50:06 02-Dec-06     382.61      11.92     719.00      35.00
11:50:16 02-Dec-06     382.71      11.93     720.00      35.00
11:50:26 02-Dec-06     382.83      11.93     720.00      35.00
11:50:36 02-Dec-06     382.93      11.93     720.00      35.00
11:50:46 02-Dec-06     383.04      11.92     720.00      35.00
11:50:56 02-Dec-06     383.16      11.94     721.00      35.00
11:51:06 02-Dec-06     383.30      11.93     721.00      35.00
11:51:16 02-Dec-06     383.43      11.96     723.00      35.00
11:51:26 02-Dec-06     383.55      11.94     722.00      35.00
11:51:36 02-Dec-06     383.71      11.99     725.00      35.00
11:51:46 02-Dec-06     383.90      11.95     723.00      35.00
11:51:56 02-Dec-06     384.08      11.98     725.00      35.00
11:52:06 02-Dec-06     384.29      11.95     724.00      35.00
11:52:16 02-Dec-06     384.51      11.98     726.00      35.00
11:52:26 02-Dec-06     384.72      11.97     726.00      35.00
11:52:36 02-Dec-06     384.93      11.98     727.00      35.00
11:52:46 02-Dec-06     385.15      11.97     727.00      35.00
11:52:56 02-Dec-06     385.33      12.01     729.00      35.00
11:53:06 02-Dec-06     385.50      12.00     729.00      35.00
11:53:16 02-Dec-06     385.66      11.99     729.00      35.00
11:53:26 02-Dec-06     385.77      12.01     730.00      35.00
11:53:36 02-Dec-06     385.89      11.98     729.00      35.00
11:53:46 02-Dec-06     385.98      11.98     729.00      35.00
11:53:56 02-Dec-06     386.02      11.98     729.00      35.00
11:54:06 02-Dec-06     386.10      11.76     718.00      35.00
11:54:16 02-Dec-06     386.17      11.93     727.00      35.00
11:54:26 02-Dec-06     386.29      11.93     727.00      35.00
11:54:36 02-Dec-06     386.43      11.94     728.00      35.00
11:54:46 02-Dec-06     386.54      11.94     728.00      35.00
11:54:56 02-Dec-06     386.68      11.93     728.00      35.00
11:55:06 02-Dec-06     386.79      11.93     728.00      35.00
11:55:16 02-Dec-06     386.93      11.92     728.00      35.00
11:55:26 02-Dec-06     387.07      11.92     728.00      35.00
11:55:36 02-Dec-06     387.23      11.91     728.00      35.00
11:55:46 02-Dec-06     387.37      11.91     728.00      35.00
11:55:56 02-Dec-06     387.53      11.90     728.00      35.00
11:56:06 02-Dec-06     387.68      11.91     729.00      35.00
11:56:16 02-Dec-06     387.83      11.91     729.00      35.00
11:56:26 02-Dec-06     388.03      11.92     730.00      35.00
11:56:36 02-Dec-06     388.21      11.93     731.00      35.00
11:56:46 02-Dec-06     388.41      11.92     731.00      35.00
11:56:56 02-Dec-06     388.59      11.92     731.00      35.00
11:57:06 02-Dec-06     388.80      11.97     734.00      35.00
11:57:16 02-Dec-06     388.96      11.92     732.00      35.00
11:57:26 02-Dec-06     389.14      11.97     735.00      35.00
11:57:36 02-Dec-06     389.29      11.95     734.00      35.00
11:57:46 02-Dec-06     389.47      11.96     735.00      35.00
11:57:56 02-Dec-06     389.63      11.93     734.00      35.00
11:58:06 02-Dec-06     389.79      11.95     735.00      35.00
11:58:16 02-Dec-06     389.98      11.92     734.00      35.00
11:58:26 02-Dec-06     390.13      11.93     735.00      35.00
11:58:36 02-Dec-06     390.30      11.95     736.00      35.00
11:58:46 02-Dec-06     390.46      11.94     736.00      35.00
11:58:56 02-Dec-06     390.63      11.97     738.00      35.00
11:59:06 02-Dec-06     390.80      11.96     738.00      35.00
11:59:16 02-Dec-06     390.95      11.98     739.00      35.00
11:59:26 02-Dec-06     391.13      11.95     738.00      34.00
11:59:36 02-Dec-06     391.29      11.94     738.00      34.00
11:59:46 02-Dec-06     391.45      11.94     738.00      34.00
