~Version Information
VERS.             2.0 : CWLS log ASCII standard - Version 2.0
WRAP.             NO  : One line per depth step
#
~Well Information Block
#MNEM.UNIT                   Data Type:Information
#__________________________________________________________
STRT.           02-DEC-2006 06:00:00 : START INDEX                   
STOP.           02-DEC-2006 16:00:00 : STOP INDEX                    
STEP.SEC           10.0000 : STEP                          
NULL .          -999.25      :NULL VALUE
COMP .        Company      :COMPANY
WELL .        W2                  :WELL
FLD  .        Block                  :FIELD
LOC  .                                                 :LOCATION
CNTY .        Actinia                                  :COUNTY
STAT .        State                           :STATE
CTRY .                                                 :COUNTRY
JOB  .        06INM0159                                :Job NUMBER
UWI  .                                                 :UNIQUE WELL ID
DATE .        02-Dec-2006                              :LOG DATE {DD-MMM-YYYY}
SRVC .        Company                             :SERVICE COMPANY
LATI .DEG     16.276 N                                :LATITUDE
LONG .DEG     82.0962 E                                :LONGITUDE
GDAT .                                                 :GeoDetic Datum
SECT .        8.5 in                                   :Section
#-----------------------------------------------------------------------------
~PARAMETER INFORMATION
#MNEM.UNIT    VALUE                      DESCRIPTION
#---- -----   --------------------       ------------------------
TN1 .        PowerPulse                  :Tool Number 1
TN2 .        ARC                         :Tool Number 2
OS3  .          N/A                      :Other Services Line 3
OS2  .          InterACT                 :Other Services Line 2
OS1  .          Directional Surveys      :Other Services Line 1
MST  .DEGC      20.00000                 :Mud Sample Temperature
BHT  .DEGC      36.00000                 :Bottom Hole Temperature
RMS.OHMM         3.00000                 :Resistivity of Mud Sample (RM)
MST.DEGC        20.00000                 :Mud Sample temperature (RM)
MW.LB/G         11.00000                 :Mud Weight (RM)
SHT.DEGC        20.00000                 :Surface Hole Temperature (RM)
BSAL .PPM     3300.00000                 :Mud Salinity
MRT  .DEGC     67.00000                  :Maximum Recorded Temperature
MCST .DEGC      20.00000                 :Mud Cake Sample Temperature
RMCS .OHMM       4.50000                 :Resistivity of Mud Cake Sample
MFST .DEGC      20.00000                 :Mud Filtrate Sample Temperature
RMFS .OHMM       2.25000                 :Resistivity of Mud Filtrate Sample
MSS  .        Mud Pit                    :Mud Sample Source
MFSS  .       Mud Pit                    :Mud Filtrate Sample Source
MCSS  .       Mud Pit                    :Mud Cake Sample Source
TCS  .         16:00                     :End Log Time
DCS  .         2-Dec-2006                :End Log Date
DFT  .        WBM                        :Drilling Fluid Type
DFPH .           N/A                     :Drilling Fluid PH
DFV  .S       45.00000                   :Drilling Fluid Viscosity
DFD  .LB/G    11.000000                  :Drilling Fluid Density
DOWR .        71/29                      :Oil/Water Ratio
TLAB .        05:00                      :Begin Log Time
DLAB .        2-Dec-2006                 :Begin Log Date
RUN  .        1                          :Run Number
BLI  .M       500.00000                  :Bottom Log Interval
TLI  .M       120.00000                  :Top Log Interval
WITN .        Mr Lindsay                 :Witness's Name
ENGI .        Hatim/Victor/Harsh         :Engineer's Name
LUL  .        Zone 2                     :Logging Unit Location
LUN  .        OLU-KC-0103                :Logging Unit Number
RR2  .        ARC6 Resistivity is environmentally corrected for mud resistivity and bit size. :Remark Line 2
RR1  .        GR is corrected for bit size, tool size and mud weight               :Remark Line 1
PDAT .        Lowest Astronomical Tide   :Permanent Datum
EPD  .M          0.00000                 :Elevation of Permanent Datum
DMF  .        Driller's Depth            :Drilling Measured From
LMF  .        Drill Floor                :Log Measured From
APD  .M         25.60000                 :Above Permanent Datum
EDF  .M         25.60000                 :Elevation of Derrick Floor
EGL  .M        -79.80000                 :Elevation of Ground Level
EKB  .M         25.60000                 :Elevation of Kelly Bushing
TDL  .M        505.00000                 :Total Depth - Logger
TDD  .M        505.00000                 :Total Depth - Driller
MHD  .DEG        0.09000                 :Maximum Hole Deviation
AMD  .DEG      63.350000                 :Azimuth of Maximum Hole Deviation
BS   .IN         8.50                    :Bit Size
BSDT .M        505.00000                 :Bit Size Depth To
BSDF .M        105.00000                 :Bit Size Depth From
#-----------------------------------------------------------------------------                   
#
~Curve Information Block
#MNEM.UNIT                     : Curve Description
#---------                     --------------------
TIME	    .HHMMSS	       : 
DATE	    .D		       : 
RM_DEPTH    .M                 : LWDRM 1HZ River Depth                                           
ECD_ARC     .LB/G              : Equivalent Circulating Density                                  
APRS_ARC    .PSI               : ARC Annular Pressure                                            
ATMP        .DEGC              : ARC Annular Temperature                                         
#
~Parameter Information Block
#MNEM.UNIT                       Value:Description
#__________________________________________________________
#
~Other Information Block

#
~A TIME       DATE   RM_DEPTH    ECD_ARC   APRS_ARC       ATMP
# ...
07:45:56 02-Dec-06     217.70      11.02     364.00      35.00
07:46:06 02-Dec-06     217.87      11.00     364.00      35.00
07:46:16 02-Dec-06     218.04      11.08     366.00      35.00
07:46:26 02-Dec-06     218.21      10.97     364.00      35.00
07:46:36 02-Dec-06     218.36      11.00     365.00      35.00
07:46:46 02-Dec-06     218.51      10.99     365.00      35.00
07:46:56 02-Dec-06     218.66      10.98     365.00      35.00
07:47:06 02-Dec-06     218.80      10.97     365.00      35.00
07:47:16 02-Dec-06     218.95      10.95     365.00      35.00
07:47:26 02-Dec-06     219.08      10.94     365.00      35.00
07:47:36 02-Dec-06     219.21      10.93     365.00      35.00
07:47:46 02-Dec-06     219.32      10.97     366.00      35.00
07:47:56 02-Dec-06     219.44      10.91     365.00      35.00
07:48:06 02-Dec-06     219.57      10.95     366.00      35.00
07:48:16 02-Dec-06     219.68      10.94     366.00      35.00
07:48:26 02-Dec-06     219.82      10.97     367.00      35.00
07:48:36 02-Dec-06     219.93      10.92     366.00      35.00
07:48:46 02-Dec-06     220.07      10.95     367.00      35.00
07:48:56 02-Dec-06     220.20      10.94     367.00      35.00
07:49:06 02-Dec-06     220.36      11.02     369.00      35.00
07:49:16 02-Dec-06     220.51      11.05     370.00      35.00
07:49:26 02-Dec-06     220.66      10.99     369.00      35.00
07:49:36 02-Dec-06     220.83      10.98     369.00      35.00
07:49:46 02-Dec-06     221.01      11.09     372.00      35.00
07:49:56 02-Dec-06     221.19      11.03     371.00      35.00
07:50:06 02-Dec-06     221.38      11.11     373.00      35.00
07:50:16 02-Dec-06     221.54      11.22     376.00      35.00
07:50:26 02-Dec-06     221.73      11.08     373.00      35.00
07:50:36 02-Dec-06     221.89      11.06     373.00      35.00
07:50:46 02-Dec-06     222.05      11.14     375.00      35.00
07:50:56 02-Dec-06     222.19      11.13     375.00      35.00
07:51:06 02-Dec-06     222.34      11.11     375.00      35.00
07:51:16 02-Dec-06     222.47      11.06     374.00      35.00
07:51:26 02-Dec-06     222.61      11.05     374.00      35.00
07:51:36 02-Dec-06     222.75      11.08     375.00      35.00
07:51:46 02-Dec-06     222.89      11.07     375.00      35.00
07:51:56 02-Dec-06     223.01      11.06     375.00      35.00
07:52:06 02-Dec-06     223.16      11.05     375.00      35.00
07:52:16 02-Dec-06     223.59      11.01     375.00      35.00
07:52:26 02-Dec-06     223.78      11.00     375.00      35.00
07:52:36 02-Dec-06     223.97      11.02     376.00      35.00
07:52:46 02-Dec-06     224.10      10.97     375.00      35.00
07:52:56 02-Dec-06     224.23      10.96     375.00      35.00
07:53:06 02-Dec-06     224.36      10.95     375.00      35.00
07:53:16 02-Dec-06     224.49      10.98     376.00      35.00
07:53:26 02-Dec-06     224.62      10.89     374.00      35.00
07:53:36 02-Dec-06     224.74      10.88     374.00      35.00
07:53:46 02-Dec-06     224.87      10.95     376.00      35.00
07:53:56 02-Dec-06     224.98      10.94     376.00      35.00
07:54:06 02-Dec-06     225.10      10.89     375.00      35.00
07:54:16 02-Dec-06     225.22      10.92     376.00      35.00
07:54:26 02-Dec-06     225.35      10.91     376.00      35.00
07:54:36 02-Dec-06     225.48      10.86     375.00      35.00
07:54:46 02-Dec-06     225.61      10.85     375.00      35.00
07:54:56 02-Dec-06     225.77      10.92     377.00      35.00
07:55:06 02-Dec-06     225.92      11.00     379.00      35.00
07:55:16 02-Dec-06     226.03      10.95     378.00      35.00
07:55:26 02-Dec-06     226.16      10.98     379.00      35.00
07:55:36 02-Dec-06     226.27      10.97     379.00      35.00
07:55:46 02-Dec-06     226.41      10.92     378.00      35.00
07:55:56 02-Dec-06     226.53      10.95     379.00      35.00
07:56:06 02-Dec-06     226.66      10.90     378.00      35.00
07:56:16 02-Dec-06     226.77      10.93     379.00      35.00
07:56:26 02-Dec-06     226.92      11.00     381.00      35.00
07:56:36 02-Dec-06     227.08      10.95     380.00      35.00
07:56:46 02-Dec-06     227.21      10.98     381.00      35.00
07:56:56 02-Dec-06     227.37      11.05     383.00      35.00
07:57:06 02-Dec-06     227.50      10.96     381.00      35.00
07:57:16 02-Dec-06     227.66      11.03     383.00      35.00
07:57:26 02-Dec-06     227.81      10.93     381.00      35.00
07:57:36 02-Dec-06     227.94      10.96     382.00      35.00
07:57:46 02-Dec-06     228.10      10.95     382.00      35.00
07:57:56 02-Dec-06     228.25      10.98     383.00      35.00
07:58:06 02-Dec-06     228.39      11.01     384.00      35.00
07:58:16 02-Dec-06     228.54      11.04     385.00      35.00
07:58:26 02-Dec-06     228.68      10.95     383.00      35.00
07:58:36 02-Dec-06     228.83      10.98     384.00      35.00
07:58:46 02-Dec-06     228.97      10.93     383.00      35.00
07:58:56 02-Dec-06     229.15      11.04     386.00      35.00
07:59:06 02-Dec-06     229.33      10.94     384.00      35.00
07:59:16 02-Dec-06     229.50      11.05     387.00      35.00
07:59:26 02-Dec-06     229.68      10.95     385.00      35.00
07:59:36 02-Dec-06     229.86      11.06     388.00      35.00
07:59:46 02-Dec-06     230.03      11.01     387.00      35.00
07:59:56 02-Dec-06     230.20      11.04     388.00      35.00
08:00:06 02-Dec-06     230.37      10.98     387.00      35.00
08:00:16 02-Dec-06     230.54      11.05     389.00      35.00
08:00:26 02-Dec-06     230.69      10.96     387.00      35.00
08:00:36 02-Dec-06     230.86      10.91     386.00      35.00
08:00:46 02-Dec-06     231.02      10.93     387.00      35.00
08:00:56 02-Dec-06     231.18      10.92     387.00      35.00
08:01:06 02-Dec-06     231.33      10.99     389.00      35.00
08:01:16 02-Dec-06     231.47      10.90     387.00      35.00
08:01:26 02-Dec-06     231.41      10.90     387.00      35.00
08:01:36 02-Dec-06     230.55      10.93     386.00      35.00
08:01:46 02-Dec-06     229.21      10.70     378.00      35.00
08:01:56 02-Dec-06     229.21      10.16     365.00      35.00
08:02:06 02-Dec-06     229.91       9.95     361.00      35.00
08:02:16 02-Dec-06     230.06       9.81     358.00      35.00
08:02:26 02-Dec-06     230.73       9.73     357.00      35.00
08:02:36 02-Dec-06     231.08       9.66     356.00      35.00
08:02:46 02-Dec-06     231.10       9.50     352.00      35.00
08:02:56 02-Dec-06     231.10       9.46     351.00      35.00
08:03:06 02-Dec-06     231.10       9.42     350.00      35.00
08:03:16 02-Dec-06     231.10       9.42     350.00      35.00
08:03:26 02-Dec-06     231.10       9.34     348.00      35.00
08:03:36 02-Dec-06     231.09       9.38     349.00      35.00
08:03:46 02-Dec-06     231.09       9.38     349.00      35.00
08:03:56 02-Dec-06     231.09       9.38     349.00      35.00
08:04:06 02-Dec-06     231.09       9.30     347.00      35.00
08:04:16 02-Dec-06     231.09       9.38     349.00      35.00
08:04:26 02-Dec-06     231.09       9.25     346.00      35.00
08:04:36 02-Dec-06     231.09       9.34     348.00      35.00
08:04:46 02-Dec-06     231.09       9.30     347.00      35.00
08:04:56 02-Dec-06     231.09       9.38     349.00      35.00
08:05:06 02-Dec-06     231.08       9.30     347.00      35.00
08:05:16 02-Dec-06     231.08       9.34     348.00      35.00
08:05:26 02-Dec-06     231.08       9.30     347.00      35.00
08:05:36 02-Dec-06     231.08       9.30     347.00      35.00
08:05:46 02-Dec-06     231.08       9.30     347.00      35.00
08:05:56 02-Dec-06     231.08       9.30     347.00      35.00
08:06:06 02-Dec-06     231.08       9.30     347.00      35.00
08:06:16 02-Dec-06     231.08       9.30     347.00      35.00
08:06:26 02-Dec-06     231.08       9.38     349.00      34.00
08:06:36 02-Dec-06     231.07       9.30     347.00      34.00
08:06:46 02-Dec-06     231.07       9.38     349.00      34.00
08:06:56 02-Dec-06     231.07       9.30     347.00      34.00
