~Version Information
VERS.             2.0 : CWLS log ASCII standard - Version 2.0
WRAP.             NO  : One line per depth step
#
~Well Information Block
#MNEM.UNIT                   Data Type:Information
#__________________________________________________________
STRT.           02-DEC-2006 06:00:00 : START INDEX                   
STOP.           02-DEC-2006 16:00:00 : STOP INDEX                    
STEP.SEC           10.0000 : STEP                          
NULL .          -999.25      :NULL VALUE
COMP .        Company      :COMPANY
WELL .        W2                  :WELL
FLD  .        Block                  :FIELD
LOC  .                                                 :LOCATION
CNTY .        Actinia                                  :COUNTY
STAT .        State                           :STATE
CTRY .                                                 :COUNTRY
JOB  .        06INM0159                                :Job NUMBER
UWI  .                                                 :UNIQUE WELL ID
DATE .        02-Dec-2006                              :LOG DATE {DD-MMM-YYYY}
SRVC .        Company                             :SERVICE COMPANY
LATI .DEG     16.276 N                                :LATITUDE
LONG .DEG     82.0962 E                                :LONGITUDE
GDAT .                                                 :GeoDetic Datum
SECT .        8.5 in                                   :Section
#-----------------------------------------------------------------------------
~PARAMETER INFORMATION
#MNEM.UNIT    VALUE                      DESCRIPTION
#---- -----   --------------------       ------------------------
TN1 .        PowerPulse                  :Tool Number 1
TN2 .        ARC                         :Tool Number 2
OS3  .          N/A                      :Other Services Line 3
OS2  .          InterACT                 :Other Services Line 2
OS1  .          Directional Surveys      :Other Services Line 1
MST  .DEGC      20.00000                 :Mud Sample Temperature
BHT  .DEGC      36.00000                 :Bottom Hole Temperature
RMS.OHMM         3.00000                 :Resistivity of Mud Sample (RM)
MST.DEGC        20.00000                 :Mud Sample temperature (RM)
MW.LB/G         11.00000                 :Mud Weight (RM)
SHT.DEGC        20.00000                 :Surface Hole Temperature (RM)
BSAL .PPM     3300.00000                 :Mud Salinity
MRT  .DEGC     67.00000                  :Maximum Recorded Temperature
MCST .DEGC      20.00000                 :Mud Cake Sample Temperature
RMCS .OHMM       4.50000                 :Resistivity of Mud Cake Sample
MFST .DEGC      20.00000                 :Mud Filtrate Sample Temperature
RMFS .OHMM       2.25000                 :Resistivity of Mud Filtrate Sample
MSS  .        Mud Pit                    :Mud Sample Source
MFSS  .       Mud Pit                    :Mud Filtrate Sample Source
MCSS  .       Mud Pit                    :Mud Cake Sample Source
TCS  .         16:00                     :End Log Time
DCS  .         2-Dec-2006                :End Log Date
DFT  .        WBM                        :Drilling Fluid Type
DFPH .           N/A                     :Drilling Fluid PH
DFV  .S       45.00000                   :Drilling Fluid Viscosity
DFD  .LB/G    11.000000                  :Drilling Fluid Density
DOWR .        71/29                      :Oil/Water Ratio
TLAB .        05:00                      :Begin Log Time
DLAB .        2-Dec-2006                 :Begin Log Date
RUN  .        1                          :Run Number
BLI  .M       500.00000                  :Bottom Log Interval
TLI  .M       120.00000                  :Top Log Interval
WITN .        Mr Lindsay                 :Witness's Name
ENGI .        Hatim/Victor/Harsh         :Engineer's Name
LUL  .        Zone 2                     :Logging Unit Location
LUN  .        OLU-KC-0103                :Logging Unit Number
RR2  .        ARC6 Resistivity is environmentally corrected for mud resistivity and bit size. :Remark Line 2
RR1  .        GR is corrected for bit size, tool size and mud weight               :Remark Line 1
PDAT .        Lowest Astronomical Tide   :Permanent Datum
EPD  .M          0.00000                 :Elevation of Permanent Datum
DMF  .        Driller's Depth            :Drilling Measured From
LMF  .        Drill Floor                :Log Measured From
APD  .M         25.60000                 :Above Permanent Datum
EDF  .M         25.60000                 :Elevation of Derrick Floor
EGL  .M        -79.80000                 :Elevation of Ground Level
EKB  .M         25.60000                 :Elevation of Kelly Bushing
TDL  .M        505.00000                 :Total Depth - Logger
TDD  .M        505.00000                 :Total Depth - Driller
MHD  .DEG        0.09000                 :Maximum Hole Deviation
AMD  .DEG      63.350000                 :Azimuth of Maximum Hole Deviation
BS   .IN         8.50                    :Bit Size
BSDT .M        505.00000                 :Bit Size Depth To
BSDF .M        105.00000                 :Bit Size Depth From
#-----------------------------------------------------------------------------                   
#
~Curve Information Block
#MNEM.UNIT                     : Curve Description
#---------                     --------------------
TIME	    .HHMMSS	       : 
DATE	    .D		       : 
RM_DEPTH    .M                 : LWDRM 1HZ River Depth                                           
ECD_ARC     .LB/G              : Equivalent Circulating Density                                  
APRS_ARC    .PSI               : ARC Annular Pressure                                            
ATMP        .DEGC              : ARC Annular Temperature                                         
#
~Parameter Information Block
#MNEM.UNIT                       Value:Description
#__________________________________________________________
#
~Other Information Block

#
~A TIME       DATE   RM_DEPTH    ECD_ARC   APRS_ARC       ATMP
# ...
15:31:36 02-Dec-06     492.19      12.53     984.02      36.00
15:31:46 02-Dec-06     493.53      12.88    1011.00      36.00
15:31:56 02-Dec-06     493.99      11.83     938.98      36.00
15:32:06 02-Dec-06     493.99      11.54     919.00      36.00
15:32:16 02-Dec-06     493.99      11.40     909.00      36.00
15:32:26 02-Dec-06     493.99      11.28     900.99      36.00
15:32:36 02-Dec-06     493.99      11.18     894.00      36.00
15:32:46 02-Dec-06     493.99      11.14     891.00      36.00
15:32:56 02-Dec-06     493.99      11.08     887.00      36.00
15:33:06 02-Dec-06     493.99      11.11     889.00      36.00
15:33:16 02-Dec-06     493.99      11.06     886.00      36.00
15:33:26 02-Dec-06     493.99      11.01     882.00      36.00
15:33:36 02-Dec-06     493.99      10.98     880.00      36.00
15:33:46 02-Dec-06     493.99      10.92     876.00      36.00
15:33:56 02-Dec-06     493.99      10.88     873.00      36.00
15:34:06 02-Dec-06     493.99      10.86     872.00      36.00
15:34:16 02-Dec-06     493.99      10.83     870.00      36.00
15:34:26 02-Dec-06     493.99      10.80     868.00      36.00
15:34:36 02-Dec-06     493.99      10.78     866.00      36.00
15:34:46 02-Dec-06     493.99      10.78     866.00      36.00
15:34:56 02-Dec-06     493.99      10.75     864.00      36.00
15:35:06 02-Dec-06     493.99      10.75     864.00      36.00
15:35:16 02-Dec-06     493.99      10.72     862.00      36.00
15:35:26 02-Dec-06     493.99      10.72     862.00      36.00
15:35:36 02-Dec-06     493.99      10.70     861.00      36.00
15:35:46 02-Dec-06     493.99      10.70     861.00      36.00
15:35:56 02-Dec-06     493.99      10.70     861.00      36.00
15:36:06 02-Dec-06     493.99      10.67     859.00      36.00
15:36:16 02-Dec-06     493.99      10.69     860.00      36.00
15:36:26 02-Dec-06     493.98      10.67     859.00      36.00
15:36:36 02-Dec-06     493.93      10.70     861.00      36.00
15:36:46 02-Dec-06     493.17      10.78     865.00      36.00
15:36:56 02-Dec-06     493.30      10.88     872.00      36.00
15:37:06 02-Dec-06     493.65      10.96     878.00      36.00
15:37:16 02-Dec-06     494.08      11.26     900.00      36.00
15:37:26 02-Dec-06     494.11      12.39     978.01      36.00
15:37:36 02-Dec-06     494.12      12.49     985.00      35.00
15:37:46 02-Dec-06     494.12      12.50     985.99      35.00
15:37:56 02-Dec-06     494.13      12.39     978.00      35.00
15:38:06 02-Dec-06     494.14      12.43     981.00      36.00
15:38:16 02-Dec-06     494.14      12.36     976.00      36.00
15:38:26 02-Dec-06     494.21      12.43     981.00      36.00
15:38:36 02-Dec-06     494.30      12.34     975.01      36.00
15:38:46 02-Dec-06     494.35      12.52     988.00      36.00
15:38:56 02-Dec-06     494.40      12.41     980.00      36.00
15:39:06 02-Dec-06     494.48      12.58     992.00      36.00
15:39:16 02-Dec-06     494.48      12.62     995.00      36.00
15:39:26 02-Dec-06     494.50      12.64     996.00      35.00
15:39:36 02-Dec-06     494.55      12.61     994.00      35.00
15:39:46 02-Dec-06     494.70      12.57     992.00      35.00
15:39:56 02-Dec-06     494.72      12.59     993.00      35.00
15:40:06 02-Dec-06     494.81      12.63     996.00      35.00
15:40:16 02-Dec-06     494.84      12.54     990.00      35.00
15:40:26 02-Dec-06     494.94      12.62     996.00      35.00
15:40:36 02-Dec-06     494.97      12.62     996.00      35.00
15:40:46 02-Dec-06     495.05      12.56     992.00      35.00
15:40:56 02-Dec-06     495.08      12.59     994.00      35.00
15:41:06 02-Dec-06     495.11      12.62     996.00      35.00
15:41:16 02-Dec-06     495.17      12.57     993.00      35.00
15:41:26 02-Dec-06     495.20      12.59     994.00      35.00
15:41:36 02-Dec-06     495.25      12.63     997.00      35.00
15:41:46 02-Dec-06     495.27      12.63     997.00      35.00
15:41:56 02-Dec-06     495.35      12.68    1001.00      35.00
15:42:06 02-Dec-06     495.44      12.68    1001.00      35.00
15:42:16 02-Dec-06     495.52      12.78    1008.00      35.00
15:42:26 02-Dec-06     495.55      12.75    1005.99      35.00
15:42:36 02-Dec-06     495.57      12.65     999.00      35.00
15:42:46 02-Dec-06     495.66      12.67    1001.00      35.00
15:42:56 02-Dec-06     495.79      12.64     999.00      35.00
15:43:06 02-Dec-06     495.89      12.74    1006.00      35.00
15:43:16 02-Dec-06     495.97      12.73    1006.00      35.00
15:43:26 02-Dec-06     496.07      12.77    1009.00      35.00
15:43:36 02-Dec-06     496.19      12.73    1006.00      35.00
15:43:46 02-Dec-06     496.31      12.74    1007.00      35.00
15:43:56 02-Dec-06     496.42      12.75    1008.00      35.00
15:44:06 02-Dec-06     496.56      12.86    1016.00      35.00
15:44:16 02-Dec-06     496.65      12.86    1016.00      35.00
15:44:26 02-Dec-06     496.69      12.91    1019.99      35.00
15:44:36 02-Dec-06     496.76      12.80    1012.00      35.00
15:44:46 02-Dec-06     496.82      12.86    1017.00      35.00
15:44:56 02-Dec-06     496.91      12.75    1009.00      35.00
15:45:06 02-Dec-06     496.96      12.69    1005.00      35.00
15:45:16 02-Dec-06     496.98      12.64    1002.00      35.00
15:45:26 02-Dec-06     497.01      12.57     997.00      35.00
15:45:36 02-Dec-06     497.03      12.51     993.00      35.00
15:45:46 02-Dec-06     497.07      12.46     989.00      35.00
15:45:56 02-Dec-06     497.15      12.42     987.00      35.00
15:46:06 02-Dec-06     497.22      12.51     993.00      35.00
15:46:16 02-Dec-06     497.27      12.54     995.00      35.00
15:46:26 02-Dec-06     497.34      12.53     995.00      35.00
15:46:36 02-Dec-06     497.37      12.52     994.00      35.00
15:46:46 02-Dec-06     497.48      12.59     999.00      35.00
15:46:56 02-Dec-06     497.54      12.61    1001.00      35.00
15:47:06 02-Dec-06     497.65      12.70    1007.00      35.00
15:47:16 02-Dec-06     497.67      12.65    1004.00      35.00
15:47:26 02-Dec-06     497.78      12.63    1003.00      35.00
15:47:36 02-Dec-06     497.86      12.60    1001.00      35.00
15:47:46 02-Dec-06     498.00      12.66    1005.00      35.00
15:47:56 02-Dec-06     498.12      12.62    1003.00      35.00
15:48:06 02-Dec-06     498.29      12.68    1007.00      35.00
15:48:16 02-Dec-06     498.42      12.67    1007.00      35.00
15:48:26 02-Dec-06     498.52      12.67    1007.00      35.00
15:48:36 02-Dec-06     498.64      12.88    1021.99      35.00
15:48:46 02-Dec-06     498.76      12.70    1010.00      35.00
15:48:56 02-Dec-06     498.93      12.74    1013.00      35.00
15:49:06 02-Dec-06     499.00      12.68    1009.01      35.00
15:49:16 02-Dec-06     499.14      12.81    1018.00      35.00
15:49:26 02-Dec-06     499.25      12.70    1011.01      35.00
15:49:36 02-Dec-06     499.43      12.94    1028.00      35.00
15:49:46 02-Dec-06     499.50      12.87    1023.00      35.00
15:49:56 02-Dec-06     499.70      12.85    1022.00      35.00
15:50:06 02-Dec-06     499.75      12.76    1016.00      35.00
15:50:16 02-Dec-06     499.94      13.05    1036.99      35.00
15:50:26 02-Dec-06     499.96      12.85    1023.00      35.00
15:50:36 02-Dec-06     500.02      12.82    1021.00      35.00
15:50:46 02-Dec-06     500.14      12.83    1022.00      35.00
15:50:56 02-Dec-06     500.30      12.76    1017.00      35.00
15:51:06 02-Dec-06     500.39      12.74    1016.01      35.00
15:51:16 02-Dec-06     500.59      12.89    1027.00      35.00
15:51:26 02-Dec-06     500.69      12.89    1027.00      35.00
15:51:36 02-Dec-06     500.86      12.80    1021.01      35.00
15:51:46 02-Dec-06     500.97      12.89    1028.00      35.00
15:51:56 02-Dec-06     501.08      12.76    1019.00      35.00
15:52:06 02-Dec-06     501.24      12.84    1025.00      35.00
15:52:16 02-Dec-06     501.32      12.80    1022.00      35.00
15:52:26 02-Dec-06     501.49      12.88    1028.00      35.00
15:52:36 02-Dec-06     501.58      12.87    1028.00      35.00
