~Version Information
VERS.             2.0 : CWLS log ASCII standard - Version 2.0
WRAP.             NO  : One line per depth step
#
~Well Information Block
#MNEM.UNIT                   Data Type:Information
#__________________________________________________________
STRT.           02-DEC-2006 06:00:00 : START INDEX                   
STOP.           02-DEC-2006 16:00:00 : STOP INDEX                    
STEP.SEC           10.0000 : STEP                          
NULL .          -999.25      :NULL VALUE
COMP .        Company      :COMPANY
WELL .        W2                  :WELL
FLD  .        Block                  :FIELD
LOC  .                                                 :LOCATION
CNTY .        Actinia                                  :COUNTY
STAT .        State                           :STATE
CTRY .                                                 :COUNTRY
JOB  .        06INM0159                                :Job NUMBER
UWI  .                                                 :UNIQUE WELL ID
DATE .        02-Dec-2006                              :LOG DATE {DD-MMM-YYYY}
SRVC .        Company                             :SERVICE COMPANY
LATI .DEG     16.276 N                                :LATITUDE
LONG .DEG     82.0962 E                                :LONGITUDE
GDAT .                                                 :GeoDetic Datum
SECT .        8.5 in                                   :Section
#-----------------------------------------------------------------------------
~PARAMETER INFORMATION
#MNEM.UNIT    VALUE                      DESCRIPTION
#---- -----   --------------------       ------------------------
TN1 .        PowerPulse                  :Tool Number 1
TN2 .        ARC                         :Tool Number 2
OS3  .          N/A                      :Other Services Line 3
OS2  .          InterACT                 :Other Services Line 2
OS1  .          Directional Surveys      :Other Services Line 1
MST  .DEGC      20.00000                 :Mud Sample Temperature
BHT  .DEGC      36.00000                 :Bottom Hole Temperature
RMS.OHMM         3.00000                 :Resistivity of Mud Sample (RM)
MST.DEGC        20.00000                 :Mud Sample temperature (RM)
MW.LB/G         11.00000                 :Mud Weight (RM)
SHT.DEGC        20.00000                 :Surface Hole Temperature (RM)
BSAL .PPM     3300.00000                 :Mud Salinity
MRT  .DEGC     67.00000                  :Maximum Recorded Temperature
MCST .DEGC      20.00000                 :Mud Cake Sample Temperature
RMCS .OHMM       4.50000                 :Resistivity of Mud Cake Sample
MFST .DEGC      20.00000                 :Mud Filtrate Sample Temperature
RMFS .OHMM       2.25000                 :Resistivity of Mud Filtrate Sample
MSS  .        Mud Pit                    :Mud Sample Source
MFSS  .       Mud Pit                    :Mud Filtrate Sample Source
MCSS  .       Mud Pit                    :Mud Cake Sample Source
TCS  .         16:00                     :End Log Time
DCS  .         2-Dec-2006                :End Log Date
DFT  .        WBM                        :Drilling Fluid Type
DFPH .           N/A                     :Drilling Fluid PH
DFV  .S       45.00000                   :Drilling Fluid Viscosity
DFD  .LB/G    11.000000                  :Drilling Fluid Density
DOWR .        71/29                      :Oil/Water Ratio
TLAB .        05:00                      :Begin Log Time
DLAB .        2-Dec-2006                 :Begin Log Date
RUN  .        1                          :Run Number
BLI  .M       500.00000                  :Bottom Log Interval
TLI  .M       120.00000                  :Top Log Interval
WITN .        Mr Lindsay                 :Witness's Name
ENGI .        Hatim/Victor/Harsh         :Engineer's Name
LUL  .        Zone 2                     :Logging Unit Location
LUN  .        OLU-KC-0103                :Logging Unit Number
RR2  .        ARC6 Resistivity is environmentally corrected for mud resistivity and bit size. :Remark Line 2
RR1  .        GR is corrected for bit size, tool size and mud weight               :Remark Line 1
PDAT .        Lowest Astronomical Tide   :Permanent Datum
EPD  .M          0.00000                 :Elevation of Permanent Datum
DMF  .        Driller's Depth            :Drilling Measured From
LMF  .        Drill Floor                :Log Measured From
APD  .M         25.60000                 :Above Permanent Datum
EDF  .M         25.60000                 :Elevation of Derrick Floor
EGL  .M        -79.80000                 :Elevation of Ground Level
EKB  .M         25.60000                 :Elevation of Kelly Bushing
TDL  .M        505.00000                 :Total Depth - Logger
TDD  .M        505.00000                 :Total Depth - Driller
MHD  .DEG        0.09000                 :Maximum Hole Deviation
AMD  .DEG      63.350000                 :Azimuth of Maximum Hole Deviation
BS   .IN         8.50                    :Bit Size
BSDT .M        505.00000                 :Bit Size Depth To
BSDF .M        105.00000                 :Bit Size Depth From
#-----------------------------------------------------------------------------                   
#
~Curve Information Block
#MNEM.UNIT                     : Curve Description
#---------                     --------------------
TIME	    .HHMMSS	       : 
DATE	    .D		       : 
RM_DEPTH    .M                 : LWDRM 1HZ River Depth                                           
ECD_ARC     .LB/G              : Equivalent Circulating Density                                  
APRS_ARC    .PSI               : ARC Annular Pressure                                            
ATMP        .DEGC              : ARC Annular Temperature                                         
#
~Parameter Information Block
#MNEM.UNIT                       Value:Description
#__________________________________________________________
#
~Other Information Block

#
~A TIME       DATE   RM_DEPTH    ECD_ARC   APRS_ARC       ATMP
# ...
06:42:26 02-Dec-06     173.53       9.78     263.00      37.00
06:42:36 02-Dec-06     173.65       9.70     262.00      37.00
06:42:46 02-Dec-06     173.78       9.76     263.00      37.00
06:42:56 02-Dec-06     173.92       9.81     264.00      37.00
06:43:06 02-Dec-06     174.07       9.79     264.00      37.00
06:43:16 02-Dec-06     174.15       9.78     264.00      37.00
06:43:26 02-Dec-06     174.16       9.78     264.00      37.00
06:43:36 02-Dec-06     174.10       9.79     264.00      37.00
06:43:46 02-Dec-06     173.10       9.76     262.00      37.00
06:43:56 02-Dec-06     171.57       9.73     259.00      37.00
06:44:06 02-Dec-06     169.90       9.64     255.00      37.00
06:44:16 02-Dec-06     168.19       9.56     251.00      37.00
06:44:26 02-Dec-06     166.58       9.53     248.00      37.00
06:44:36 02-Dec-06     165.80       9.40     245.00      37.00
06:44:46 02-Dec-06     166.15       9.43     246.00      37.00
06:44:56 02-Dec-06     166.66       9.45     247.00      37.00
06:45:06 02-Dec-06     167.15       9.46     248.00      37.00
06:45:16 02-Dec-06     167.73       9.47     249.00      37.00
06:45:26 02-Dec-06     168.34       9.40     249.00      37.00
06:45:36 02-Dec-06     168.98       9.32     249.00      37.00
06:45:46 02-Dec-06     170.84       9.33     252.00      37.00
06:45:56 02-Dec-06     172.76       9.46     257.00      37.00
06:46:06 02-Dec-06     173.71       9.49     259.00      37.00
06:46:16 02-Dec-06     173.77       9.62     261.00      37.00
06:46:26 02-Dec-06     173.00       9.57     259.00      37.00
06:46:36 02-Dec-06     173.46       9.38     257.00      37.00
06:46:46 02-Dec-06     173.86       9.41     258.00      37.00
06:46:56 02-Dec-06     173.86       9.41     258.00      37.00
06:47:06 02-Dec-06     173.86       9.34     257.00      37.00
06:47:16 02-Dec-06     173.86       9.34     257.00      37.00
06:47:26 02-Dec-06     173.86       9.41     258.00      37.00
06:47:36 02-Dec-06     173.86       9.47     259.00      37.00
06:47:46 02-Dec-06     173.86       9.54     260.00      37.00
06:47:56 02-Dec-06     173.86       9.68     262.00      37.00
06:48:06 02-Dec-06     173.86       9.75     263.00      36.00
06:48:16 02-Dec-06     173.86       9.81     264.00      36.00
06:48:26 02-Dec-06     173.86       9.68     262.00      36.00
06:48:36 02-Dec-06     173.86       9.61     261.00      36.00
06:48:46 02-Dec-06     173.86       9.47     259.00      36.00
06:48:56 02-Dec-06     173.86       9.34     257.00      36.00
06:49:06 02-Dec-06     173.86       9.27     256.00      36.00
06:49:16 02-Dec-06     173.86       9.14     254.00      36.00
06:49:26 02-Dec-06     173.86       9.14     254.00      36.00
06:49:36 02-Dec-06     173.86       9.00     252.00      36.00
06:49:46 02-Dec-06     173.86       8.93     251.00      36.00
06:49:56 02-Dec-06     173.86       8.86     250.00      36.00
06:50:06 02-Dec-06     173.86       8.86     250.00      36.00
06:50:16 02-Dec-06     173.86       8.86     250.00      36.00
06:50:26 02-Dec-06     173.86       8.86     250.00      36.00
06:50:36 02-Dec-06     173.86       8.86     250.00      36.00
06:50:46 02-Dec-06     173.86       8.86     250.00      36.00
06:50:56 02-Dec-06     173.86       8.86     250.00      36.00
06:51:06 02-Dec-06     173.86       8.86     250.00      36.00
06:51:16 02-Dec-06     173.86       8.86     250.00      36.00
06:51:26 02-Dec-06     173.86       8.86     250.00      36.00
06:51:36 02-Dec-06     173.85       8.87     250.00      36.00
06:51:46 02-Dec-06     173.16       8.87     249.00      36.00
06:51:56 02-Dec-06     173.44       8.77     248.00      36.00
06:52:06 02-Dec-06     173.74       8.88     250.00      36.00
06:52:16 02-Dec-06     173.93       9.06     253.00      36.00
06:52:26 02-Dec-06     174.12       9.45     259.00      36.00
06:52:36 02-Dec-06     174.28       9.56     261.00      36.00
06:52:46 02-Dec-06     174.53       9.67     263.00      36.00
06:52:56 02-Dec-06     174.76       9.71     264.00      36.00
06:53:06 02-Dec-06     175.02       9.95     268.00      36.00
06:53:16 02-Dec-06     175.29      10.12     271.00      36.00
06:53:26 02-Dec-06     175.56      10.16     272.00      36.00
06:53:36 02-Dec-06     175.79      10.06     271.00      36.00
06:53:46 02-Dec-06     175.99       9.98     270.00      36.00
06:53:56 02-Dec-06     176.17       9.89     269.00      36.00
06:54:06 02-Dec-06     176.34       9.74     267.00      36.00
06:54:16 02-Dec-06     176.49       9.66     266.00      36.00
06:54:26 02-Dec-06     176.66       9.70     267.00      36.00
06:54:36 02-Dec-06     176.83       9.62     266.00      36.00
06:54:46 02-Dec-06     177.01       9.53     265.00      36.00
06:54:56 02-Dec-06     177.20       9.58     266.00      36.00
06:55:06 02-Dec-06     177.39       9.56     266.00      36.00
06:55:16 02-Dec-06     177.58       9.54     266.00      36.00
06:55:26 02-Dec-06     177.74       9.59     267.00      36.00
06:55:36 02-Dec-06     177.91       9.63     268.00      36.00
06:55:46 02-Dec-06     178.08       9.62     268.00      36.00
06:55:56 02-Dec-06     178.25       9.60     268.00      36.00
06:56:06 02-Dec-06     178.43       9.58     268.00      36.00
06:56:16 02-Dec-06     178.60       9.56     268.00      36.00
06:56:26 02-Dec-06     178.77       9.67     270.00      36.00
06:56:36 02-Dec-06     178.92       9.66     270.00      36.00
06:56:46 02-Dec-06     179.09       9.70     271.00      36.00
06:56:56 02-Dec-06     179.25       9.69     271.00      37.00
06:57:06 02-Dec-06     179.47       9.60     270.00      37.00
06:57:16 02-Dec-06     179.68       9.70     272.00      37.00
06:57:26 02-Dec-06     179.91       9.74     273.00      37.00
06:57:36 02-Dec-06     180.11       9.79     274.00      37.00
06:57:46 02-Dec-06     180.27       9.77     274.00      37.00
06:57:56 02-Dec-06     180.46       9.75     274.00      37.00
06:58:06 02-Dec-06     180.62       9.79     275.00      37.00
06:58:16 02-Dec-06     180.81       9.90     277.00      37.00
06:58:26 02-Dec-06     180.98       9.88     277.00      37.00
06:58:36 02-Dec-06     181.13       9.87     277.00      37.00
06:58:46 02-Dec-06     181.30       9.91     278.00      37.00
06:58:56 02-Dec-06     181.43       9.90     278.00      37.00
06:59:06 02-Dec-06     181.58       9.82     277.00      37.00
06:59:16 02-Dec-06     181.72       9.80     277.00      37.00
06:59:26 02-Dec-06     181.89       9.85     278.00      37.00
06:59:36 02-Dec-06     182.04       9.90     279.00      37.00
06:59:46 02-Dec-06     182.19       9.88     279.00      37.00
06:59:56 02-Dec-06     182.35       9.86     279.00      37.00
07:00:06 02-Dec-06     182.50       9.91     280.00      37.00
07:00:16 02-Dec-06     182.64       9.96     281.00      37.00
07:00:26 02-Dec-06     182.80       9.94     281.00      37.00
07:00:36 02-Dec-06     182.96       9.92     281.00      37.00
07:00:46 02-Dec-06     183.11       9.91     281.00      37.00
07:00:56 02-Dec-06     183.28       9.95     282.00      37.00
07:01:06 02-Dec-06     183.43       9.94     282.00      37.00
07:01:16 02-Dec-06     183.60       9.98     283.00      37.00
07:01:26 02-Dec-06     183.76       9.96     283.00      37.00
07:01:36 02-Dec-06     183.93       9.95     283.00      37.00
07:01:46 02-Dec-06     184.10       9.99     284.00      37.00
07:01:56 02-Dec-06     184.27       9.97     284.00      37.00
07:02:06 02-Dec-06     184.43       9.95     284.00      37.00
07:02:16 02-Dec-06     184.59      10.00     285.00      37.00
07:02:26 02-Dec-06     184.77       9.98     285.00      37.00
07:02:36 02-Dec-06     184.94       9.96     285.00      37.00
07:02:46 02-Dec-06     185.11      10.01     286.00      37.00
07:02:56 02-Dec-06     185.27      10.05     287.00      37.00
07:03:06 02-Dec-06     185.43      10.03     287.00      37.00
07:03:16 02-Dec-06     185.59      10.14     289.00      37.00
07:03:26 02-Dec-06     185.75      10.12     289.00      37.00
