~Version Information
VERS.             2.0 : CWLS log ASCII standard - Version 2.0
WRAP.             NO  : One line per depth step
#
~Well Information Block
#MNEM.UNIT                   Data Type:Information
#__________________________________________________________
STRT.           02-DEC-2006 06:00:00 : START INDEX                   
STOP.           02-DEC-2006 16:00:00 : STOP INDEX                    
STEP.SEC           10.0000 : STEP                          
NULL .          -999.25      :NULL VALUE
COMP .        Company      :COMPANY
WELL .        W2                  :WELL
FLD  .        Block                  :FIELD
LOC  .                                                 :LOCATION
CNTY .        Actinia                                  :COUNTY
STAT .        State                           :STATE
CTRY .                                                 :COUNTRY
JOB  .        06INM0159                                :Job NUMBER
UWI  .                                                 :UNIQUE WELL ID
DATE .        02-Dec-2006                              :LOG DATE {DD-MMM-YYYY}
SRVC .        Company                             :SERVICE COMPANY
LATI .DEG     16.276 N                                :LATITUDE
LONG .DEG     82.0962 E                                :LONGITUDE
GDAT .                                                 :GeoDetic Datum
SECT .        8.5 in                                   :Section
#-----------------------------------------------------------------------------
~PARAMETER INFORMATION
#MNEM.UNIT    VALUE                      DESCRIPTION
#---- -----   --------------------       ------------------------
TN1 .        PowerPulse                  :Tool Number 1
TN2 .        ARC                         :Tool Number 2
OS3  .          N/A                      :Other Services Line 3
OS2  .          InterACT                 :Other Services Line 2
OS1  .          Directional Surveys      :Other Services Line 1
MST  .DEGC      20.00000                 :Mud Sample Temperature
BHT  .DEGC      36.00000                 :Bottom Hole Temperature
RMS.OHMM         3.00000                 :Resistivity of Mud Sample (RM)
MST.DEGC        20.00000                 :Mud Sample temperature (RM)
MW.LB/G         11.00000                 :Mud Weight (RM)
SHT.DEGC        20.00000                 :Surface Hole Temperature (RM)
BSAL .PPM     3300.00000                 :Mud Salinity
MRT  .DEGC     67.00000                  :Maximum Recorded Temperature
MCST .DEGC      20.00000                 :Mud Cake Sample Temperature
RMCS .OHMM       4.50000                 :Resistivity of Mud Cake Sample
MFST .DEGC      20.00000                 :Mud Filtrate Sample Temperature
RMFS .OHMM       2.25000                 :Resistivity of Mud Filtrate Sample
MSS  .        Mud Pit                    :Mud Sample Source
MFSS  .       Mud Pit                    :Mud Filtrate Sample Source
MCSS  .       Mud Pit                    :Mud Cake Sample Source
TCS  .         16:00                     :End Log Time
DCS  .         2-Dec-2006                :End Log Date
DFT  .        WBM                        :Drilling Fluid Type
DFPH .           N/A                     :Drilling Fluid PH
DFV  .S       45.00000                   :Drilling Fluid Viscosity
DFD  .LB/G    11.000000                  :Drilling Fluid Density
DOWR .        71/29                      :Oil/Water Ratio
TLAB .        05:00                      :Begin Log Time
DLAB .        2-Dec-2006                 :Begin Log Date
RUN  .        1                          :Run Number
BLI  .M       500.00000                  :Bottom Log Interval
TLI  .M       120.00000                  :Top Log Interval
WITN .        Mr Lindsay                 :Witness's Name
ENGI .        Hatim/Victor/Harsh         :Engineer's Name
LUL  .        Zone 2                     :Logging Unit Location
LUN  .        OLU-KC-0103                :Logging Unit Number
RR2  .        ARC6 Resistivity is environmentally corrected for mud resistivity and bit size. :Remark Line 2
RR1  .        GR is corrected for bit size, tool size and mud weight               :Remark Line 1
PDAT .        Lowest Astronomical Tide   :Permanent Datum
EPD  .M          0.00000                 :Elevation of Permanent Datum
DMF  .        Driller's Depth            :Drilling Measured From
LMF  .        Drill Floor                :Log Measured From
APD  .M         25.60000                 :Above Permanent Datum
EDF  .M         25.60000                 :Elevation of Derrick Floor
EGL  .M        -79.80000                 :Elevation of Ground Level
EKB  .M         25.60000                 :Elevation of Kelly Bushing
TDL  .M        505.00000                 :Total Depth - Logger
TDD  .M        505.00000                 :Total Depth - Driller
MHD  .DEG        0.09000                 :Maximum Hole Deviation
AMD  .DEG      63.350000                 :Azimuth of Maximum Hole Deviation
BS   .IN         8.50                    :Bit Size
BSDT .M        505.00000                 :Bit Size Depth To
BSDF .M        105.00000                 :Bit Size Depth From
#-----------------------------------------------------------------------------                   
#
~Curve Information Block
#MNEM.UNIT                     : Curve Description
#---------                     --------------------
TIME	    .HHMMSS	       : 
DATE	    .D		       : 
RM_DEPTH    .M                 : LWDRM 1HZ River Depth                                           
ECD_ARC     .LB/G              : Equivalent Circulating Density                                  
APRS_ARC    .PSI               : ARC Annular Pressure                                            
ATMP        .DEGC              : ARC Annular Temperature                                         
#
~Parameter Information Block
#MNEM.UNIT                       Value:Description
#__________________________________________________________
#
~Other Information Block

#
~A TIME       DATE   RM_DEPTH    ECD_ARC   APRS_ARC       ATMP
# ...
10:56:26 02-Dec-06     348.09      11.63     636.00      35.00
10:56:36 02-Dec-06     348.09      11.61     635.00      35.00
10:56:46 02-Dec-06     348.09      11.61     635.00      35.00
10:56:56 02-Dec-06     348.09      11.61     635.00      35.00
10:57:06 02-Dec-06     348.09      11.61     635.00      35.00
10:57:16 02-Dec-06     348.09      11.61     635.00      35.00
10:57:26 02-Dec-06     348.09      11.61     635.00      35.00
10:57:36 02-Dec-06     348.09      11.61     635.00      35.00
10:57:46 02-Dec-06     348.09      11.61     635.00      35.00
10:57:56 02-Dec-06     348.08      11.61     635.00      35.00
10:58:06 02-Dec-06     348.06      11.58     634.00      35.00
10:58:16 02-Dec-06     347.30      11.60     633.00      35.00
10:58:26 02-Dec-06     347.33      11.64     635.00      35.00
10:58:36 02-Dec-06     347.40      11.70     638.00      35.00
10:58:46 02-Dec-06     347.69      11.80     643.02      35.00
10:58:56 02-Dec-06     348.02      12.22     662.00      35.00
10:59:06 02-Dec-06     348.23      12.32     667.00      35.00
10:59:16 02-Dec-06     348.45      12.40     671.00      35.00
10:59:26 02-Dec-06     348.68      12.43     673.00      34.00
10:59:36 02-Dec-06     348.90      12.47     675.00      34.00
10:59:46 02-Dec-06     349.15      12.52     678.00      34.00
10:59:56 02-Dec-06     349.39      12.53     679.00      34.00
11:00:06 02-Dec-06     349.61      12.59     682.00      34.00
11:00:16 02-Dec-06     349.82      12.62     684.00      34.00
11:00:26 02-Dec-06     350.03      12.61     684.00      34.00
11:00:36 02-Dec-06     350.20      12.58     683.00      34.00
11:00:46 02-Dec-06     350.38      12.55     682.00      34.00
11:00:56 02-Dec-06     350.49      12.55     682.00      34.00
11:01:06 02-Dec-06     350.61      12.50     680.00      34.00
11:01:16 02-Dec-06     350.70      12.47     679.00      34.00
11:01:26 02-Dec-06     350.82      12.44     678.00      34.00
11:01:36 02-Dec-06     350.97      12.48     680.00      34.00
11:01:46 02-Dec-06     351.10      12.45     679.00      34.00
11:01:56 02-Dec-06     350.95      12.46     679.00      34.00
11:02:06 02-Dec-06     351.07      12.48     680.00      34.00
11:02:16 02-Dec-06     351.19      12.47     680.00      34.00
11:02:26 02-Dec-06     351.30      12.44     679.00      34.00
11:02:36 02-Dec-06     351.41      12.42     678.00      34.00
11:02:46 02-Dec-06     351.54      12.39     677.00      34.00
11:02:56 02-Dec-06     351.65      12.38     677.00      34.00
11:03:06 02-Dec-06     351.77      12.38     677.00      34.00
11:03:16 02-Dec-06     351.90      12.41     679.00      34.00
11:03:26 02-Dec-06     352.01      12.39     678.00      34.00
11:03:36 02-Dec-06     352.17      12.38     678.00      34.00
11:03:46 02-Dec-06     352.30      12.35     677.00      34.00
11:03:56 02-Dec-06     352.47      12.39     679.00      34.00
11:04:06 02-Dec-06     352.64      12.40     680.00      34.00
11:04:16 02-Dec-06     352.81      12.44     682.00      34.00
11:04:26 02-Dec-06     352.96      12.41     681.00      34.00
11:04:36 02-Dec-06     353.13      12.42     682.00      34.00
11:04:46 02-Dec-06     353.25      12.40     681.00      34.00
11:04:56 02-Dec-06     353.40      12.41     682.00      34.00
11:05:06 02-Dec-06     353.52      12.34     679.00      34.00
11:05:16 02-Dec-06     353.67      12.33     679.00      34.00
11:05:26 02-Dec-06     353.80      12.33     679.00      34.00
11:05:36 02-Dec-06     353.95      12.36     681.00      34.00
11:05:46 02-Dec-06     354.08      12.34     680.00      34.00
11:05:56 02-Dec-06     354.22      12.35     681.00      34.00
11:06:06 02-Dec-06     354.36      12.34     681.00      34.00
11:06:16 02-Dec-06     354.50      12.34     681.00      34.00
11:06:26 02-Dec-06     354.63      12.33     681.00      34.00
11:06:36 02-Dec-06     354.79      12.32     681.00      34.00
11:06:46 02-Dec-06     354.91      12.34     682.00      34.00
11:06:56 02-Dec-06     355.05      12.29     680.00      34.00
11:07:06 02-Dec-06     355.18      12.31     681.00      34.00
11:07:16 02-Dec-06     355.32      12.30     681.00      34.00
11:07:26 02-Dec-06     355.46      12.29     681.00      34.00
11:07:36 02-Dec-06     355.61      12.26     680.00      34.00
11:07:46 02-Dec-06     355.75      12.28     681.00      34.00
11:07:56 02-Dec-06     355.88      12.27     681.00      34.00
11:08:06 02-Dec-06     356.04      12.29     682.00      34.00
11:08:16 02-Dec-06     356.19      12.26     681.00      34.00
11:08:26 02-Dec-06     356.33      12.28     682.00      34.00
11:08:36 02-Dec-06     356.48      12.25     681.00      34.00
11:08:46 02-Dec-06     356.63      12.26     682.00      34.00
11:08:56 02-Dec-06     356.77      12.26     682.00      34.00
11:09:06 02-Dec-06     356.85      12.25     682.00      34.00
11:09:16 02-Dec-06     356.94      12.25     682.00      34.00
11:09:26 02-Dec-06     357.05      12.24     682.00      34.00
11:09:36 02-Dec-06     357.15      12.24     682.00      34.00
11:09:46 02-Dec-06     357.26      12.23     682.00      34.00
11:09:56 02-Dec-06     357.40      12.25     683.00      34.00
11:10:06 02-Dec-06     357.51      12.24     683.00      34.00
11:10:16 02-Dec-06     357.64      12.24     683.00      34.00
11:10:26 02-Dec-06     357.77      12.21     682.00      34.00
11:10:36 02-Dec-06     357.91      12.27     685.00      34.00
11:10:46 02-Dec-06     358.05      12.22     683.00      34.00
11:10:56 02-Dec-06     358.20      12.26     685.00      34.00
11:11:06 02-Dec-06     358.32      12.23     684.00      34.00
11:11:16 02-Dec-06     358.48      12.27     686.00      34.00
11:11:26 02-Dec-06     358.61      12.24     685.00      34.00
11:11:36 02-Dec-06     358.78      12.25     686.00      34.00
11:11:46 02-Dec-06     358.93      12.24     686.00      34.00
11:11:56 02-Dec-06     359.10      12.26     687.00      34.00
11:12:06 02-Dec-06     359.27      12.25     687.00      34.00
11:12:16 02-Dec-06     359.44      12.24     687.00      34.00
11:12:26 02-Dec-06     359.60      12.21     686.00      34.00
11:12:36 02-Dec-06     359.76      12.25     688.00      34.00
11:12:46 02-Dec-06     359.91      12.22     687.00      34.00
11:12:56 02-Dec-06     360.05      12.24     688.00      34.00
11:13:06 02-Dec-06     360.21      12.23     688.00      34.00
11:13:16 02-Dec-06     360.35      12.25     689.00      34.00
11:13:26 02-Dec-06     360.50      12.24     689.00      34.00
11:13:36 02-Dec-06     360.62      12.23     689.00      34.00
11:13:46 02-Dec-06     360.73      12.21     688.00      34.00
11:13:56 02-Dec-06     360.82      12.22     689.00      34.00
11:14:06 02-Dec-06     360.90      12.22     689.00      34.00
11:14:16 02-Dec-06     361.01      12.17     687.00      34.00
11:14:26 02-Dec-06     361.12      12.21     689.00      34.00
11:14:36 02-Dec-06     361.21      12.16     687.00      34.00
11:14:46 02-Dec-06     361.34      12.22     690.00      34.00
11:14:56 02-Dec-06     361.47      12.17     688.00      34.00
11:15:06 02-Dec-06     361.60      12.21     690.00      34.00
11:15:16 02-Dec-06     361.76      12.18     689.00      34.00
11:15:26 02-Dec-06     361.92      12.18     689.00      34.00
11:15:36 02-Dec-06     362.10      12.17     689.00      34.00
11:15:46 02-Dec-06     362.29      12.18     690.00      34.00
11:15:56 02-Dec-06     362.45      12.17     690.00      34.00
11:16:06 02-Dec-06     362.64      12.19     691.00      34.00
11:16:16 02-Dec-06     362.83      12.16     690.00      34.00
11:16:26 02-Dec-06     362.99      12.17     691.00      34.00
11:16:36 02-Dec-06     363.15      12.14     690.00      34.00
11:16:46 02-Dec-06     363.31      12.18     692.00      34.00
11:16:56 02-Dec-06     363.46      12.17     692.00      34.00
11:17:06 02-Dec-06     363.61      12.16     692.00      34.00
11:17:16 02-Dec-06     363.77      12.14     691.00      34.00
11:17:26 02-Dec-06     363.92      12.15     692.00      34.00
