~Version Information
VERS.             2.0 : CWLS log ASCII standard - Version 2.0
WRAP.             NO  : One line per depth step
#
~Well Information Block
#MNEM.UNIT                   Data Type:Information
#__________________________________________________________
STRT.           02-DEC-2006 06:00:00 : START INDEX                   
STOP.           02-DEC-2006 16:00:00 : STOP INDEX                    
STEP.SEC           10.0000 : STEP                          
NULL .          -999.25      :NULL VALUE
COMP .        Company      :COMPANY
WELL .        W2                  :WELL
FLD  .        Block                  :FIELD
LOC  .                                                 :LOCATION
CNTY .        Actinia                                  :COUNTY
STAT .        State                           :STATE
CTRY .                                                 :COUNTRY
JOB  .        06INM0159                                :Job NUMBER
UWI  .                                                 :UNIQUE WELL ID
DATE .        02-Dec-2006                              :LOG DATE {DD-MMM-YYYY}
SRVC .        Company                             :SERVICE COMPANY
LATI .DEG     16.276 N                                :LATITUDE
LONG .DEG     82.0962 E                                :LONGITUDE
GDAT .                                                 :GeoDetic Datum
SECT .        8.5 in                                   :Section
#-----------------------------------------------------------------------------
~PARAMETER INFORMATION
#MNEM.UNIT    VALUE                      DESCRIPTION
#---- -----   --------------------       ------------------------
TN1 .        PowerPulse                  :Tool Number 1
TN2 .        ARC                         :Tool Number 2
OS3  .          N/A                      :Other Services Line 3
OS2  .          InterACT                 :Other Services Line 2
OS1  .          Directional Surveys      :Other Services Line 1
MST  .DEGC      20.00000                 :Mud Sample Temperature
BHT  .DEGC      36.00000                 :Bottom Hole Temperature
RMS.OHMM         3.00000                 :Resistivity of Mud Sample (RM)
MST.DEGC        20.00000                 :Mud Sample temperature (RM)
MW.LB/G         11.00000                 :Mud Weight (RM)
SHT.DEGC        20.00000                 :Surface Hole Temperature (RM)
BSAL .PPM     3300.00000                 :Mud Salinity
MRT  .DEGC     67.00000                  :Maximum Recorded Temperature
MCST .DEGC      20.00000                 :Mud Cake Sample Temperature
RMCS .OHMM       4.50000                 :Resistivity of Mud Cake Sample
MFST .DEGC      20.00000                 :Mud Filtrate Sample Temperature
RMFS .OHMM       2.25000                 :Resistivity of Mud Filtrate Sample
MSS  .        Mud Pit                    :Mud Sample Source
MFSS  .       Mud Pit                    :Mud Filtrate Sample Source
MCSS  .       Mud Pit                    :Mud Cake Sample Source
TCS  .         16:00                     :End Log Time
DCS  .         2-Dec-2006                :End Log Date
DFT  .        WBM                        :Drilling Fluid Type
DFPH .           N/A                     :Drilling Fluid PH
DFV  .S       45.00000                   :Drilling Fluid Viscosity
DFD  .LB/G    11.000000                  :Drilling Fluid Density
DOWR .        71/29                      :Oil/Water Ratio
TLAB .        05:00                      :Begin Log Time
DLAB .        2-Dec-2006                 :Begin Log Date
RUN  .        1                          :Run Number
BLI  .M       500.00000                  :Bottom Log Interval
TLI  .M       120.00000                  :Top Log Interval
WITN .        Mr Lindsay                 :Witness's Name
ENGI .        Hatim/Victor/Harsh         :Engineer's Name
LUL  .        Zone 2                     :Logging Unit Location
LUN  .        OLU-KC-0103                :Logging Unit Number
RR2  .        ARC6 Resistivity is environmentally corrected for mud resistivity and bit size. :Remark Line 2
RR1  .        GR is corrected for bit size, tool size and mud weight               :Remark Line 1
PDAT .        Lowest Astronomical Tide   :Permanent Datum
EPD  .M          0.00000                 :Elevation of Permanent Datum
DMF  .        Driller's Depth            :Drilling Measured From
LMF  .        Drill Floor                :Log Measured From
APD  .M         25.60000                 :Above Permanent Datum
EDF  .M         25.60000                 :Elevation of Derrick Floor
EGL  .M        -79.80000                 :Elevation of Ground Level
EKB  .M         25.60000                 :Elevation of Kelly Bushing
TDL  .M        505.00000                 :Total Depth - Logger
TDD  .M        505.00000                 :Total Depth - Driller
MHD  .DEG        0.09000                 :Maximum Hole Deviation
AMD  .DEG      63.350000                 :Azimuth of Maximum Hole Deviation
BS   .IN         8.50                    :Bit Size
BSDT .M        505.00000                 :Bit Size Depth To
BSDF .M        105.00000                 :Bit Size Depth From
#-----------------------------------------------------------------------------                   
#
~Curve Information Block
#MNEM.UNIT                     : Curve Description
#---------                     --------------------
TIME	    .HHMMSS	       : 
DATE	    .D		       : 
RM_DEPTH    .M                 : LWDRM 1HZ River Depth                                           
ECD_ARC     .LB/G              : Equivalent Circulating Density                                  
APRS_ARC    .PSI               : ARC Annular Pressure                                            
ATMP        .DEGC              : ARC Annular Temperature                                         
#
~Parameter Information Block
#MNEM.UNIT                       Value:Description
#__________________________________________________________
#
~Other Information Block

#
~A TIME       DATE   RM_DEPTH    ECD_ARC   APRS_ARC       ATMP
# ...
09:10:36 02-Dec-06     276.55      11.75     498.00      34.00
09:10:46 02-Dec-06     276.73      11.76     499.00      34.00
09:10:56 02-Dec-06     276.88      11.76     499.00      34.00
09:11:06 02-Dec-06     277.02      11.75     499.00      34.00
09:11:16 02-Dec-06     277.15      11.74     499.00      34.00
09:11:26 02-Dec-06     277.28      11.70     498.00      34.00
09:11:36 02-Dec-06     277.30      11.70     498.00      34.00
09:11:46 02-Dec-06     277.35      11.66     497.00      34.00
09:11:56 02-Dec-06     277.52      11.72     499.00      34.00
09:12:06 02-Dec-06     277.67      11.71     499.00      34.00
09:12:16 02-Dec-06     277.83      11.73     500.00      34.00
09:12:26 02-Dec-06     277.99      11.72     500.00      33.00
09:12:36 02-Dec-06     278.15      11.74     501.00      33.00
09:12:46 02-Dec-06     278.28      11.73     501.00      33.00
09:12:56 02-Dec-06     278.42      11.75     502.00      33.00
09:13:06 02-Dec-06     278.57      11.71     501.00      33.00
09:13:16 02-Dec-06     278.71      11.70     501.00      33.00
09:13:26 02-Dec-06     278.85      11.73     502.00      33.00
09:13:36 02-Dec-06     279.00      11.72     502.00      33.00
09:13:46 02-Dec-06     279.15      11.68     501.00      33.00
09:13:56 02-Dec-06     279.30      11.73     503.00      33.00
09:14:06 02-Dec-06     279.43      11.69     502.00      33.00
09:14:16 02-Dec-06     279.59      11.71     503.00      33.00
09:14:26 02-Dec-06     279.73      11.67     502.00      33.00
09:14:36 02-Dec-06     279.88      11.66     502.00      33.00
09:14:46 02-Dec-06     280.00      11.66     502.00      33.00
09:14:56 02-Dec-06     280.13      11.68     503.00      33.00
09:15:06 02-Dec-06     280.25      11.70     504.00      33.00
09:15:16 02-Dec-06     280.42      11.72     505.00      33.00
09:15:26 02-Dec-06     280.57      11.71     505.00      33.00
09:15:36 02-Dec-06     280.70      11.67     504.00      33.00
09:15:46 02-Dec-06     280.83      11.73     506.00      33.00
09:15:56 02-Dec-06     280.95      11.69     505.00      33.00
09:16:06 02-Dec-06     281.09      11.71     506.00      33.00
09:16:16 02-Dec-06     281.22      11.67     505.00      33.00
09:16:26 02-Dec-06     281.41      11.69     506.00      33.00
09:16:36 02-Dec-06     281.59      11.68     506.00      33.00
09:16:46 02-Dec-06     281.79      11.76     509.00      33.00
09:16:56 02-Dec-06     281.97      11.75     509.00      33.00
09:17:06 02-Dec-06     282.17      11.74     509.00      33.00
09:17:16 02-Dec-06     282.35      11.76     510.00      33.00
09:17:26 02-Dec-06     282.52      11.75     510.00      33.00
09:17:36 02-Dec-06     282.63      11.80     512.00      33.00
09:17:46 02-Dec-06     282.75      11.85     514.00      34.00
09:17:56 02-Dec-06     282.85      11.88     515.00      34.00
09:18:06 02-Dec-06     282.92      11.93     517.00      34.00
09:18:16 02-Dec-06     282.94      11.78     512.00      34.00
09:18:26 02-Dec-06     282.96      11.78     512.00      34.00
09:18:36 02-Dec-06     282.98      11.78     512.00      35.00
09:18:46 02-Dec-06     283.00      11.81     513.00      35.00
09:18:56 02-Dec-06     283.02      11.84     514.00      35.00
09:19:06 02-Dec-06     283.07      11.86     515.00      35.00
09:19:16 02-Dec-06     283.14      11.86     515.00      35.00
09:19:26 02-Dec-06     283.21      11.88     516.00      36.00
09:19:36 02-Dec-06     283.26      11.79     513.00      36.00
09:19:46 02-Dec-06     283.30      11.76     512.00      36.00
09:19:56 02-Dec-06     283.36      11.82     514.00      36.00
09:20:06 02-Dec-06     283.43      11.84     515.00      36.00
09:20:16 02-Dec-06     283.52      11.93     518.00      36.00
09:20:26 02-Dec-06     283.59      11.95     519.00      36.00
09:20:36 02-Dec-06     283.66      12.04     522.00      36.00
09:20:46 02-Dec-06     283.76      12.03     522.00      36.00
09:20:56 02-Dec-06     283.84      12.03     522.00      36.00
09:21:06 02-Dec-06     283.93      11.99     521.00      36.00
09:21:16 02-Dec-06     284.04      11.98     521.00      36.00
09:21:26 02-Dec-06     284.17      12.04     523.00      35.00
09:21:36 02-Dec-06     284.32      12.00     522.00      35.00
09:21:46 02-Dec-06     284.47      11.99     522.00      35.00
09:21:56 02-Dec-06     284.64      12.01     523.00      35.00
09:22:06 02-Dec-06     284.81      12.06     525.00      35.00
09:22:16 02-Dec-06     284.88      12.02     524.00      35.00
09:22:26 02-Dec-06     284.89      11.99     523.00      35.00
09:22:36 02-Dec-06     284.97      11.96     522.00      35.00
09:22:46 02-Dec-06     285.14      11.92     521.00      35.00
09:22:56 02-Dec-06     285.32      12.00     524.00      35.00
09:23:06 02-Dec-06     285.51      11.92     522.00      35.00
09:23:16 02-Dec-06     285.69      12.03     526.00      35.00
09:23:26 02-Dec-06     285.86      11.99     525.00      35.00
09:23:36 02-Dec-06     286.04      12.07     528.00      35.00
09:23:46 02-Dec-06     286.19      12.00     526.00      35.00
09:23:56 02-Dec-06     286.36      12.02     527.00      35.00
09:24:06 02-Dec-06     286.53      12.01     527.00      35.00
09:24:16 02-Dec-06     286.69      12.00     527.00      35.00
09:24:26 02-Dec-06     286.85      11.99     527.00      34.00
09:24:36 02-Dec-06     287.01      12.01     528.00      34.00
09:24:46 02-Dec-06     287.17      12.03     529.00      34.00
09:24:56 02-Dec-06     287.32      12.05     530.00      34.00
09:25:06 02-Dec-06     287.46      12.04     530.00      34.00
09:25:16 02-Dec-06     287.59      12.06     531.00      34.00
09:25:26 02-Dec-06     287.73      12.00     529.00      34.00
09:25:36 02-Dec-06     287.87      11.99     529.00      34.00
09:25:46 02-Dec-06     288.01      12.01     530.00      34.00
09:25:56 02-Dec-06     288.16      12.03     531.00      34.00
09:26:06 02-Dec-06     288.30      11.99     530.00      34.00
09:26:16 02-Dec-06     288.43      12.01     531.00      34.00
09:26:26 02-Dec-06     288.58      12.01     531.00      34.00
09:26:36 02-Dec-06     288.73      12.00     531.00      34.00
09:26:46 02-Dec-06     288.87      11.99     531.00      34.00
09:26:56 02-Dec-06     289.01      12.01     532.00      34.00
09:27:06 02-Dec-06     289.15      12.00     532.00      34.00
09:27:16 02-Dec-06     289.29      11.99     532.00      34.00
09:27:26 02-Dec-06     289.44      11.98     532.00      34.00
09:27:36 02-Dec-06     289.52      12.12     537.00      34.00
09:27:46 02-Dec-06     289.53      11.95     531.00      34.00
09:27:56 02-Dec-06     289.04      11.95     530.00      34.00
09:28:06 02-Dec-06     288.10      11.89     526.00      34.00
09:28:16 02-Dec-06     287.24      11.85     523.00      34.00
09:28:26 02-Dec-06     287.09      11.95     526.00      34.00
09:28:36 02-Dec-06     287.76      11.94     527.00      34.00
09:28:46 02-Dec-06     288.65      11.74     521.99      34.00
09:28:56 02-Dec-06     289.18      11.45     513.00      34.00
09:29:06 02-Dec-06     289.24      11.38     511.00      34.00
09:29:16 02-Dec-06     289.25      11.27     507.00      34.00
09:29:26 02-Dec-06     289.35      11.26     507.00      34.00
09:29:36 02-Dec-06     289.46      11.20     505.00      34.00
09:29:46 02-Dec-06     289.53      11.14     503.00      34.00
09:29:56 02-Dec-06     289.53      11.08     501.00      34.00
09:30:06 02-Dec-06     289.53      11.05     500.00      34.00
09:30:16 02-Dec-06     289.53      11.05     500.00      34.00
09:30:26 02-Dec-06     289.53      11.05     500.00      34.00
09:30:36 02-Dec-06     289.53      10.99     498.00      34.00
09:30:46 02-Dec-06     289.53      10.99     498.00      34.00
09:30:56 02-Dec-06     289.53      10.93     496.00      34.00
09:31:06 02-Dec-06     289.53      10.93     496.00      34.00
09:31:16 02-Dec-06     289.53      10.93     496.00      34.00
09:31:26 02-Dec-06     289.53      10.96     497.00      34.00
09:31:36 02-Dec-06     289.53      10.93     496.00      34.00
