~Version Information
VERS.             2.0 : CWLS log ASCII standard - Version 2.0
WRAP.             NO  : One line per depth step
#
~Well Information Block
#MNEM.UNIT                   Data Type:Information
#__________________________________________________________
STRT.           02-DEC-2006 06:00:00 : START INDEX                   
STOP.           02-DEC-2006 16:00:00 : STOP INDEX                    
STEP.SEC           10.0000 : STEP                          
NULL .          -999.25      :NULL VALUE
COMP .        Company      :COMPANY
WELL .        W2                  :WELL
FLD  .        Block                  :FIELD
LOC  .                                                 :LOCATION
CNTY .        Actinia                                  :COUNTY
STAT .        State                           :STATE
CTRY .                                                 :COUNTRY
JOB  .        06INM0159                                :Job NUMBER
UWI  .                                                 :UNIQUE WELL ID
DATE .        02-Dec-2006                              :LOG DATE {DD-MMM-YYYY}
SRVC .        Company                             :SERVICE COMPANY
LATI .DEG     16.276 N                                :LATITUDE
LONG .DEG     82.0962 E                                :LONGITUDE
GDAT .                                                 :GeoDetic Datum
SECT .        8.5 in                                   :Section
#-----------------------------------------------------------------------------
~PARAMETER INFORMATION
#MNEM.UNIT    VALUE                      DESCRIPTION
#---- -----   --------------------       ------------------------
TN1 .        PowerPulse                  :Tool Number 1
TN2 .        ARC                         :Tool Number 2
OS3  .          N/A                      :Other Services Line 3
OS2  .          InterACT                 :Other Services Line 2
OS1  .          Directional Surveys      :Other Services Line 1
MST  .DEGC      20.00000                 :Mud Sample Temperature
BHT  .DEGC      36.00000                 :Bottom Hole Temperature
RMS.OHMM         3.00000                 :Resistivity of Mud Sample (RM)
MST.DEGC        20.00000                 :Mud Sample temperature (RM)
MW.LB/G         11.00000                 :Mud Weight (RM)
SHT.DEGC        20.00000                 :Surface Hole Temperature (RM)
BSAL .PPM     3300.00000                 :Mud Salinity
MRT  .DEGC     67.00000                  :Maximum Recorded Temperature
MCST .DEGC      20.00000                 :Mud Cake Sample Temperature
RMCS .OHMM       4.50000                 :Resistivity of Mud Cake Sample
MFST .DEGC      20.00000                 :Mud Filtrate Sample Temperature
RMFS .OHMM       2.25000                 :Resistivity of Mud Filtrate Sample
MSS  .        Mud Pit                    :Mud Sample Source
MFSS  .       Mud Pit                    :Mud Filtrate Sample Source
MCSS  .       Mud Pit                    :Mud Cake Sample Source
TCS  .         16:00                     :End Log Time
DCS  .         2-Dec-2006                :End Log Date
DFT  .        WBM                        :Drilling Fluid Type
DFPH .           N/A                     :Drilling Fluid PH
DFV  .S       45.00000                   :Drilling Fluid Viscosity
DFD  .LB/G    11.000000                  :Drilling Fluid Density
DOWR .        71/29                      :Oil/Water Ratio
TLAB .        05:00                      :Begin Log Time
DLAB .        2-Dec-2006                 :Begin Log Date
RUN  .        1                          :Run Number
BLI  .M       500.00000                  :Bottom Log Interval
TLI  .M       120.00000                  :Top Log Interval
WITN .        Mr Lindsay                 :Witness's Name
ENGI .        Hatim/Victor/Harsh         :Engineer's Name
LUL  .        Zone 2                     :Logging Unit Location
LUN  .        OLU-KC-0103                :Logging Unit Number
RR2  .        ARC6 Resistivity is environmentally corrected for mud resistivity and bit size. :Remark Line 2
RR1  .        GR is corrected for bit size, tool size and mud weight               :Remark Line 1
PDAT .        Lowest Astronomical Tide   :Permanent Datum
EPD  .M          0.00000                 :Elevation of Permanent Datum
DMF  .        Driller's Depth            :Drilling Measured From
LMF  .        Drill Floor                :Log Measured From
APD  .M         25.60000                 :Above Permanent Datum
EDF  .M         25.60000                 :Elevation of Derrick Floor
EGL  .M        -79.80000                 :Elevation of Ground Level
EKB  .M         25.60000                 :Elevation of Kelly Bushing
TDL  .M        505.00000                 :Total Depth - Logger
TDD  .M        505.00000                 :Total Depth - Driller
MHD  .DEG        0.09000                 :Maximum Hole Deviation
AMD  .DEG      63.350000                 :Azimuth of Maximum Hole Deviation
BS   .IN         8.50                    :Bit Size
BSDT .M        505.00000                 :Bit Size Depth To
BSDF .M        105.00000                 :Bit Size Depth From
#-----------------------------------------------------------------------------                   
#
~Curve Information Block
#MNEM.UNIT                     : Curve Description
#---------                     --------------------
TIME	    .HHMMSS	       : 
DATE	    .D		       : 
RM_DEPTH    .M                 : LWDRM 1HZ River Depth                                           
ECD_ARC     .LB/G              : Equivalent Circulating Density                                  
APRS_ARC    .PSI               : ARC Annular Pressure                                            
ATMP        .DEGC              : ARC Annular Temperature                                         
#
~Parameter Information Block
#MNEM.UNIT                       Value:Description
#__________________________________________________________
#
~Other Information Block

#
~A TIME       DATE   RM_DEPTH    ECD_ARC   APRS_ARC       ATMP
# ...
10:35:16 02-Dec-06     336.07      12.76     660.00      34.00
10:35:26 02-Dec-06     336.22      12.89     666.00      34.00
10:35:36 02-Dec-06     336.36      12.79     662.00      34.00
10:35:46 02-Dec-06     336.56      12.87     666.00      34.00
10:35:56 02-Dec-06     336.74      12.77     662.00      34.00
10:36:06 02-Dec-06     336.90      12.88     667.00      34.00
10:36:16 02-Dec-06     337.02      12.90     668.01      34.00
10:36:26 02-Dec-06     337.20      13.10     677.00      34.00
10:36:36 02-Dec-06     337.32      13.19     681.00      34.00
10:36:46 02-Dec-06     337.51      13.69     703.00      34.00
10:36:56 02-Dec-06     337.67      13.61     700.00      34.00
10:37:06 02-Dec-06     337.81      13.46     694.00      34.00
10:37:16 02-Dec-06     337.95      13.46     694.00      34.00
10:37:26 02-Dec-06     338.07      13.15     681.00      34.00
10:37:36 02-Dec-06     338.21      13.09     679.00      34.00
10:37:46 02-Dec-06     338.35      13.06     678.00      34.00
10:37:56 02-Dec-06     338.53      13.05     678.00      34.00
10:38:06 02-Dec-06     338.69      12.93     673.00      34.00
10:38:16 02-Dec-06     338.88      12.94     674.00      34.00
10:38:26 02-Dec-06     339.04      12.91     673.00      34.00
10:38:36 02-Dec-06     339.20      12.95     675.00      34.00
10:38:46 02-Dec-06     339.33      12.89     673.00      34.00
10:38:56 02-Dec-06     339.47      12.86     672.00      34.00
10:39:06 02-Dec-06     339.61      12.83     671.00      34.00
10:39:16 02-Dec-06     339.75      12.85     672.00      34.00
10:39:26 02-Dec-06     339.88      12.84     672.00      34.00
10:39:36 02-Dec-06     340.02      12.77     669.00      34.00
10:39:46 02-Dec-06     340.17      12.74     668.00      34.00
10:39:56 02-Dec-06     340.31      12.68     666.00      34.00
10:40:06 02-Dec-06     340.45      12.72     668.00      34.00
10:40:16 02-Dec-06     340.58      12.69     667.00      34.00
10:40:26 02-Dec-06     340.72      12.73     669.00      34.00
10:40:36 02-Dec-06     340.86      12.70     668.00      34.00
10:40:46 02-Dec-06     340.98      12.69     668.00      34.00
10:40:56 02-Dec-06     341.15      12.64     666.00      34.00
10:41:06 02-Dec-06     341.30      12.63     666.00      34.00
10:41:16 02-Dec-06     341.47      12.58     664.00      34.00
10:41:26 02-Dec-06     341.62      12.59     665.00      34.00
10:41:36 02-Dec-06     341.79      12.56     664.00      34.00
10:41:46 02-Dec-06     341.92      12.58     665.00      34.00
10:41:56 02-Dec-06     342.06      12.53     663.00      34.00
10:42:06 02-Dec-06     342.20      12.50     662.00      34.00
10:42:16 02-Dec-06     342.34      12.47     661.00      34.00
10:42:26 02-Dec-06     342.47      12.48     662.00      34.00
10:42:36 02-Dec-06     342.60      12.48     662.00      34.00
10:42:46 02-Dec-06     342.73      12.49     663.00      34.00
10:42:56 02-Dec-06     342.87      12.44     661.00      34.00
10:43:06 02-Dec-06     343.01      12.43     661.00      34.00
10:43:16 02-Dec-06     343.16      12.45     662.00      34.00
10:43:26 02-Dec-06     343.33      12.42     661.00      34.00
10:43:36 02-Dec-06     343.48      12.41     661.00      34.00
10:43:46 02-Dec-06     343.63      12.40     661.00      34.00
10:43:56 02-Dec-06     343.78      12.46     664.00      34.00
10:44:06 02-Dec-06     343.94      12.43     663.00      34.00
10:44:16 02-Dec-06     344.09      12.45     664.00      34.00
10:44:26 02-Dec-06     344.24      12.44     664.00      34.00
10:44:36 02-Dec-06     344.39      12.48     666.00      34.00
10:44:46 02-Dec-06     344.55      12.47     666.00      34.00
10:44:56 02-Dec-06     344.69      12.53     669.00      34.00
10:45:06 02-Dec-06     344.84      12.50     668.00      34.00
10:45:16 02-Dec-06     344.99      12.52     669.00      34.00
10:45:26 02-Dec-06     345.14      12.47     667.00      34.00
10:45:36 02-Dec-06     345.29      12.48     668.00      34.00
10:45:46 02-Dec-06     345.45      12.48     668.00      34.00
10:45:56 02-Dec-06     345.58      12.51     670.00      34.00
10:46:06 02-Dec-06     345.73      12.48     669.00      34.00
10:46:16 02-Dec-06     345.87      12.50     670.00      34.00
10:46:26 02-Dec-06     346.01      12.49     670.00      34.00
10:46:36 02-Dec-06     346.14      12.51     671.00      34.00
10:46:46 02-Dec-06     346.27      12.41     667.00      34.00
10:46:56 02-Dec-06     346.41      12.45     669.00      34.00
10:47:06 02-Dec-06     346.56      12.42     668.00      34.00
10:47:16 02-Dec-06     346.71      12.50     672.00      34.00
10:47:26 02-Dec-06     346.86      12.47     671.00      34.00
10:47:36 02-Dec-06     347.01      12.47     671.00      34.00
10:47:46 02-Dec-06     347.15      12.46     671.00      34.00
10:47:56 02-Dec-06     347.30      12.52     674.00      34.00
10:48:06 02-Dec-06     347.46      12.45     671.00      34.00
10:48:16 02-Dec-06     347.61      12.44     671.00      34.00
10:48:26 02-Dec-06     347.75      12.43     671.00      34.00
10:48:36 02-Dec-06     347.90      12.43     671.00      34.00
10:48:46 02-Dec-06     348.05      12.42     671.00      34.00
10:48:56 02-Dec-06     348.19      12.41     671.00      34.00
10:49:06 02-Dec-06     348.33      12.43     672.00      34.00
10:49:16 02-Dec-06     348.33      12.43     672.00      34.00
10:49:26 02-Dec-06     347.29      12.43     670.00      34.00
10:49:36 02-Dec-06     345.86      12.27     660.00      34.00
10:49:46 02-Dec-06     345.81      12.39     665.00      34.00
10:49:56 02-Dec-06     346.02      12.33     663.00      34.00
10:50:06 02-Dec-06     346.50      12.40     667.00      34.00
10:50:16 02-Dec-06     346.92      12.36     666.00      34.00
10:50:26 02-Dec-06     347.17      12.39     668.00      34.00
10:50:36 02-Dec-06     347.59      12.30     665.00      34.00
10:50:46 02-Dec-06     348.08      12.33     667.00      34.00
10:50:56 02-Dec-06     347.62      12.26     663.00      34.00
10:51:06 02-Dec-06     347.43      12.31     665.00      34.00
10:51:16 02-Dec-06     347.62      12.30     665.00      34.00
10:51:26 02-Dec-06     348.01      12.33     667.00      34.00
10:51:36 02-Dec-06     347.97      12.24     663.00      34.00
10:51:46 02-Dec-06     348.03      12.31     666.00      34.00
10:51:56 02-Dec-06     347.08      12.26     662.00      34.00
10:52:06 02-Dec-06     346.61      12.24     660.00      34.00
10:52:16 02-Dec-06     346.58      12.31     663.00      34.00
10:52:26 02-Dec-06     346.57      12.33     664.00      34.00
10:52:36 02-Dec-06     346.58      12.28     662.00      34.00
10:52:46 02-Dec-06     346.80      12.34     665.00      34.00
10:52:56 02-Dec-06     347.29      12.32     665.00      34.00
10:53:06 02-Dec-06     347.96      12.29     665.00      34.00
10:53:16 02-Dec-06     348.09      12.33     667.00      35.00
10:53:26 02-Dec-06     348.10      12.28     665.00      35.00
10:53:36 02-Dec-06     348.11      12.30     666.00      35.00
10:53:46 02-Dec-06     348.11      12.26     663.99      35.00
10:53:56 02-Dec-06     348.11      11.85     646.00      35.00
10:54:06 02-Dec-06     348.11      11.74     641.00      35.00
10:54:16 02-Dec-06     348.11      11.72     640.00      35.00
10:54:26 02-Dec-06     348.11      11.67     638.00      35.00
10:54:36 02-Dec-06     348.11      11.69     639.00      35.00
10:54:46 02-Dec-06     348.11      11.67     638.00      35.00
10:54:56 02-Dec-06     348.10      11.67     638.00      35.00
10:55:06 02-Dec-06     348.10      11.65     637.00      35.00
10:55:16 02-Dec-06     348.10      11.65     637.00      35.00
10:55:26 02-Dec-06     348.10      11.63     636.00      35.00
10:55:36 02-Dec-06     348.10      11.61     635.00      35.00
10:55:46 02-Dec-06     348.10      11.63     636.00      35.00
10:55:56 02-Dec-06     348.10      11.63     636.00      35.00
10:56:06 02-Dec-06     348.10      11.63     636.00      35.00
10:56:16 02-Dec-06     348.10      11.63     636.00      35.00
