~Version Information
VERS.             2.0 : CWLS log ASCII standard - Version 2.0
WRAP.             NO  : One line per depth step
#
~Well Information Block
#MNEM.UNIT                   Data Type:Information
#__________________________________________________________
STRT.           02-DEC-2006 06:00:00 : START INDEX                   
STOP.           02-DEC-2006 16:00:00 : STOP INDEX                    
STEP.SEC           10.0000 : STEP                          
NULL .          -999.25      :NULL VALUE
COMP .        Company      :COMPANY
WELL .        W2                  :WELL
FLD  .        Block                  :FIELD
LOC  .                                                 :LOCATION
CNTY .        Actinia                                  :COUNTY
STAT .        State                           :STATE
CTRY .                                                 :COUNTRY
JOB  .        06INM0159                                :Job NUMBER
UWI  .                                                 :UNIQUE WELL ID
DATE .        02-Dec-2006                              :LOG DATE {DD-MMM-YYYY}
SRVC .        Company                             :SERVICE COMPANY
LATI .DEG     16.276 N                                :LATITUDE
LONG .DEG     82.0962 E                                :LONGITUDE
GDAT .                                                 :GeoDetic Datum
SECT .        8.5 in                                   :Section
#-----------------------------------------------------------------------------
~PARAMETER INFORMATION
#MNEM.UNIT    VALUE                      DESCRIPTION
#---- -----   --------------------       ------------------------
TN1 .        PowerPulse                  :Tool Number 1
TN2 .        ARC                         :Tool Number 2
OS3  .          N/A                      :Other Services Line 3
OS2  .          InterACT                 :Other Services Line 2
OS1  .          Directional Surveys      :Other Services Line 1
MST  .DEGC      20.00000                 :Mud Sample Temperature
BHT  .DEGC      36.00000                 :Bottom Hole Temperature
RMS.OHMM         3.00000                 :Resistivity of Mud Sample (RM)
MST.DEGC        20.00000                 :Mud Sample temperature (RM)
MW.LB/G         11.00000                 :Mud Weight (RM)
SHT.DEGC        20.00000                 :Surface Hole Temperature (RM)
BSAL .PPM     3300.00000                 :Mud Salinity
MRT  .DEGC     67.00000                  :Maximum Recorded Temperature
MCST .DEGC      20.00000                 :Mud Cake Sample Temperature
RMCS .OHMM       4.50000                 :Resistivity of Mud Cake Sample
MFST .DEGC      20.00000                 :Mud Filtrate Sample Temperature
RMFS .OHMM       2.25000                 :Resistivity of Mud Filtrate Sample
MSS  .        Mud Pit                    :Mud Sample Source
MFSS  .       Mud Pit                    :Mud Filtrate Sample Source
MCSS  .       Mud Pit                    :Mud Cake Sample Source
TCS  .         16:00                     :End Log Time
DCS  .         2-Dec-2006                :End Log Date
DFT  .        WBM                        :Drilling Fluid Type
DFPH .           N/A                     :Drilling Fluid PH
DFV  .S       45.00000                   :Drilling Fluid Viscosity
DFD  .LB/G    11.000000                  :Drilling Fluid Density
DOWR .        71/29                      :Oil/Water Ratio
TLAB .        05:00                      :Begin Log Time
DLAB .        2-Dec-2006                 :Begin Log Date
RUN  .        1                          :Run Number
BLI  .M       500.00000                  :Bottom Log Interval
TLI  .M       120.00000                  :Top Log Interval
WITN .        Mr Lindsay                 :Witness's Name
ENGI .        Hatim/Victor/Harsh         :Engineer's Name
LUL  .        Zone 2                     :Logging Unit Location
LUN  .        OLU-KC-0103                :Logging Unit Number
RR2  .        ARC6 Resistivity is environmentally corrected for mud resistivity and bit size. :Remark Line 2
RR1  .        GR is corrected for bit size, tool size and mud weight               :Remark Line 1
PDAT .        Lowest Astronomical Tide   :Permanent Datum
EPD  .M          0.00000                 :Elevation of Permanent Datum
DMF  .        Driller's Depth            :Drilling Measured From
LMF  .        Drill Floor                :Log Measured From
APD  .M         25.60000                 :Above Permanent Datum
EDF  .M         25.60000                 :Elevation of Derrick Floor
EGL  .M        -79.80000                 :Elevation of Ground Level
EKB  .M         25.60000                 :Elevation of Kelly Bushing
TDL  .M        505.00000                 :Total Depth - Logger
TDD  .M        505.00000                 :Total Depth - Driller
MHD  .DEG        0.09000                 :Maximum Hole Deviation
AMD  .DEG      63.350000                 :Azimuth of Maximum Hole Deviation
BS   .IN         8.50                    :Bit Size
BSDT .M        505.00000                 :Bit Size Depth To
BSDF .M        105.00000                 :Bit Size Depth From
#-----------------------------------------------------------------------------                   
#
~Curve Information Block
#MNEM.UNIT                     : Curve Description
#---------                     --------------------
TIME	    .HHMMSS	       : 
DATE	    .D		       : 
RM_DEPTH    .M                 : LWDRM 1HZ River Depth                                           
ECD_ARC     .LB/G              : Equivalent Circulating Density                                  
APRS_ARC    .PSI               : ARC Annular Pressure                                            
ATMP        .DEGC              : ARC Annular Temperature                                         
#
~Parameter Information Block
#MNEM.UNIT                       Value:Description
#__________________________________________________________
#
~Other Information Block

#
~A TIME       DATE   RM_DEPTH    ECD_ARC   APRS_ARC       ATMP
# ...
13:45:46 02-Dec-06     439.46      12.06     843.00      40.00
13:45:56 02-Dec-06     439.61      12.09     845.00      40.00
13:46:06 02-Dec-06     439.80      12.13     848.00      40.00
13:46:16 02-Dec-06     439.93      12.08     845.03      40.00
13:46:26 02-Dec-06     440.06      12.62     878.00      40.00
13:46:36 02-Dec-06     440.13      12.47     869.00      40.00
13:46:46 02-Dec-06     440.24      12.55     874.00      40.00
13:46:56 02-Dec-06     440.30      12.43     867.00      40.00
13:47:06 02-Dec-06     440.42      11.96     839.01      40.00
13:47:16 02-Dec-06     440.51      12.11     848.00      40.00
13:47:26 02-Dec-06     440.61      11.97     840.00      41.00
13:47:36 02-Dec-06     440.74      11.83     832.00      41.00
13:47:46 02-Dec-06     440.88      11.68     823.00      41.00
13:47:56 02-Dec-06     441.03      11.54     815.00      41.00
13:48:06 02-Dec-06     441.14      11.56     816.00      41.00
13:48:16 02-Dec-06     441.27      11.67     823.00      41.00
13:48:26 02-Dec-06     441.38      11.63     821.00      41.00
13:48:36 02-Dec-06     441.51      11.64     822.00      41.00
13:48:46 02-Dec-06     441.62      11.52     815.00      41.00
13:48:56 02-Dec-06     441.76      11.54     816.00      41.00
13:49:06 02-Dec-06     441.93      11.46     812.00      41.00
13:49:16 02-Dec-06     442.06      11.66     824.00      42.00
13:49:26 02-Dec-06     442.23      12.30     863.00      42.00
13:49:36 02-Dec-06     442.33      12.08     850.00      42.00
13:49:46 02-Dec-06     442.51      12.01     846.00      42.00
13:49:56 02-Dec-06     442.65      11.85     837.00      42.00
13:50:06 02-Dec-06     442.84      11.65     825.00      42.00
13:50:16 02-Dec-06     442.97      11.56     820.00      42.00
13:50:26 02-Dec-06     443.13      11.46     814.00      42.00
13:50:36 02-Dec-06     443.23      11.47     815.00      42.00
13:50:46 02-Dec-06     443.34      11.48     816.00      42.00
13:50:56 02-Dec-06     443.42      11.45     814.00      42.00
13:51:06 02-Dec-06     443.54      11.41     812.00      42.00
13:51:16 02-Dec-06     443.67      11.41     812.00      42.00
13:51:26 02-Dec-06     443.75      11.41     812.00      42.00
13:51:36 02-Dec-06     443.84      11.44     814.00      43.00
13:51:46 02-Dec-06     443.99      11.55     821.00      43.00
13:51:56 02-Dec-06     444.17      11.77     835.00      43.00
13:52:06 02-Dec-06     444.29      11.90     843.01      43.00
13:52:16 02-Dec-06     444.46      12.01     850.00      43.00
13:52:26 02-Dec-06     444.52      12.02     851.00      43.00
13:52:36 02-Dec-06     444.63      12.33     870.00      43.00
13:52:46 02-Dec-06     444.67      12.51     881.00      43.00
13:52:56 02-Dec-06     444.81      12.62     888.00      43.00
13:53:06 02-Dec-06     444.87      12.55     884.00      43.00
13:53:16 02-Dec-06     444.95      12.48     880.00      43.00
13:53:26 02-Dec-06     444.98      12.45     878.00      43.00
13:53:36 02-Dec-06     445.05      12.46     879.00      43.00
13:53:46 02-Dec-06     445.07      12.43     877.00      43.00
13:53:56 02-Dec-06     445.09      12.46     879.00      43.00
13:54:06 02-Dec-06     445.19      13.03     914.00      43.00
13:54:16 02-Dec-06     445.21      12.74     896.00      43.00
13:54:26 02-Dec-06     445.30      12.67     892.00      43.00
13:54:36 02-Dec-06     445.34      12.60     888.00      43.00
13:54:46 02-Dec-06     445.43      12.53     884.00      43.00
13:54:56 02-Dec-06     445.50      12.58     887.00      43.00
13:55:06 02-Dec-06     445.66      12.43     878.00      43.00
13:55:16 02-Dec-06     445.70      12.33     872.00      43.00
13:55:26 02-Dec-06     445.85      12.42     877.99      43.00
13:55:36 02-Dec-06     445.88      12.25     868.00      43.00
13:55:46 02-Dec-06     445.99      12.50     883.00      43.00
13:55:56 02-Dec-06     446.04      12.18     864.00      43.00
13:56:06 02-Dec-06     446.18      12.62     891.00      43.00
13:56:16 02-Dec-06     446.23      12.67     894.00      43.00
13:56:26 02-Dec-06     446.34      12.71     897.00      43.00
13:56:36 02-Dec-06     446.37      12.79     902.00      43.00
13:56:46 02-Dec-06     446.45      12.95     912.00      43.00
13:56:56 02-Dec-06     446.51      12.80     903.00      43.00
13:57:06 02-Dec-06     446.60      12.80     903.00      43.00
13:57:16 02-Dec-06     446.64      12.82     904.00      43.00
13:57:26 02-Dec-06     446.67      12.73     899.00      43.00
13:57:36 02-Dec-06     446.70      12.63     893.00      43.00
13:57:46 02-Dec-06     446.76      13.14     924.00      43.00
13:57:56 02-Dec-06     446.80      12.88     908.02      43.00
13:58:06 02-Dec-06     446.91      13.31     935.00      43.00
13:58:16 02-Dec-06     446.93      13.30     934.00      43.00
13:58:26 02-Dec-06     447.03      13.08     921.00      43.00
13:58:36 02-Dec-06     447.08      13.24     931.00      43.00
13:58:46 02-Dec-06     447.23      13.38     939.98      43.00
13:58:56 02-Dec-06     447.26      12.97     915.00      43.00
13:59:06 02-Dec-06     447.33      12.73     900.00      43.00
13:59:16 02-Dec-06     447.35      13.28     934.00      43.00
13:59:26 02-Dec-06     447.49      13.34     938.00      43.00
13:59:36 02-Dec-06     447.61      14.02     980.01      43.00
13:59:46 02-Dec-06     447.65      14.25     994.00      43.00
13:59:56 02-Dec-06     447.72      14.32     999.00      43.00
14:00:06 02-Dec-06     447.80      14.24     994.00      43.00
14:00:16 02-Dec-06     447.91      14.69    1022.00      43.00
14:00:26 02-Dec-06     447.93      14.06     983.01      43.00
14:00:36 02-Dec-06     448.03      14.17     990.00      43.00
14:00:46 02-Dec-06     448.03      14.02     981.00      43.00
14:00:56 02-Dec-06     448.10      14.23     994.00      43.00
14:01:06 02-Dec-06     448.12      14.31     999.00      44.00
14:01:16 02-Dec-06     448.15      14.26     996.00      44.00
14:01:26 02-Dec-06     448.21      14.22     994.00      44.00
14:01:36 02-Dec-06     448.21      14.03     982.00      44.00
14:01:46 02-Dec-06     448.33      14.19     992.00      44.00
14:01:56 02-Dec-06     448.25      13.96     978.00      44.00
14:02:06 02-Dec-06     448.33      14.17     990.98      45.00
14:02:16 02-Dec-06     448.25      13.72     963.00      45.00
14:02:26 02-Dec-06     448.35      13.97     979.00      45.00
14:02:36 02-Dec-06     448.31      13.75     965.00      45.00
14:02:46 02-Dec-06     448.41      13.91     975.00      46.00
14:02:56 02-Dec-06     448.40      13.65     959.01      46.00
14:03:06 02-Dec-06     448.50      13.84     971.00      46.00
14:03:16 02-Dec-06     448.46      13.65     959.00      47.00
14:03:26 02-Dec-06     448.56      13.64     959.00      47.00
14:03:36 02-Dec-06     448.54      13.51     951.00      48.00
14:03:46 02-Dec-06     448.63      13.72     963.99      48.00
14:03:56 02-Dec-06     448.61      13.56     954.00      48.00
14:04:06 02-Dec-06     448.76      13.67     961.00      49.00
14:04:16 02-Dec-06     448.74      13.46     948.00      49.00
14:04:26 02-Dec-06     448.82      13.45     948.00      50.00
14:04:36 02-Dec-06     448.76      13.03     922.00      51.00
14:04:46 02-Dec-06     448.85      13.06     924.00      52.00
14:04:56 02-Dec-06     448.89      12.54     892.00      53.00
14:05:06 02-Dec-06     448.93      12.65     899.00      54.00
14:05:16 02-Dec-06     449.00      12.28     876.00      54.00
14:05:26 02-Dec-06     449.01      12.38     881.98      56.00
14:05:36 02-Dec-06     449.09      12.05     862.00      57.00
14:05:46 02-Dec-06     449.10      12.08     864.00      58.00
14:05:56 02-Dec-06     449.24      12.19     871.00      59.00
14:06:06 02-Dec-06     449.22      12.35     881.00      60.00
14:06:16 02-Dec-06     449.37      12.77     907.00      61.00
14:06:26 02-Dec-06     449.31      12.72     904.00      62.00
14:06:36 02-Dec-06     449.48      13.35     943.00      62.00
14:06:46 02-Dec-06     449.43      12.98     920.00      63.00
