~Version Information
VERS.             2.0 : CWLS log ASCII standard - Version 2.0
WRAP.             NO  : One line per depth step
#
~Well Information Block
#MNEM.UNIT                   Data Type:Information
#__________________________________________________________
STRT.           02-DEC-2006 06:00:00 : START INDEX                   
STOP.           02-DEC-2006 16:00:00 : STOP INDEX                    
STEP.SEC           10.0000 : STEP                          
NULL .          -999.25      :NULL VALUE
COMP .        Company      :COMPANY
WELL .        W2                  :WELL
FLD  .        Block                  :FIELD
LOC  .                                                 :LOCATION
CNTY .        Actinia                                  :COUNTY
STAT .        State                           :STATE
CTRY .                                                 :COUNTRY
JOB  .        06INM0159                                :Job NUMBER
UWI  .                                                 :UNIQUE WELL ID
DATE .        02-Dec-2006                              :LOG DATE {DD-MMM-YYYY}
SRVC .        Company                             :SERVICE COMPANY
LATI .DEG     16.276 N                                :LATITUDE
LONG .DEG     82.0962 E                                :LONGITUDE
GDAT .                                                 :GeoDetic Datum
SECT .        8.5 in                                   :Section
#-----------------------------------------------------------------------------
~PARAMETER INFORMATION
#MNEM.UNIT    VALUE                      DESCRIPTION
#---- -----   --------------------       ------------------------
TN1 .        PowerPulse                  :Tool Number 1
TN2 .        ARC                         :Tool Number 2
OS3  .          N/A                      :Other Services Line 3
OS2  .          InterACT                 :Other Services Line 2
OS1  .          Directional Surveys      :Other Services Line 1
MST  .DEGC      20.00000                 :Mud Sample Temperature
BHT  .DEGC      36.00000                 :Bottom Hole Temperature
RMS.OHMM         3.00000                 :Resistivity of Mud Sample (RM)
MST.DEGC        20.00000                 :Mud Sample temperature (RM)
MW.LB/G         11.00000                 :Mud Weight (RM)
SHT.DEGC        20.00000                 :Surface Hole Temperature (RM)
BSAL .PPM     3300.00000                 :Mud Salinity
MRT  .DEGC     67.00000                  :Maximum Recorded Temperature
MCST .DEGC      20.00000                 :Mud Cake Sample Temperature
RMCS .OHMM       4.50000                 :Resistivity of Mud Cake Sample
MFST .DEGC      20.00000                 :Mud Filtrate Sample Temperature
RMFS .OHMM       2.25000                 :Resistivity of Mud Filtrate Sample
MSS  .        Mud Pit                    :Mud Sample Source
MFSS  .       Mud Pit                    :Mud Filtrate Sample Source
MCSS  .       Mud Pit                    :Mud Cake Sample Source
TCS  .         16:00                     :End Log Time
DCS  .         2-Dec-2006                :End Log Date
DFT  .        WBM                        :Drilling Fluid Type
DFPH .           N/A                     :Drilling Fluid PH
DFV  .S       45.00000                   :Drilling Fluid Viscosity
DFD  .LB/G    11.000000                  :Drilling Fluid Density
DOWR .        71/29                      :Oil/Water Ratio
TLAB .        05:00                      :Begin Log Time
DLAB .        2-Dec-2006                 :Begin Log Date
RUN  .        1                          :Run Number
BLI  .M       500.00000                  :Bottom Log Interval
TLI  .M       120.00000                  :Top Log Interval
WITN .        Mr Lindsay                 :Witness's Name
ENGI .        Hatim/Victor/Harsh         :Engineer's Name
LUL  .        Zone 2                     :Logging Unit Location
LUN  .        OLU-KC-0103                :Logging Unit Number
RR2  .        ARC6 Resistivity is environmentally corrected for mud resistivity and bit size. :Remark Line 2
RR1  .        GR is corrected for bit size, tool size and mud weight               :Remark Line 1
PDAT .        Lowest Astronomical Tide   :Permanent Datum
EPD  .M          0.00000                 :Elevation of Permanent Datum
DMF  .        Driller's Depth            :Drilling Measured From
LMF  .        Drill Floor                :Log Measured From
APD  .M         25.60000                 :Above Permanent Datum
EDF  .M         25.60000                 :Elevation of Derrick Floor
EGL  .M        -79.80000                 :Elevation of Ground Level
EKB  .M         25.60000                 :Elevation of Kelly Bushing
TDL  .M        505.00000                 :Total Depth - Logger
TDD  .M        505.00000                 :Total Depth - Driller
MHD  .DEG        0.09000                 :Maximum Hole Deviation
AMD  .DEG      63.350000                 :Azimuth of Maximum Hole Deviation
BS   .IN         8.50                    :Bit Size
BSDT .M        505.00000                 :Bit Size Depth To
BSDF .M        105.00000                 :Bit Size Depth From
#-----------------------------------------------------------------------------                   
#
~Curve Information Block
#MNEM.UNIT                     : Curve Description
#---------                     --------------------
TIME	    .HHMMSS	       : 
DATE	    .D		       : 
RM_DEPTH    .M                 : LWDRM 1HZ River Depth                                           
ECD_ARC     .LB/G              : Equivalent Circulating Density                                  
APRS_ARC    .PSI               : ARC Annular Pressure                                            
ATMP        .DEGC              : ARC Annular Temperature                                         
#
~Parameter Information Block
#MNEM.UNIT                       Value:Description
#__________________________________________________________
#
~Other Information Block

#
~A TIME       DATE   RM_DEPTH    ECD_ARC   APRS_ARC       ATMP
# ...
13:03:26 02-Dec-06     415.67      12.77     834.00      35.00
13:03:36 02-Dec-06     415.79      12.84     838.00      35.00
13:03:46 02-Dec-06     415.91      12.80     835.99      35.00
13:03:56 02-Dec-06     416.02      12.65     828.00      35.00
13:04:06 02-Dec-06     416.16      12.77     835.00      35.00
13:04:16 02-Dec-06     416.26      12.64     828.00      35.00
13:04:26 02-Dec-06     416.37      12.91     843.00      35.00
13:04:36 02-Dec-06     416.45      12.71     832.00      35.00
13:04:46 02-Dec-06     416.52      12.81     838.00      35.00
13:04:56 02-Dec-06     416.61      12.77     836.00      35.00
13:05:06 02-Dec-06     416.70      12.75     835.00      35.00
13:05:16 02-Dec-06     416.77      12.80     838.00      35.00
13:05:26 02-Dec-06     416.85      12.80     838.00      35.00
13:05:36 02-Dec-06     416.93      12.87     842.00      35.00
13:05:46 02-Dec-06     417.01      12.72     834.00      35.00
13:05:56 02-Dec-06     417.08      12.75     836.00      35.00
13:06:06 02-Dec-06     417.16      12.73     835.00      35.00
13:06:16 02-Dec-06     417.27      12.93     846.00      35.00
13:06:26 02-Dec-06     417.34      12.87     843.00      35.00
13:06:36 02-Dec-06     417.43      12.95     848.00      35.00
13:06:46 02-Dec-06     417.50      12.93     847.00      35.00
13:06:56 02-Dec-06     417.61      12.84     842.00      35.00
13:07:06 02-Dec-06     417.70      12.89     844.99      35.00
13:07:16 02-Dec-06     417.82      12.73     836.00      35.00
13:07:26 02-Dec-06     417.93      12.72     836.00      35.00
13:07:36 02-Dec-06     418.05      12.65     832.00      35.00
13:07:46 02-Dec-06     418.19      12.75     838.00      35.00
13:07:56 02-Dec-06     418.31      12.64     832.01      35.00
13:08:06 02-Dec-06     418.40      12.83     843.00      35.00
13:08:16 02-Dec-06     418.50      12.68     835.00      35.00
13:08:26 02-Dec-06     418.64      12.84     844.00      35.00
13:08:36 02-Dec-06     418.78      12.72     838.00      35.00
13:08:46 02-Dec-06     418.90      12.84     844.99      35.00
13:08:56 02-Dec-06     419.02      12.70     837.00      35.00
13:09:06 02-Dec-06     419.13      12.78     842.00      35.00
13:09:16 02-Dec-06     419.17      12.75     840.00      35.00
13:09:26 02-Dec-06     419.24      12.71     838.00      35.00
13:09:36 02-Dec-06     419.30      12.74     840.00      35.00
13:09:46 02-Dec-06     419.37      12.67     836.00      35.00
13:09:56 02-Dec-06     419.43      12.66     836.00      35.00
13:10:06 02-Dec-06     419.48      12.66     836.00      35.00
13:10:16 02-Dec-06     419.54      12.75     841.00      35.00
13:10:26 02-Dec-06     419.62      12.69     838.00      35.00
13:10:36 02-Dec-06     419.70      12.67     837.00      35.00
13:10:46 02-Dec-06     419.77      12.60     833.00      35.00
13:10:56 02-Dec-06     419.84      12.56     831.00      35.00
13:11:06 02-Dec-06     419.92      12.56     831.00      35.00
13:11:16 02-Dec-06     420.01      12.50     828.00      35.00
13:11:26 02-Dec-06     420.08      12.52     829.00      35.00
13:11:36 02-Dec-06     420.14      12.48     827.00      35.00
13:11:46 02-Dec-06     420.20      12.46     826.00      35.00
13:11:56 02-Dec-06     420.27      12.44     825.00      35.00
13:12:06 02-Dec-06     420.35      12.40     823.00      35.00
13:12:16 02-Dec-06     420.40      12.38     822.00      35.00
13:12:26 02-Dec-06     420.48      12.38     822.00      35.00
13:12:36 02-Dec-06     420.55      12.36     821.00      35.00
13:12:46 02-Dec-06     420.62      12.43     825.00      35.00
13:12:56 02-Dec-06     420.70      12.46     827.00      35.00
13:13:06 02-Dec-06     420.75      12.39     823.00      35.00
13:13:16 02-Dec-06     420.80      12.44     826.00      35.00
13:13:26 02-Dec-06     420.86      12.33     820.00      35.00
13:13:36 02-Dec-06     420.94      12.34     821.00      36.00
13:13:46 02-Dec-06     421.02      12.25     816.00      36.00
13:13:56 02-Dec-06     421.09      12.30     819.00      36.00
13:14:06 02-Dec-06     421.18      12.25     816.00      36.00
13:14:16 02-Dec-06     421.27      12.35     822.00      36.00
13:14:26 02-Dec-06     421.37      12.31     820.00      36.00
13:14:36 02-Dec-06     421.47      12.34     822.00      36.00
13:14:46 02-Dec-06     421.60      12.23     816.00      36.00
13:14:56 02-Dec-06     421.71      12.24     817.00      36.00
13:15:06 02-Dec-06     421.82      12.26     818.00      36.00
13:15:16 02-Dec-06     421.95      12.29     820.00      36.00
13:15:26 02-Dec-06     422.07      12.35     824.00      36.00
13:15:36 02-Dec-06     422.21      12.28     820.00      36.00
13:15:46 02-Dec-06     422.31      12.33     823.00      36.00
13:15:56 02-Dec-06     422.44      12.36     825.00      36.00
13:16:06 02-Dec-06     422.53      12.48     832.00      36.00
13:16:16 02-Dec-06     422.65      12.47     832.00      36.00
13:16:26 02-Dec-06     422.73      12.56     837.00      36.00
13:16:36 02-Dec-06     422.84      12.69     845.00      36.00
13:16:46 02-Dec-06     422.97      12.74     848.00      36.00
13:16:56 02-Dec-06     423.09      12.65     843.00      36.00
13:17:06 02-Dec-06     423.21      12.71     846.99      36.00
13:17:16 02-Dec-06     423.31      12.59     840.00      36.00
13:17:26 02-Dec-06     423.40      12.58     840.00      36.00
13:17:36 02-Dec-06     423.47      12.49     835.00      36.00
13:17:46 02-Dec-06     423.51      12.42     831.00      36.00
13:17:56 02-Dec-06     423.60      12.40     830.00      36.00
13:18:06 02-Dec-06     423.72      12.49     835.00      36.00
13:18:16 02-Dec-06     423.84      12.50     836.00      36.00
13:18:26 02-Dec-06     423.97      12.65     845.00      36.00
13:18:36 02-Dec-06     424.07      12.66     846.00      36.00
13:18:46 02-Dec-06     424.21      12.73     850.00      36.00
13:18:56 02-Dec-06     424.36      12.64     845.00      36.00
13:19:06 02-Dec-06     424.53      12.72     850.00      36.00
13:19:16 02-Dec-06     424.66      12.68     848.00      36.00
13:19:26 02-Dec-06     424.78      12.74     852.00      36.00
13:19:36 02-Dec-06     424.92      12.72     851.00      36.00
13:19:46 02-Dec-06     425.06      12.75     853.00      36.00
13:19:56 02-Dec-06     425.21      12.71     851.00      36.00
13:20:06 02-Dec-06     425.38      12.75     854.00      36.00
13:20:16 02-Dec-06     425.52      12.70     851.00      36.00
13:20:26 02-Dec-06     425.65      12.66     849.00      36.00
13:20:36 02-Dec-06     425.71      12.71     852.00      36.00
13:20:46 02-Dec-06     425.85      12.75     855.00      36.00
13:20:56 02-Dec-06     425.94      12.75     855.00      36.00
13:21:06 02-Dec-06     426.08      12.74     855.00      36.00
13:21:16 02-Dec-06     426.22      12.74     855.00      36.00
13:21:26 02-Dec-06     426.37      12.73     855.00      36.00
13:21:36 02-Dec-06     426.51      12.85     862.00      36.00
13:21:46 02-Dec-06     426.67      12.84     862.00      36.00
13:21:56 02-Dec-06     426.83      12.89     865.00      36.00
13:22:06 02-Dec-06     426.99      12.92     867.00      36.00
13:22:16 02-Dec-06     427.16      12.98     871.00      36.00
13:22:26 02-Dec-06     427.33      12.99     872.00      36.00
13:22:36 02-Dec-06     427.50      12.81     862.00      36.00
13:22:46 02-Dec-06     427.66      12.62     851.00      36.00
13:22:56 02-Dec-06     427.84      12.45     841.99      36.00
13:23:06 02-Dec-06     428.00      12.29     833.00      36.00
13:23:16 02-Dec-06     428.15      12.31     834.00      36.00
13:23:26 02-Dec-06     428.29      12.44     842.00      36.00
13:23:36 02-Dec-06     428.43      12.45     843.00      36.00
13:23:46 02-Dec-06     428.58      12.57     849.99      36.00
13:23:56 02-Dec-06     428.75      12.32     836.00      36.00
13:24:06 02-Dec-06     428.95      12.24     832.00      36.00
13:24:16 02-Dec-06     429.04      12.03     820.00      36.00
13:24:26 02-Dec-06     429.25      12.04     821.00      36.00
