~Version Information
VERS.             2.0 : CWLS log ASCII standard - Version 2.0
WRAP.             NO  : One line per depth step
#
~Well Information Block
#MNEM.UNIT                   Data Type:Information
#__________________________________________________________
STRT.           02-DEC-2006 06:00:00 : START INDEX                   
STOP.           02-DEC-2006 16:00:00 : STOP INDEX                    
STEP.SEC           10.0000 : STEP                          
NULL .          -999.25      :NULL VALUE
COMP .        Company      :COMPANY
WELL .        W2                  :WELL
FLD  .        Block                  :FIELD
LOC  .                                                 :LOCATION
CNTY .        Actinia                                  :COUNTY
STAT .        State                           :STATE
CTRY .                                                 :COUNTRY
JOB  .        06INM0159                                :Job NUMBER
UWI  .                                                 :UNIQUE WELL ID
DATE .        02-Dec-2006                              :LOG DATE {DD-MMM-YYYY}
SRVC .        Company                             :SERVICE COMPANY
LATI .DEG     16.276 N                                :LATITUDE
LONG .DEG     82.0962 E                                :LONGITUDE
GDAT .                                                 :GeoDetic Datum
SECT .        8.5 in                                   :Section
#-----------------------------------------------------------------------------
~PARAMETER INFORMATION
#MNEM.UNIT    VALUE                      DESCRIPTION
#---- -----   --------------------       ------------------------
TN1 .        PowerPulse                  :Tool Number 1
TN2 .        ARC                         :Tool Number 2
OS3  .          N/A                      :Other Services Line 3
OS2  .          InterACT                 :Other Services Line 2
OS1  .          Directional Surveys      :Other Services Line 1
MST  .DEGC      20.00000                 :Mud Sample Temperature
BHT  .DEGC      36.00000                 :Bottom Hole Temperature
RMS.OHMM         3.00000                 :Resistivity of Mud Sample (RM)
MST.DEGC        20.00000                 :Mud Sample temperature (RM)
MW.LB/G         11.00000                 :Mud Weight (RM)
SHT.DEGC        20.00000                 :Surface Hole Temperature (RM)
BSAL .PPM     3300.00000                 :Mud Salinity
MRT  .DEGC     67.00000                  :Maximum Recorded Temperature
MCST .DEGC      20.00000                 :Mud Cake Sample Temperature
RMCS .OHMM       4.50000                 :Resistivity of Mud Cake Sample
MFST .DEGC      20.00000                 :Mud Filtrate Sample Temperature
RMFS .OHMM       2.25000                 :Resistivity of Mud Filtrate Sample
MSS  .        Mud Pit                    :Mud Sample Source
MFSS  .       Mud Pit                    :Mud Filtrate Sample Source
MCSS  .       Mud Pit                    :Mud Cake Sample Source
TCS  .         16:00                     :End Log Time
DCS  .         2-Dec-2006                :End Log Date
DFT  .        WBM                        :Drilling Fluid Type
DFPH .           N/A                     :Drilling Fluid PH
DFV  .S       45.00000                   :Drilling Fluid Viscosity
DFD  .LB/G    11.000000                  :Drilling Fluid Density
DOWR .        71/29                      :Oil/Water Ratio
TLAB .        05:00                      :Begin Log Time
DLAB .        2-Dec-2006                 :Begin Log Date
RUN  .        1                          :Run Number
BLI  .M       500.00000                  :Bottom Log Interval
TLI  .M       120.00000                  :Top Log Interval
WITN .        Mr Lindsay                 :Witness's Name
ENGI .        Hatim/Victor/Harsh         :Engineer's Name
LUL  .        Zone 2                     :Logging Unit Location
LUN  .        OLU-KC-0103                :Logging Unit Number
RR2  .        ARC6 Resistivity is environmentally corrected for mud resistivity and bit size. :Remark Line 2
RR1  .        GR is corrected for bit size, tool size and mud weight               :Remark Line 1
PDAT .        Lowest Astronomical Tide   :Permanent Datum
EPD  .M          0.00000                 :Elevation of Permanent Datum
DMF  .        Driller's Depth            :Drilling Measured From
LMF  .        Drill Floor                :Log Measured From
APD  .M         25.60000                 :Above Permanent Datum
EDF  .M         25.60000                 :Elevation of Derrick Floor
EGL  .M        -79.80000                 :Elevation of Ground Level
EKB  .M         25.60000                 :Elevation of Kelly Bushing
TDL  .M        505.00000                 :Total Depth - Logger
TDD  .M        505.00000                 :Total Depth - Driller
MHD  .DEG        0.09000                 :Maximum Hole Deviation
AMD  .DEG      63.350000                 :Azimuth of Maximum Hole Deviation
BS   .IN         8.50                    :Bit Size
BSDT .M        505.00000                 :Bit Size Depth To
BSDF .M        105.00000                 :Bit Size Depth From
#-----------------------------------------------------------------------------                   
#
~Curve Information Block
#MNEM.UNIT                     : Curve Description
#---------                     --------------------
TIME	    .HHMMSS	       : 
DATE	    .D		       : 
RM_DEPTH    .M                 : LWDRM 1HZ River Depth                                           
ECD_ARC     .LB/G              : Equivalent Circulating Density                                  
APRS_ARC    .PSI               : ARC Annular Pressure                                            
ATMP        .DEGC              : ARC Annular Temperature                                         
#
~Parameter Information Block
#MNEM.UNIT                       Value:Description
#__________________________________________________________
#
~Other Information Block

#
~A TIME       DATE   RM_DEPTH    ECD_ARC   APRS_ARC       ATMP
# ...
09:52:56 02-Dec-06     303.92      12.02     563.00      34.00
09:53:06 02-Dec-06     304.04      12.02     563.00      34.00
09:53:16 02-Dec-06     304.15      12.04     564.00      34.00
09:53:26 02-Dec-06     304.28      12.03     564.00      34.00
09:53:36 02-Dec-06     304.42      12.02     564.00      34.00
09:53:46 02-Dec-06     304.57      12.01     564.00      34.00
09:53:56 02-Dec-06     304.71      12.11     568.00      34.00
09:54:06 02-Dec-06     304.86      12.05     566.00      34.00
09:54:16 02-Dec-06     305.01      12.07     567.00      34.00
09:54:26 02-Dec-06     305.18      12.06     567.00      34.00
09:54:36 02-Dec-06     305.35      12.10     569.00      34.00
09:54:46 02-Dec-06     305.52      12.07     568.00      34.00
09:54:56 02-Dec-06     305.68      12.09     569.00      34.00
09:55:06 02-Dec-06     305.84      12.10     570.00      34.00
09:55:16 02-Dec-06     305.99      12.18     573.00      34.00
09:55:26 02-Dec-06     306.14      12.03     568.00      34.00
09:55:36 02-Dec-06     306.29      12.05     569.00      34.00
09:55:46 02-Dec-06     306.42      12.02     568.00      34.00
09:55:56 02-Dec-06     306.55      12.04     569.00      34.00
09:56:06 02-Dec-06     306.66      12.01     568.00      34.00
09:56:16 02-Dec-06     306.78      12.03     569.00      34.00
09:56:26 02-Dec-06     306.90      11.99     568.00      34.00
09:56:36 02-Dec-06     307.01      12.01     569.00      34.00
09:56:46 02-Dec-06     307.14      12.01     569.00      34.00
09:56:56 02-Dec-06     307.25      12.00     569.00      34.00
09:57:06 02-Dec-06     307.37      11.99     569.00      34.00
09:57:16 02-Dec-06     307.49      12.04     571.00      34.00
09:57:26 02-Dec-06     307.61      12.01     570.00      34.00
09:57:36 02-Dec-06     307.74      12.03     571.00      34.00
09:57:46 02-Dec-06     307.87      11.99     570.00      34.00
09:57:56 02-Dec-06     308.00      11.99     570.00      34.00
09:58:06 02-Dec-06     308.14      12.00     571.00      34.00
09:58:16 02-Dec-06     308.27      12.00     571.00      34.00
09:58:26 02-Dec-06     308.43      12.02     572.00      34.00
09:58:36 02-Dec-06     308.58      12.01     572.00      34.00
09:58:46 02-Dec-06     308.73      12.05     574.00      34.00
09:58:56 02-Dec-06     308.90      11.99     572.00      34.00
09:59:06 02-Dec-06     309.05      12.03     574.00      34.00
09:59:16 02-Dec-06     309.20      11.97     572.00      34.00
09:59:26 02-Dec-06     309.36      12.02     574.00      34.00
09:59:36 02-Dec-06     309.50      11.98     573.00      34.00
09:59:46 02-Dec-06     309.63      12.08     577.00      34.00
09:59:56 02-Dec-06     309.76      12.00     574.00      34.00
10:00:06 02-Dec-06     309.88      12.10     578.00      34.00
10:00:16 02-Dec-06     310.01      12.06     577.00      34.00
10:00:26 02-Dec-06     310.13      12.06     577.00      34.00
10:00:36 02-Dec-06     310.26      12.05     577.00      34.00
10:00:46 02-Dec-06     310.39      12.04     577.00      34.00
10:00:56 02-Dec-06     310.56      12.03     577.00      34.00
10:01:06 02-Dec-06     310.68      12.00     576.00      34.00
10:01:16 02-Dec-06     310.82      12.04     578.00      34.00
10:01:26 02-Dec-06     310.97      12.04     578.00      34.00
10:01:36 02-Dec-06     311.14      12.11     581.00      34.00
10:01:46 02-Dec-06     311.32      12.07     580.00      34.00
10:01:56 02-Dec-06     311.46      12.09     581.00      34.00
10:02:06 02-Dec-06     311.64      12.08     581.00      34.00
10:02:16 02-Dec-06     311.75      12.18     585.00      34.00
10:02:26 02-Dec-06     311.92      12.14     584.00      34.00
10:02:36 02-Dec-06     312.08      12.21     587.00      34.00
10:02:46 02-Dec-06     312.21      12.15     585.00      34.00
10:02:56 02-Dec-06     312.36      12.30     591.00      34.00
10:03:06 02-Dec-06     312.50      12.16     586.00      34.00
10:03:16 02-Dec-06     312.66      12.18     587.00      34.00
10:03:26 02-Dec-06     312.82      12.15     586.00      34.00
10:03:36 02-Dec-06     312.98      12.19     588.00      34.00
10:03:46 02-Dec-06     313.13      12.21     589.00      34.00
10:03:56 02-Dec-06     313.27      12.20     589.00      34.00
10:04:06 02-Dec-06     313.41      12.19     589.00      34.00
10:04:16 02-Dec-06     313.57      12.24     591.00      34.00
10:04:26 02-Dec-06     313.72      12.20     590.00      34.00
10:04:36 02-Dec-06     313.87      12.22     591.00      34.00
10:04:46 02-Dec-06     314.02      12.31     595.00      34.00
10:04:56 02-Dec-06     314.19      12.23     592.00      34.00
10:05:06 02-Dec-06     314.33      12.32     596.00      34.00
10:05:16 02-Dec-06     314.47      12.21     592.00      34.00
10:05:26 02-Dec-06     314.60      12.36     598.00      34.00
10:05:36 02-Dec-06     314.75      12.33     597.00      34.00
10:05:46 02-Dec-06     314.87      12.37     599.00      34.00
10:05:56 02-Dec-06     315.01      12.34     598.00      34.00
10:06:06 02-Dec-06     315.13      12.33     598.00      34.00
10:06:16 02-Dec-06     315.27      12.32     598.00      34.00
10:06:26 02-Dec-06     315.41      12.37     600.00      34.00
10:06:36 02-Dec-06     315.54      12.31     598.00      34.00
10:06:46 02-Dec-06     315.67      12.59     609.00      34.00
10:06:56 02-Dec-06     315.80      12.30     598.00      34.00
10:07:06 02-Dec-06     315.94      12.54     608.00      34.00
10:07:16 02-Dec-06     316.09      12.49     606.00      34.00
10:07:26 02-Dec-06     316.25      12.37     602.00      34.00
10:07:36 02-Dec-06     316.38      12.39     603.00      34.00
10:07:46 02-Dec-06     316.53      12.49     607.00      34.00
10:07:56 02-Dec-06     316.66      12.63     613.01      34.00
10:08:06 02-Dec-06     316.81      12.80     620.00      34.00
10:08:16 02-Dec-06     316.92      12.87     623.00      34.00
10:08:26 02-Dec-06     317.04      12.82     621.00      34.00
10:08:36 02-Dec-06     317.16      12.55     611.00      34.00
10:08:46 02-Dec-06     317.29      12.45     607.00      34.00
10:08:56 02-Dec-06     317.40      12.41     606.00      34.00
10:09:06 02-Dec-06     317.54      12.33     603.00      34.00
10:09:16 02-Dec-06     317.66      12.50     610.00      34.00
10:09:26 02-Dec-06     317.79      12.29     602.00      34.00
10:09:36 02-Dec-06     317.91      12.41     607.00      34.00
10:09:46 02-Dec-06     318.02      12.36     605.00      34.00
10:09:56 02-Dec-06     318.14      12.27     602.00      34.00
10:10:06 02-Dec-06     318.26      12.27     602.00      34.00
10:10:16 02-Dec-06     318.41      12.54     613.00      34.00
10:10:26 02-Dec-06     318.54      12.40     608.01      34.00
10:10:36 02-Dec-06     318.71      12.62     617.00      34.00
10:10:46 02-Dec-06     318.87      12.46     611.00      34.00
10:10:56 02-Dec-06     319.02      12.71     621.00      34.00
10:11:06 02-Dec-06     319.01      12.48     612.00      34.00
10:11:16 02-Dec-06     318.18      12.55     613.00      34.00
10:11:26 02-Dec-06     316.57      12.64     613.00      34.00
10:11:36 02-Dec-06     316.48      12.67     614.00      34.00
10:11:46 02-Dec-06     317.24      12.73     618.00      34.00
10:11:56 02-Dec-06     318.30      11.88     587.00      34.00
10:12:06 02-Dec-06     318.68      11.81     584.99      34.00
10:12:16 02-Dec-06     318.69      11.63     578.00      34.00
10:12:26 02-Dec-06     318.70      11.63     578.00      34.00
10:12:36 02-Dec-06     318.70      11.58     576.00      34.00
10:12:46 02-Dec-06     318.70      11.53     574.00      34.00
10:12:56 02-Dec-06     318.70      11.51     573.00      34.00
10:13:06 02-Dec-06     318.70      11.48     572.00      34.00
10:13:16 02-Dec-06     318.70      11.48     572.00      34.00
10:13:26 02-Dec-06     318.70      11.51     573.00      34.00
10:13:36 02-Dec-06     318.70      11.51     573.00      34.00
10:13:46 02-Dec-06     318.70      11.46     571.00      34.00
10:13:56 02-Dec-06     318.70      11.46     571.00      34.00
