~Version Information
VERS.             2.0 : CWLS log ASCII standard - Version 2.0
WRAP.             NO  : One line per depth step
#
~Well Information Block
#MNEM.UNIT                   Data Type:Information
#__________________________________________________________
STRT.           02-DEC-2006 06:00:00 : START INDEX                   
STOP.           02-DEC-2006 16:00:00 : STOP INDEX                    
STEP.SEC           10.0000 : STEP                          
NULL .          -999.25      :NULL VALUE
COMP .        Company      :COMPANY
WELL .        W2                  :WELL
FLD  .        Block                  :FIELD
LOC  .                                                 :LOCATION
CNTY .        Actinia                                  :COUNTY
STAT .        State                           :STATE
CTRY .                                                 :COUNTRY
JOB  .        06INM0159                                :Job NUMBER
UWI  .                                                 :UNIQUE WELL ID
DATE .        02-Dec-2006                              :LOG DATE {DD-MMM-YYYY}
SRVC .        Company                             :SERVICE COMPANY
LATI .DEG     16.276 N                                :LATITUDE
LONG .DEG     82.0962 E                                :LONGITUDE
GDAT .                                                 :GeoDetic Datum
SECT .        8.5 in                                   :Section
#-----------------------------------------------------------------------------
~PARAMETER INFORMATION
#MNEM.UNIT    VALUE                      DESCRIPTION
#---- -----   --------------------       ------------------------
TN1 .        PowerPulse                  :Tool Number 1
TN2 .        ARC                         :Tool Number 2
OS3  .          N/A                      :Other Services Line 3
OS2  .          InterACT                 :Other Services Line 2
OS1  .          Directional Surveys      :Other Services Line 1
MST  .DEGC      20.00000                 :Mud Sample Temperature
BHT  .DEGC      36.00000                 :Bottom Hole Temperature
RMS.OHMM         3.00000                 :Resistivity of Mud Sample (RM)
MST.DEGC        20.00000                 :Mud Sample temperature (RM)
MW.LB/G         11.00000                 :Mud Weight (RM)
SHT.DEGC        20.00000                 :Surface Hole Temperature (RM)
BSAL .PPM     3300.00000                 :Mud Salinity
MRT  .DEGC     67.00000                  :Maximum Recorded Temperature
MCST .DEGC      20.00000                 :Mud Cake Sample Temperature
RMCS .OHMM       4.50000                 :Resistivity of Mud Cake Sample
MFST .DEGC      20.00000                 :Mud Filtrate Sample Temperature
RMFS .OHMM       2.25000                 :Resistivity of Mud Filtrate Sample
MSS  .        Mud Pit                    :Mud Sample Source
MFSS  .       Mud Pit                    :Mud Filtrate Sample Source
MCSS  .       Mud Pit                    :Mud Cake Sample Source
TCS  .         16:00                     :End Log Time
DCS  .         2-Dec-2006                :End Log Date
DFT  .        WBM                        :Drilling Fluid Type
DFPH .           N/A                     :Drilling Fluid PH
DFV  .S       45.00000                   :Drilling Fluid Viscosity
DFD  .LB/G    11.000000                  :Drilling Fluid Density
DOWR .        71/29                      :Oil/Water Ratio
TLAB .        05:00                      :Begin Log Time
DLAB .        2-Dec-2006                 :Begin Log Date
RUN  .        1                          :Run Number
BLI  .M       500.00000                  :Bottom Log Interval
TLI  .M       120.00000                  :Top Log Interval
WITN .        Mr Lindsay                 :Witness's Name
ENGI .        Hatim/Victor/Harsh         :Engineer's Name
LUL  .        Zone 2                     :Logging Unit Location
LUN  .        OLU-KC-0103                :Logging Unit Number
RR2  .        ARC6 Resistivity is environmentally corrected for mud resistivity and bit size. :Remark Line 2
RR1  .        GR is corrected for bit size, tool size and mud weight               :Remark Line 1
PDAT .        Lowest Astronomical Tide   :Permanent Datum
EPD  .M          0.00000                 :Elevation of Permanent Datum
DMF  .        Driller's Depth            :Drilling Measured From
LMF  .        Drill Floor                :Log Measured From
APD  .M         25.60000                 :Above Permanent Datum
EDF  .M         25.60000                 :Elevation of Derrick Floor
EGL  .M        -79.80000                 :Elevation of Ground Level
EKB  .M         25.60000                 :Elevation of Kelly Bushing
TDL  .M        505.00000                 :Total Depth - Logger
TDD  .M        505.00000                 :Total Depth - Driller
MHD  .DEG        0.09000                 :Maximum Hole Deviation
AMD  .DEG      63.350000                 :Azimuth of Maximum Hole Deviation
BS   .IN         8.50                    :Bit Size
BSDT .M        505.00000                 :Bit Size Depth To
BSDF .M        105.00000                 :Bit Size Depth From
#-----------------------------------------------------------------------------                   
#
~Curve Information Block
#MNEM.UNIT                     : Curve Description
#---------                     --------------------
TIME	    .HHMMSS	       : 
DATE	    .D		       : 
RM_DEPTH    .M                 : LWDRM 1HZ River Depth                                           
ECD_ARC     .LB/G              : Equivalent Circulating Density                                  
APRS_ARC    .PSI               : ARC Annular Pressure                                            
ATMP        .DEGC              : ARC Annular Temperature                                         
#
~Parameter Information Block
#MNEM.UNIT                       Value:Description
#__________________________________________________________
#
~Other Information Block

#
~A TIME       DATE   RM_DEPTH    ECD_ARC   APRS_ARC       ATMP
06:00:06 02-Dec-06     118.14       2.61     133.00      27.00
06:00:16 02-Dec-06     118.14       2.80     134.00      27.00
06:00:26 02-Dec-06     118.14       2.99     135.00      27.00
06:00:36 02-Dec-06     118.14       2.99     135.00      27.00
06:00:46 02-Dec-06     118.14       2.80     134.00      27.00
06:00:56 02-Dec-06     118.14       2.99     135.00      28.00
06:01:06 02-Dec-06     118.14       2.99     135.00      28.00
06:01:16 02-Dec-06     118.14       2.80     134.00      28.00
06:01:26 02-Dec-06     118.14       2.99     135.00      28.00
06:01:36 02-Dec-06     118.14       3.18     136.00      28.00
06:01:46 02-Dec-06     118.14       3.18     136.00      28.00
06:01:56 02-Dec-06     118.14       3.18     136.00      28.00
06:02:06 02-Dec-06     118.14       3.37     137.00      28.00
06:02:16 02-Dec-06     118.14       3.37     137.00      28.00
06:02:26 02-Dec-06     118.14       3.37     137.00      28.00
06:02:36 02-Dec-06     118.14       3.56     138.00      28.00
06:02:46 02-Dec-06     118.14       3.37     137.00      28.00
06:02:56 02-Dec-06     118.14       3.37     137.00      28.00
06:03:06 02-Dec-06     118.14       3.37     137.00      28.00
06:03:16 02-Dec-06     118.11       3.37     137.00      28.00
06:03:26 02-Dec-06     117.82       3.60     138.00      28.00
06:03:36 02-Dec-06     118.17       3.37     137.00      28.00
06:03:46 02-Dec-06     118.41       3.34     137.00      28.00
06:03:56 02-Dec-06     118.69       3.50     138.00      28.00
06:04:06 02-Dec-06     119.15       3.82     140.00      28.00
06:04:16 02-Dec-06     119.85       4.10     142.00      28.00
06:04:26 02-Dec-06     120.94       4.31     144.00      28.00
06:04:36 02-Dec-06     122.41       4.63     147.00      28.00
06:04:46 02-Dec-06     123.99       5.88     156.00      28.00
06:04:56 02-Dec-06     124.97       6.50     161.00      28.00
06:05:06 02-Dec-06     126.28       6.28     161.00      28.00
06:05:16 02-Dec-06     127.83       6.33     163.00      29.00
06:05:26 02-Dec-06     128.00       6.88     167.00      29.00
06:05:36 02-Dec-06     128.11       6.72     166.00      29.00
06:05:46 02-Dec-06     128.29       6.55     165.00      29.00
06:05:56 02-Dec-06     128.50       6.51     165.00      29.00
06:06:06 02-Dec-06     128.69       6.20     163.00      29.00
06:06:16 02-Dec-06     128.96       6.30     164.00      29.00
06:06:26 02-Dec-06     129.27       6.54     166.00      29.00
06:06:36 02-Dec-06     129.72       6.47     166.00      29.00
06:06:46 02-Dec-06     130.18       6.12     164.00      29.00
06:06:56 02-Dec-06     130.70       6.18     165.00      30.00
06:07:06 02-Dec-06     131.46       6.34     167.00      30.00
06:07:16 02-Dec-06     132.31       6.09     166.00      30.00
06:07:26 02-Dec-06     133.20       6.10     167.00      30.00
06:07:36 02-Dec-06     134.11       6.11     168.00      30.00
06:07:46 02-Dec-06     134.87       6.14     169.00      30.00
06:07:56 02-Dec-06     135.48       6.42     172.00      31.00
06:08:06 02-Dec-06     136.12       6.58     174.00      31.00
06:08:16 02-Dec-06     136.61       6.51     174.00      31.00
06:08:26 02-Dec-06     137.10       6.33     173.00      31.00
06:08:36 02-Dec-06     137.62       5.92     170.00      32.00
06:08:46 02-Dec-06     138.10       6.21     173.00      32.00
06:08:56 02-Dec-06     138.62       6.26     174.00      32.00
06:09:06 02-Dec-06     139.20       6.30     175.00      33.00
06:09:16 02-Dec-06     139.75       6.57     178.00      33.00
06:09:26 02-Dec-06     140.33       7.39     186.00      33.00
06:09:36 02-Dec-06     140.82       7.32     186.00      33.00
06:09:46 02-Dec-06     141.27       7.26     186.00      33.00
06:09:56 02-Dec-06     141.70       7.20     186.00      34.00
06:10:06 02-Dec-06     142.16       7.14     186.00      34.00
06:10:16 02-Dec-06     142.62       6.98     185.00      34.00
06:10:26 02-Dec-06     143.23       7.21     188.00      34.00
06:10:36 02-Dec-06     143.90       7.33     190.00      34.00
06:10:46 02-Dec-06     144.60       7.65     194.00      35.00
06:10:56 02-Dec-06     145.30       7.26     191.00      35.00
06:11:06 02-Dec-06     145.88       7.69     196.00      35.00
06:11:16 02-Dec-06     146.33       7.53     195.00      35.00
06:11:26 02-Dec-06     146.52       7.51     195.00      35.00
06:11:36 02-Dec-06     146.51       7.51     195.00      35.00
06:11:46 02-Dec-06     146.51       7.61     196.00      35.00
06:11:56 02-Dec-06     146.50       7.71     197.00      36.00
06:12:06 02-Dec-06     146.50       7.81     198.00      36.00
06:12:16 02-Dec-06     146.49       7.91     199.00      36.00
06:12:26 02-Dec-06     145.67       8.02     199.00      36.00
06:12:36 02-Dec-06     145.51       7.94     198.00      36.00
06:12:46 02-Dec-06     145.88       8.09     200.00      36.00
06:12:56 02-Dec-06     145.74       8.21     201.00      36.00
06:13:06 02-Dec-06     146.12       8.06     200.00      36.00
06:13:16 02-Dec-06     146.30       8.13     201.00      36.00
06:13:26 02-Dec-06     146.30       8.13     201.00      36.00
06:13:36 02-Dec-06     146.30       8.23     202.00      36.00
06:13:46 02-Dec-06     146.30       8.13     201.00      36.00
06:13:56 02-Dec-06     146.30       8.23     202.00      36.00
06:14:06 02-Dec-06     146.30       8.23     202.00      36.00
06:14:16 02-Dec-06     146.29       8.33     203.00      35.00
06:14:26 02-Dec-06     146.26       8.34     203.00      35.00
06:14:36 02-Dec-06     146.21       8.34     203.00      35.00
06:14:46 02-Dec-06     146.21       8.44     204.00      35.00
06:14:56 02-Dec-06     146.21       8.34     203.00      35.00
06:15:06 02-Dec-06     146.21       8.34     203.00      35.00
06:15:16 02-Dec-06     146.20       8.44     204.00      35.00
06:15:26 02-Dec-06     146.20       8.44     204.00      35.00
06:15:36 02-Dec-06     146.20       8.44     204.00      35.00
06:15:46 02-Dec-06     146.20       8.44     204.00      35.00
06:15:56 02-Dec-06     146.19       8.35     203.00      35.00
06:16:06 02-Dec-06     146.19       8.35     203.00      35.00
06:16:16 02-Dec-06     146.19       8.45     204.00      35.00
06:16:26 02-Dec-06     146.19       8.35     203.00      35.00
06:16:36 02-Dec-06     146.19       8.45     204.00      35.00
06:16:46 02-Dec-06     146.18       8.45     204.00      35.00
06:16:56 02-Dec-06     146.18       8.45     204.00      35.00
06:17:06 02-Dec-06     146.18       8.45     204.00      35.00
06:17:16 02-Dec-06     146.18       8.45     204.00      35.00
06:17:26 02-Dec-06     146.18       8.35     203.00      35.00
06:17:36 02-Dec-06     146.17       8.25     202.00      35.00
06:17:46 02-Dec-06     146.17       8.25     202.00      34.00
06:17:56 02-Dec-06     146.17       8.45     204.00      34.00
06:18:06 02-Dec-06     146.17       8.45     204.00      34.00
06:18:16 02-Dec-06     146.16       8.35     203.00      34.00
06:18:26 02-Dec-06     146.16       8.45     204.00      34.00
06:18:36 02-Dec-06     146.16       8.45     204.00      34.00
06:18:46 02-Dec-06     146.16       8.35     203.00      34.00
06:18:56 02-Dec-06     146.16       8.45     204.00      34.00
06:19:06 02-Dec-06     146.15       8.25     202.00      34.00
06:19:16 02-Dec-06     146.13       8.35     203.00      34.00
06:19:26 02-Dec-06     145.70       8.52     204.00      34.00
06:19:36 02-Dec-06     145.69       8.42     203.00      34.00
06:19:46 02-Dec-06     145.85       8.90     208.00      34.00
06:19:56 02-Dec-06     146.15       9.25     212.00      34.00
06:20:06 02-Dec-06     146.49       9.20     212.00      34.00
06:20:16 02-Dec-06     146.82       9.05     211.00      34.00
06:20:26 02-Dec-06     147.25       8.98     211.00      34.00
06:20:36 02-Dec-06     147.92       8.88     211.00      34.00
06:20:46 02-Dec-06     148.62       9.45     218.00      34.00
06:20:56 02-Dec-06     149.23       9.64     221.00      34.00
06:21:06 02-Dec-06     149.93       9.53     221.00      34.00
