~Version Information
VERS.             2.0 : CWLS log ASCII standard - Version 2.0
WRAP.             NO  : One line per depth step
#
~Well Information Block
#MNEM.UNIT                   Data Type:Information
#__________________________________________________________
STRT.           02-DEC-2006 06:00:00 : START INDEX                   
STOP.           02-DEC-2006 16:00:00 : STOP INDEX                    
STEP.SEC           10.0000 : STEP                          
NULL .          -999.25      :NULL VALUE
COMP .        Company      :COMPANY
WELL .        W2                  :WELL
FLD  .        Block                  :FIELD
LOC  .                                                 :LOCATION
CNTY .        Actinia                                  :COUNTY
STAT .        State                           :STATE
CTRY .                                                 :COUNTRY
JOB  .        06INM0159                                :Job NUMBER
UWI  .                                                 :UNIQUE WELL ID
DATE .        02-Dec-2006                              :LOG DATE {DD-MMM-YYYY}
SRVC .        Company                             :SERVICE COMPANY
LATI .DEG     16.276 N                                :LATITUDE
LONG .DEG     82.0962 E                                :LONGITUDE
GDAT .                                                 :GeoDetic Datum
SECT .        8.5 in                                   :Section
#-----------------------------------------------------------------------------
~PARAMETER INFORMATION
#MNEM.UNIT    VALUE                      DESCRIPTION
#---- -----   --------------------       ------------------------
TN1 .        PowerPulse                  :Tool Number 1
TN2 .        ARC                         :Tool Number 2
OS3  .          N/A                      :Other Services Line 3
OS2  .          InterACT                 :Other Services Line 2
OS1  .          Directional Surveys      :Other Services Line 1
MST  .DEGC      20.00000                 :Mud Sample Temperature
BHT  .DEGC      36.00000                 :Bottom Hole Temperature
RMS.OHMM         3.00000                 :Resistivity of Mud Sample (RM)
MST.DEGC        20.00000                 :Mud Sample temperature (RM)
MW.LB/G         11.00000                 :Mud Weight (RM)
SHT.DEGC        20.00000                 :Surface Hole Temperature (RM)
BSAL .PPM     3300.00000                 :Mud Salinity
MRT  .DEGC     67.00000                  :Maximum Recorded Temperature
MCST .DEGC      20.00000                 :Mud Cake Sample Temperature
RMCS .OHMM       4.50000                 :Resistivity of Mud Cake Sample
MFST .DEGC      20.00000                 :Mud Filtrate Sample Temperature
RMFS .OHMM       2.25000                 :Resistivity of Mud Filtrate Sample
MSS  .        Mud Pit                    :Mud Sample Source
MFSS  .       Mud Pit                    :Mud Filtrate Sample Source
MCSS  .       Mud Pit                    :Mud Cake Sample Source
TCS  .         16:00                     :End Log Time
DCS  .         2-Dec-2006                :End Log Date
DFT  .        WBM                        :Drilling Fluid Type
DFPH .           N/A                     :Drilling Fluid PH
DFV  .S       45.00000                   :Drilling Fluid Viscosity
DFD  .LB/G    11.000000                  :Drilling Fluid Density
DOWR .        71/29                      :Oil/Water Ratio
TLAB .        05:00                      :Begin Log Time
DLAB .        2-Dec-2006                 :Begin Log Date
RUN  .        1                          :Run Number
BLI  .M       500.00000                  :Bottom Log Interval
TLI  .M       120.00000                  :Top Log Interval
WITN .        Mr Lindsay                 :Witness's Name
ENGI .        Hatim/Victor/Harsh         :Engineer's Name
LUL  .        Zone 2                     :Logging Unit Location
LUN  .        OLU-KC-0103                :Logging Unit Number
RR2  .        ARC6 Resistivity is environmentally corrected for mud resistivity and bit size. :Remark Line 2
RR1  .        GR is corrected for bit size, tool size and mud weight               :Remark Line 1
PDAT .        Lowest Astronomical Tide   :Permanent Datum
EPD  .M          0.00000                 :Elevation of Permanent Datum
DMF  .        Driller's Depth            :Drilling Measured From
LMF  .        Drill Floor                :Log Measured From
APD  .M         25.60000                 :Above Permanent Datum
EDF  .M         25.60000                 :Elevation of Derrick Floor
EGL  .M        -79.80000                 :Elevation of Ground Level
EKB  .M         25.60000                 :Elevation of Kelly Bushing
TDL  .M        505.00000                 :Total Depth - Logger
TDD  .M        505.00000                 :Total Depth - Driller
MHD  .DEG        0.09000                 :Maximum Hole Deviation
AMD  .DEG      63.350000                 :Azimuth of Maximum Hole Deviation
BS   .IN         8.50                    :Bit Size
BSDT .M        505.00000                 :Bit Size Depth To
BSDF .M        105.00000                 :Bit Size Depth From
#-----------------------------------------------------------------------------                   
#
~Curve Information Block
#MNEM.UNIT                     : Curve Description
#---------                     --------------------
TIME	    .HHMMSS	       : 
DATE	    .D		       : 
RM_DEPTH    .M                 : LWDRM 1HZ River Depth                                           
ECD_ARC     .LB/G              : Equivalent Circulating Density                                  
APRS_ARC    .PSI               : ARC Annular Pressure                                            
ATMP        .DEGC              : ARC Annular Temperature                                         
#
~Parameter Information Block
#MNEM.UNIT                       Value:Description
#__________________________________________________________
#
~Other Information Block

#
~A TIME       DATE   RM_DEPTH    ECD_ARC   APRS_ARC       ATMP
# ...
14:49:16 02-Dec-06     462.35      12.04     889.00      36.00
14:49:26 02-Dec-06     462.84      12.15     897.01      36.00
14:49:36 02-Dec-06     463.60      12.41     915.00      36.00
14:49:46 02-Dec-06     464.03      12.02     891.00      36.00
14:49:56 02-Dec-06     464.33      12.01     891.00      36.00
14:50:06 02-Dec-06     464.70      12.03     893.00      36.00
14:50:16 02-Dec-06     464.70      12.03     892.97      36.00
14:50:26 02-Dec-06     464.70      11.43     854.00      36.00
14:50:36 02-Dec-06     464.70      11.30     846.00      36.00
14:50:46 02-Dec-06     464.70      11.19     839.00      36.00
14:50:56 02-Dec-06     464.70      11.13     835.00      36.00
14:51:06 02-Dec-06     464.70      11.02     828.00      36.00
14:51:16 02-Dec-06     464.70      10.96     824.00      36.00
14:51:26 02-Dec-06     464.70      10.85     817.00      36.00
14:51:36 02-Dec-06     464.70      10.88     819.00      36.00
14:51:46 02-Dec-06     464.70      10.80     814.00      36.00
14:51:56 02-Dec-06     464.70      10.76     811.00      36.00
14:52:06 02-Dec-06     464.70      10.68     806.00      36.00
14:52:16 02-Dec-06     464.70      10.66     805.00      36.00
14:52:26 02-Dec-06     464.70      10.62     802.00      36.00
14:52:36 02-Dec-06     464.70      10.60     801.00      35.00
14:52:46 02-Dec-06     464.70      10.60     801.00      35.00
14:52:56 02-Dec-06     464.70      10.59     800.00      35.00
14:53:06 02-Dec-06     464.70      10.55     798.00      35.00
14:53:16 02-Dec-06     464.70      10.55     798.00      35.00
14:53:26 02-Dec-06     464.70      10.55     798.00      35.00
14:53:36 02-Dec-06     464.70      10.51     795.00      35.00
14:53:46 02-Dec-06     464.70      10.52     796.00      35.00
14:53:56 02-Dec-06     464.70      10.54     797.00      35.00
14:54:06 02-Dec-06     464.70      10.54     797.00      35.00
14:54:16 02-Dec-06     464.70      10.51     795.00      35.00
14:54:26 02-Dec-06     464.70      10.51     795.00      35.00
14:54:36 02-Dec-06     464.70      10.52     796.00      35.00
14:54:46 02-Dec-06     464.70      10.52     796.00      35.00
14:54:56 02-Dec-06     464.70      10.54     797.00      35.00
14:55:06 02-Dec-06     464.70      10.51     795.00      35.00
14:55:16 02-Dec-06     464.70      10.52     796.00      35.00
14:55:26 02-Dec-06     464.21      10.49     793.00      35.00
14:55:36 02-Dec-06     464.05      10.51     794.00      35.00
14:55:46 02-Dec-06     464.05      10.54     796.01      35.00
14:55:56 02-Dec-06     464.04      10.82     814.00      35.00
14:56:06 02-Dec-06     464.01      11.14     834.04      35.00
14:56:16 02-Dec-06     463.91      11.87     881.00      35.00
14:56:26 02-Dec-06     463.94      12.12     897.00      35.00
14:56:36 02-Dec-06     464.87      12.24     906.99      35.00
14:56:46 02-Dec-06     465.12      12.03     894.00      35.00
14:56:56 02-Dec-06     465.29      12.12     900.01      35.00
14:57:06 02-Dec-06     465.36      12.23     907.00      35.00
14:57:16 02-Dec-06     465.44      12.30     912.00      35.00
14:57:26 02-Dec-06     465.52      12.19     905.01      36.00
14:57:36 02-Dec-06     465.64      12.44     921.00      36.00
14:57:46 02-Dec-06     465.72      12.26     910.01      36.00
14:57:56 02-Dec-06     465.95      12.53     928.00      36.00
14:58:06 02-Dec-06     466.07      12.44     922.00      35.00
14:58:16 02-Dec-06     466.25      12.90     951.98      35.00
14:58:26 02-Dec-06     466.36      12.60     933.00      35.00
14:58:36 02-Dec-06     466.53      12.67     938.00      35.00
14:58:46 02-Dec-06     466.65      12.70     940.00      36.00
14:58:56 02-Dec-06     466.80      12.55     931.00      36.00
14:59:06 02-Dec-06     466.94      12.69     940.00      35.00
14:59:16 02-Dec-06     467.06      12.62     936.00      36.00
14:59:26 02-Dec-06     467.23      12.92     955.98      36.00
14:59:36 02-Dec-06     467.37      12.56     933.00      36.00
14:59:46 02-Dec-06     467.55      12.77     947.00      36.00
14:59:56 02-Dec-06     467.65      12.65     939.01      36.00
15:00:06 02-Dec-06     467.87      12.83     951.00      36.00
15:00:16 02-Dec-06     467.98      12.70     943.01      36.00
15:00:26 02-Dec-06     468.19      12.83     952.00      36.00
15:00:36 02-Dec-06     468.28      12.64     940.00      36.00
15:00:46 02-Dec-06     468.48      12.81     951.00      36.00
15:00:56 02-Dec-06     468.61      12.72     946.00      36.00
15:01:06 02-Dec-06     468.78      12.98     962.99      36.00
15:01:16 02-Dec-06     468.90      12.71     946.00      36.00
15:01:26 02-Dec-06     469.05      12.74     948.00      36.00
15:01:36 02-Dec-06     469.16      12.78     951.00      36.00
15:01:46 02-Dec-06     469.30      12.78     951.00      36.00
15:01:56 02-Dec-06     469.45      12.77     951.01      36.00
15:02:06 02-Dec-06     469.65      12.93     962.00      36.00
15:02:16 02-Dec-06     469.85      12.99     966.00      36.00
15:02:26 02-Dec-06     470.00      12.80     954.00      36.00
15:02:36 02-Dec-06     470.14      12.81     955.00      36.00
15:02:46 02-Dec-06     470.32      12.97     966.00      36.00
15:02:56 02-Dec-06     470.47      12.88     960.00      36.00
15:03:06 02-Dec-06     470.64      12.89     961.00      36.00
15:03:16 02-Dec-06     470.81      12.80     956.01      36.00
15:03:26 02-Dec-06     470.99      12.94     965.00      36.00
15:03:36 02-Dec-06     471.14      12.99     969.00      36.00
15:03:46 02-Dec-06     471.34      12.94     966.00      36.00
15:03:56 02-Dec-06     471.46      12.84     960.00      36.00
15:04:06 02-Dec-06     471.68      12.87     962.00      36.00
15:04:16 02-Dec-06     471.85      12.86     962.00      36.00
15:04:26 02-Dec-06     472.03      13.04     974.00      36.00
15:04:36 02-Dec-06     472.16      12.99     971.00      36.00
15:04:46 02-Dec-06     472.39      13.04     975.00      36.00
15:04:56 02-Dec-06     472.58      12.75     956.00      36.00
15:05:06 02-Dec-06     472.74      12.69     953.00      36.00
15:05:16 02-Dec-06     472.91      12.81     961.00      36.00
15:05:26 02-Dec-06     473.08      12.79     960.00      36.00
15:05:36 02-Dec-06     473.25      12.72     956.00      36.00
15:05:46 02-Dec-06     473.43      12.79     961.00      36.00
15:05:56 02-Dec-06     473.58      12.76     959.00      36.00
15:06:06 02-Dec-06     473.75      12.69     955.01      36.00
15:06:16 02-Dec-06     473.90      12.79     962.00      36.00
15:06:26 02-Dec-06     474.06      12.68     955.00      36.00
15:06:36 02-Dec-06     474.24      12.77     961.00      36.00
15:06:46 02-Dec-06     474.39      12.75     960.00      36.00
15:06:56 02-Dec-06     474.60      12.78     962.99      36.00
15:07:06 02-Dec-06     474.77      12.67     956.00      36.00
15:07:16 02-Dec-06     474.94      12.76     962.00      36.00
15:07:26 02-Dec-06     475.05      12.71     959.00      36.00
15:07:36 02-Dec-06     475.23      12.63     954.00      36.00
15:07:46 02-Dec-06     475.35      12.61     953.00      36.00
15:07:56 02-Dec-06     475.56      12.63     955.00      36.00
15:08:06 02-Dec-06     475.69      12.61     954.00      36.00
15:08:16 02-Dec-06     475.90      12.58     952.00      36.00
15:08:26 02-Dec-06     476.04      12.57     952.00      36.00
15:08:36 02-Dec-06     476.22      12.79     967.00      36.00
15:08:46 02-Dec-06     476.40      12.82     969.00      36.00
15:08:56 02-Dec-06     476.59      12.73     964.00      36.00
15:09:06 02-Dec-06     476.74      13.03     983.98      36.00
15:09:16 02-Dec-06     476.91      12.69     962.00      36.00
15:09:26 02-Dec-06     477.10      12.75     966.00      36.00
15:09:36 02-Dec-06     477.29      12.65     960.00      36.00
15:09:46 02-Dec-06     477.48      12.81     971.00      36.00
15:09:56 02-Dec-06     477.65      12.82     972.00      36.00
15:10:06 02-Dec-06     477.83      12.86     975.00      36.00
15:10:16 02-Dec-06     477.99      12.81     972.00      36.00
