~Version Information
VERS.             2.0 : CWLS log ASCII standard - Version 2.0
WRAP.             NO  : One line per depth step
#
~Well Information Block
#MNEM.UNIT                   Data Type:Information
#__________________________________________________________
STRT.           02-DEC-2006 06:00:00 : START INDEX                   
STOP.           02-DEC-2006 16:00:00 : STOP INDEX                    
STEP.SEC           10.0000 : STEP                          
NULL .          -999.25      :NULL VALUE
COMP .        Company      :COMPANY
WELL .        W2                  :WELL
FLD  .        Block                  :FIELD
LOC  .                                                 :LOCATION
CNTY .        Actinia                                  :COUNTY
STAT .        State                           :STATE
CTRY .                                                 :COUNTRY
JOB  .        06INM0159                                :Job NUMBER
UWI  .                                                 :UNIQUE WELL ID
DATE .        02-Dec-2006                              :LOG DATE {DD-MMM-YYYY}
SRVC .        Company                             :SERVICE COMPANY
LATI .DEG     16.276 N                                :LATITUDE
LONG .DEG     82.0962 E                                :LONGITUDE
GDAT .                                                 :GeoDetic Datum
SECT .        8.5 in                                   :Section
#-----------------------------------------------------------------------------
~PARAMETER INFORMATION
#MNEM.UNIT    VALUE                      DESCRIPTION
#---- -----   --------------------       ------------------------
TN1 .        PowerPulse                  :Tool Number 1
TN2 .        ARC                         :Tool Number 2
OS3  .          N/A                      :Other Services Line 3
OS2  .          InterACT                 :Other Services Line 2
OS1  .          Directional Surveys      :Other Services Line 1
MST  .DEGC      20.00000                 :Mud Sample Temperature
BHT  .DEGC      36.00000                 :Bottom Hole Temperature
RMS.OHMM         3.00000                 :Resistivity of Mud Sample (RM)
MST.DEGC        20.00000                 :Mud Sample temperature (RM)
MW.LB/G         11.00000                 :Mud Weight (RM)
SHT.DEGC        20.00000                 :Surface Hole Temperature (RM)
BSAL .PPM     3300.00000                 :Mud Salinity
MRT  .DEGC     67.00000                  :Maximum Recorded Temperature
MCST .DEGC      20.00000                 :Mud Cake Sample Temperature
RMCS .OHMM       4.50000                 :Resistivity of Mud Cake Sample
MFST .DEGC      20.00000                 :Mud Filtrate Sample Temperature
RMFS .OHMM       2.25000                 :Resistivity of Mud Filtrate Sample
MSS  .        Mud Pit                    :Mud Sample Source
MFSS  .       Mud Pit                    :Mud Filtrate Sample Source
MCSS  .       Mud Pit                    :Mud Cake Sample Source
TCS  .         16:00                     :End Log Time
DCS  .         2-Dec-2006                :End Log Date
DFT  .        WBM                        :Drilling Fluid Type
DFPH .           N/A                     :Drilling Fluid PH
DFV  .S       45.00000                   :Drilling Fluid Viscosity
DFD  .LB/G    11.000000                  :Drilling Fluid Density
DOWR .        71/29                      :Oil/Water Ratio
TLAB .        05:00                      :Begin Log Time
DLAB .        2-Dec-2006                 :Begin Log Date
RUN  .        1                          :Run Number
BLI  .M       500.00000                  :Bottom Log Interval
TLI  .M       120.00000                  :Top Log Interval
WITN .        Mr Lindsay                 :Witness's Name
ENGI .        Hatim/Victor/Harsh         :Engineer's Name
LUL  .        Zone 2                     :Logging Unit Location
LUN  .        OLU-KC-0103                :Logging Unit Number
RR2  .        ARC6 Resistivity is environmentally corrected for mud resistivity and bit size. :Remark Line 2
RR1  .        GR is corrected for bit size, tool size and mud weight               :Remark Line 1
PDAT .        Lowest Astronomical Tide   :Permanent Datum
EPD  .M          0.00000                 :Elevation of Permanent Datum
DMF  .        Driller's Depth            :Drilling Measured From
LMF  .        Drill Floor                :Log Measured From
APD  .M         25.60000                 :Above Permanent Datum
EDF  .M         25.60000                 :Elevation of Derrick Floor
EGL  .M        -79.80000                 :Elevation of Ground Level
EKB  .M         25.60000                 :Elevation of Kelly Bushing
TDL  .M        505.00000                 :Total Depth - Logger
TDD  .M        505.00000                 :Total Depth - Driller
MHD  .DEG        0.09000                 :Maximum Hole Deviation
AMD  .DEG      63.350000                 :Azimuth of Maximum Hole Deviation
BS   .IN         8.50                    :Bit Size
BSDT .M        505.00000                 :Bit Size Depth To
BSDF .M        105.00000                 :Bit Size Depth From
#-----------------------------------------------------------------------------                   
#
~Curve Information Block
#MNEM.UNIT                     : Curve Description
#---------                     --------------------
TIME	    .HHMMSS	       : 
DATE	    .D		       : 
RM_DEPTH    .M                 : LWDRM 1HZ River Depth                                           
ECD_ARC     .LB/G              : Equivalent Circulating Density                                  
APRS_ARC    .PSI               : ARC Annular Pressure                                            
ATMP        .DEGC              : ARC Annular Temperature                                         
#
~Parameter Information Block
#MNEM.UNIT                       Value:Description
#__________________________________________________________
#
~Other Information Block

#
~A TIME       DATE   RM_DEPTH    ECD_ARC   APRS_ARC       ATMP
# ...
07:24:46 02-Dec-06     201.66       8.97     294.00      36.00
07:24:56 02-Dec-06     201.66       9.07     296.00      36.00
07:25:06 02-Dec-06     201.66       8.97     294.00      36.00
07:25:16 02-Dec-06     201.66       8.97     294.00      36.00
07:25:26 02-Dec-06     201.66       9.02     295.00      35.00
07:25:36 02-Dec-06     201.66       9.02     295.00      36.00
07:25:46 02-Dec-06     201.66       9.02     295.00      35.00
07:25:56 02-Dec-06     201.66       8.97     294.00      36.00
07:26:06 02-Dec-06     201.66       9.07     296.00      35.00
07:26:16 02-Dec-06     201.66       9.07     296.00      36.00
07:26:26 02-Dec-06     201.66       9.07     296.00      35.00
07:26:36 02-Dec-06     201.66       9.02     295.00      35.00
07:26:46 02-Dec-06     201.66       8.97     294.00      36.00
07:26:56 02-Dec-06     201.66       8.97     294.00      36.00
07:27:06 02-Dec-06     201.65       9.07     296.00      35.00
07:27:16 02-Dec-06     201.61       9.07     296.00      36.00
07:27:26 02-Dec-06     201.09       9.48     303.00      36.00
07:27:36 02-Dec-06     201.18       9.88     311.00      35.00
07:27:46 02-Dec-06     201.27      10.03     314.00      35.00
07:27:56 02-Dec-06     201.47      10.27     319.00      35.00
07:28:06 02-Dec-06     201.64      10.30     320.00      35.00
07:28:16 02-Dec-06     201.81      10.34     321.00      35.00
07:28:26 02-Dec-06     202.04      10.47     324.00      35.00
07:28:36 02-Dec-06     202.23      10.46     324.00      35.00
07:28:46 02-Dec-06     202.48      10.53     326.00      35.00
07:28:56 02-Dec-06     202.69      10.41     324.00      35.00
07:29:06 02-Dec-06     202.94      10.54     327.00      35.00
07:29:16 02-Dec-06     203.15      10.52     327.00      35.00
07:29:26 02-Dec-06     203.38      10.50     327.00      35.00
07:29:36 02-Dec-06     203.61      10.48     327.00      35.00
07:29:46 02-Dec-06     203.84      10.51     328.00      35.00
07:29:56 02-Dec-06     204.06      10.54     329.00      35.00
07:30:06 02-Dec-06     204.28      10.57     330.00      35.00
07:30:16 02-Dec-06     204.49      10.55     330.00      35.00
07:30:26 02-Dec-06     204.69      10.49     329.00      35.00
07:30:36 02-Dec-06     204.86      10.47     329.00      35.00
07:30:46 02-Dec-06     204.99      10.46     329.00      35.00
07:30:56 02-Dec-06     205.10      10.50     330.00      35.00
07:31:06 02-Dec-06     205.21      10.44     329.00      35.00
07:31:16 02-Dec-06     205.32      10.48     330.00      35.00
07:31:26 02-Dec-06     205.45      10.47     330.00      35.00
07:31:36 02-Dec-06     205.57      10.51     331.00      35.00
07:31:46 02-Dec-06     205.71      10.49     331.00      35.00
07:31:56 02-Dec-06     205.86      10.48     331.00      35.00
07:32:06 02-Dec-06     206.01      10.47     331.00      35.00
07:32:16 02-Dec-06     206.18      10.55     333.00      35.00
07:32:26 02-Dec-06     206.35      10.49     332.00      36.00
07:32:36 02-Dec-06     206.52      10.52     333.00      36.00
07:32:46 02-Dec-06     206.68      10.46     332.00      36.00
07:32:56 02-Dec-06     206.85      10.49     333.00      36.00
07:33:06 02-Dec-06     207.04      10.53     334.00      36.00
07:33:16 02-Dec-06     207.20      10.51     334.00      36.00
07:33:26 02-Dec-06     207.37      10.55     335.00      36.00
07:33:36 02-Dec-06     207.55      10.63     337.00      36.00
07:33:46 02-Dec-06     207.72      10.61     337.00      36.00
07:33:56 02-Dec-06     207.92      10.55     336.00      36.00
07:34:06 02-Dec-06     208.07      10.68     339.00      36.00
07:34:16 02-Dec-06     208.24      10.61     338.00      36.00
07:34:26 02-Dec-06     208.39      10.60     338.00      36.00
07:34:36 02-Dec-06     208.54      10.59     338.00      36.00
07:34:46 02-Dec-06     208.70      10.62     339.00      36.00
07:34:56 02-Dec-06     208.85      10.61     339.00      36.00
07:35:06 02-Dec-06     209.00      10.65     340.00      36.00
07:35:16 02-Dec-06     209.15      10.68     341.00      36.00
07:35:26 02-Dec-06     209.34      10.66     341.00      36.00
07:35:36 02-Dec-06     209.49      10.65     341.00      36.00
07:35:46 02-Dec-06     209.66      10.64     341.00      36.00
07:35:56 02-Dec-06     209.82      10.67     342.00      36.00
07:36:06 02-Dec-06     209.99      10.65     342.00      36.00
07:36:16 02-Dec-06     210.16      10.69     343.00      36.00
07:36:26 02-Dec-06     210.31      10.67     343.00      36.00
07:36:36 02-Dec-06     210.48      10.66     343.00      36.00
07:36:46 02-Dec-06     210.65      10.69     344.00      36.00
07:36:56 02-Dec-06     210.75      10.68     344.00      36.00
07:37:06 02-Dec-06     210.77      10.68     344.00      36.00
07:37:16 02-Dec-06     210.79      10.63     343.00      36.00
07:37:26 02-Dec-06     210.80      10.63     343.00      36.00
07:37:36 02-Dec-06     210.84      10.58     342.00      36.00
07:37:46 02-Dec-06     210.87      10.63     343.00      36.00
07:37:56 02-Dec-06     210.93      10.62     343.00      36.00
07:38:06 02-Dec-06     211.02      10.61     343.00      36.00
07:38:16 02-Dec-06     211.10      10.56     342.00      36.00
07:38:26 02-Dec-06     211.21      10.64     344.00      36.00
07:38:36 02-Dec-06     211.32      10.68     345.00      36.00
07:38:46 02-Dec-06     211.43      10.67     345.00      36.00
07:38:56 02-Dec-06     211.55      10.71     346.00      36.00
07:39:06 02-Dec-06     211.65      10.70     346.00      36.00
07:39:16 02-Dec-06     211.78      10.69     346.00      36.00
07:39:26 02-Dec-06     211.90      10.68     346.00      36.00
07:39:36 02-Dec-06     212.02      10.81     349.00      36.00
07:39:46 02-Dec-06     212.19      10.75     348.00      36.00
07:39:56 02-Dec-06     212.38      10.83     350.00      36.00
07:40:06 02-Dec-06     212.58      10.72     348.00      36.00
07:40:16 02-Dec-06     212.80      10.88     352.00      36.00
07:40:26 02-Dec-06     212.99      10.87     352.00      36.00
07:40:36 02-Dec-06     213.18      10.99     355.00      36.00
07:40:46 02-Dec-06     213.23      10.89     353.00      36.00
07:40:56 02-Dec-06     213.31      10.93     354.00      36.00
07:41:06 02-Dec-06     213.39      10.79     351.00      36.00
07:41:16 02-Dec-06     213.50      10.73     350.00      36.00
07:41:26 02-Dec-06     213.59      10.77     351.00      36.00
07:41:36 02-Dec-06     213.69      10.81     352.00      36.00
07:41:46 02-Dec-06     213.80      10.84     353.00      36.00
07:41:56 02-Dec-06     213.90      10.84     353.00      36.00
07:42:06 02-Dec-06     214.03      10.82     353.00      36.00
07:42:16 02-Dec-06     214.18      10.81     353.00      36.00
07:42:26 02-Dec-06     214.34      10.85     354.00      36.00
07:42:36 02-Dec-06     214.50      10.92     356.00      36.00
07:42:46 02-Dec-06     214.70      10.86     355.00      36.00
07:42:56 02-Dec-06     214.84      10.85     355.00      36.00
07:43:06 02-Dec-06     215.00      10.97     358.00      36.00
07:43:16 02-Dec-06     215.13      10.92     357.00      36.00
07:43:26 02-Dec-06     215.30      10.95     358.00      36.00
07:43:36 02-Dec-06     215.43      10.80     355.00      36.00
07:43:46 02-Dec-06     215.60      10.97     359.00      36.00
07:43:56 02-Dec-06     215.77      10.91     358.00      36.00
07:44:06 02-Dec-06     215.95      11.03     361.00      35.00
07:44:16 02-Dec-06     216.12      10.97     360.00      35.00
07:44:26 02-Dec-06     216.27      11.00     361.00      35.00
07:44:36 02-Dec-06     216.42      10.99     361.00      35.00
07:44:46 02-Dec-06     216.56      10.98     361.00      35.00
07:44:56 02-Dec-06     216.73      10.96     361.00      35.00
07:45:06 02-Dec-06     216.87      11.00     362.00      35.00
07:45:16 02-Dec-06     217.03      10.98     362.00      35.00
07:45:26 02-Dec-06     217.19      10.97     362.00      35.00
07:45:36 02-Dec-06     217.37      11.04     364.00      35.00
07:45:46 02-Dec-06     217.54      10.94     362.00      35.00
