~Version Information
VERS.             2.0 : CWLS log ASCII standard - Version 2.0
WRAP.             NO  : One line per depth step
#
~Well Information Block
#MNEM.UNIT                   Data Type:Information
#__________________________________________________________
STRT.           02-DEC-2006 06:00:00 : START INDEX                   
STOP.           02-DEC-2006 16:00:00 : STOP INDEX                    
STEP.SEC           10.0000 : STEP                          
NULL .          -999.25      :NULL VALUE
COMP .        Company      :COMPANY
WELL .        W2                  :WELL
FLD  .        Block                  :FIELD
LOC  .                                                 :LOCATION
CNTY .        Actinia                                  :COUNTY
STAT .        State                           :STATE
CTRY .                                                 :COUNTRY
JOB  .        06INM0159                                :Job NUMBER
UWI  .                                                 :UNIQUE WELL ID
DATE .        02-Dec-2006                              :LOG DATE {DD-MMM-YYYY}
SRVC .        Company                             :SERVICE COMPANY
LATI .DEG     16.276 N                                :LATITUDE
LONG .DEG     82.0962 E                                :LONGITUDE
GDAT .                                                 :GeoDetic Datum
SECT .        8.5 in                                   :Section
#-----------------------------------------------------------------------------
~PARAMETER INFORMATION
#MNEM.UNIT    VALUE                      DESCRIPTION
#---- -----   --------------------       ------------------------
TN1 .        PowerPulse                  :Tool Number 1
TN2 .        ARC                         :Tool Number 2
OS3  .          N/A                      :Other Services Line 3
OS2  .          InterACT                 :Other Services Line 2
OS1  .          Directional Surveys      :Other Services Line 1
MST  .DEGC      20.00000                 :Mud Sample Temperature
BHT  .DEGC      36.00000                 :Bottom Hole Temperature
RMS.OHMM         3.00000                 :Resistivity of Mud Sample (RM)
MST.DEGC        20.00000                 :Mud Sample temperature (RM)
MW.LB/G         11.00000                 :Mud Weight (RM)
SHT.DEGC        20.00000                 :Surface Hole Temperature (RM)
BSAL .PPM     3300.00000                 :Mud Salinity
MRT  .DEGC     67.00000                  :Maximum Recorded Temperature
MCST .DEGC      20.00000                 :Mud Cake Sample Temperature
RMCS .OHMM       4.50000                 :Resistivity of Mud Cake Sample
MFST .DEGC      20.00000                 :Mud Filtrate Sample Temperature
RMFS .OHMM       2.25000                 :Resistivity of Mud Filtrate Sample
MSS  .        Mud Pit                    :Mud Sample Source
MFSS  .       Mud Pit                    :Mud Filtrate Sample Source
MCSS  .       Mud Pit                    :Mud Cake Sample Source
TCS  .         16:00                     :End Log Time
DCS  .         2-Dec-2006                :End Log Date
DFT  .        WBM                        :Drilling Fluid Type
DFPH .           N/A                     :Drilling Fluid PH
DFV  .S       45.00000                   :Drilling Fluid Viscosity
DFD  .LB/G    11.000000                  :Drilling Fluid Density
DOWR .        71/29                      :Oil/Water Ratio
TLAB .        05:00                      :Begin Log Time
DLAB .        2-Dec-2006                 :Begin Log Date
RUN  .        1                          :Run Number
BLI  .M       500.00000                  :Bottom Log Interval
TLI  .M       120.00000                  :Top Log Interval
WITN .        Mr Lindsay                 :Witness's Name
ENGI .        Hatim/Victor/Harsh         :Engineer's Name
LUL  .        Zone 2                     :Logging Unit Location
LUN  .        OLU-KC-0103                :Logging Unit Number
RR2  .        ARC6 Resistivity is environmentally corrected for mud resistivity and bit size. :Remark Line 2
RR1  .        GR is corrected for bit size, tool size and mud weight               :Remark Line 1
PDAT .        Lowest Astronomical Tide   :Permanent Datum
EPD  .M          0.00000                 :Elevation of Permanent Datum
DMF  .        Driller's Depth            :Drilling Measured From
LMF  .        Drill Floor                :Log Measured From
APD  .M         25.60000                 :Above Permanent Datum
EDF  .M         25.60000                 :Elevation of Derrick Floor
EGL  .M        -79.80000                 :Elevation of Ground Level
EKB  .M         25.60000                 :Elevation of Kelly Bushing
TDL  .M        505.00000                 :Total Depth - Logger
TDD  .M        505.00000                 :Total Depth - Driller
MHD  .DEG        0.09000                 :Maximum Hole Deviation
AMD  .DEG      63.350000                 :Azimuth of Maximum Hole Deviation
BS   .IN         8.50                    :Bit Size
BSDT .M        505.00000                 :Bit Size Depth To
BSDF .M        105.00000                 :Bit Size Depth From
#-----------------------------------------------------------------------------                   
#
~Curve Information Block
#MNEM.UNIT                     : Curve Description
#---------                     --------------------
TIME	    .HHMMSS	       : 
DATE	    .D		       : 
RM_DEPTH    .M                 : LWDRM 1HZ River Depth                                           
ECD_ARC     .LB/G              : Equivalent Circulating Density                                  
APRS_ARC    .PSI               : ARC Annular Pressure                                            
ATMP        .DEGC              : ARC Annular Temperature                                         
#
~Parameter Information Block
#MNEM.UNIT                       Value:Description
#__________________________________________________________
#
~Other Information Block

#
~A TIME       DATE   RM_DEPTH    ECD_ARC   APRS_ARC       ATMP
# ...
14:06:56 02-Dec-06     449.61      13.70     965.00      64.00
14:07:06 02-Dec-06     449.56      13.59     958.02      64.00
14:07:16 02-Dec-06     449.66      14.04     986.00      65.00
14:07:26 02-Dec-06     449.62      13.18     933.00      65.00
14:07:36 02-Dec-06     449.73      14.12     991.00      66.00
14:07:46 02-Dec-06     449.72      13.42     948.00      66.00
14:07:56 02-Dec-06     449.83      14.24     998.97      66.00
14:08:06 02-Dec-06     449.87      13.67     964.00      66.00
14:08:16 02-Dec-06     449.97      14.41    1010.00      67.00
14:08:26 02-Dec-06     450.02      13.96     982.00      67.00
14:08:36 02-Dec-06     450.11      14.28    1002.00      67.00
14:08:46 02-Dec-06     450.17      14.10     991.04      67.00
14:08:56 02-Dec-06     450.25      14.89    1040.00      66.00
14:09:06 02-Dec-06     450.28      14.79    1034.00      66.00
14:09:16 02-Dec-06     450.34      15.06    1051.00      66.00
14:09:26 02-Dec-06     450.32      15.35    1069.00      65.00
14:09:36 02-Dec-06     449.55      15.53    1077.98      64.00
14:09:46 02-Dec-06     448.06      15.22    1055.00      63.00
14:09:56 02-Dec-06     446.57      15.33    1058.00      62.00
14:10:06 02-Dec-06     445.53      14.51    1005.00      61.00
14:10:16 02-Dec-06     444.00      14.26     986.00      60.00
14:10:26 02-Dec-06     442.54      13.94     962.99      59.00
14:10:36 02-Dec-06     441.05      13.73     947.00      57.00
14:10:46 02-Dec-06     439.71      13.42     925.00      57.00
14:10:56 02-Dec-06     438.49      12.83     887.00      55.00
14:11:06 02-Dec-06     437.09      12.16     844.00      54.00
14:11:16 02-Dec-06     436.20      12.27     849.03      53.00
14:11:26 02-Dec-06     442.30      12.74     890.00      52.00
14:11:36 02-Dec-06     448.60      13.79     968.00      52.00
14:11:46 02-Dec-06     448.03      13.68     960.00      51.00
14:11:56 02-Dec-06     447.21      13.68     958.00      50.00
14:12:06 02-Dec-06     446.26      13.58     950.00      49.00
14:12:16 02-Dec-06     445.35      13.67     953.00      49.00
14:12:26 02-Dec-06     444.28      13.51     941.00      48.00
14:12:36 02-Dec-06     443.24      13.58     943.00      47.00
14:12:46 02-Dec-06     442.18      13.46     933.00      47.00
14:12:56 02-Dec-06     441.02      13.50     932.99      46.00
14:13:06 02-Dec-06     439.86      13.36     922.00      46.00
14:13:16 02-Dec-06     438.67      13.37     920.00      45.00
14:13:26 02-Dec-06     437.45      12.53     867.00      45.00
14:13:36 02-Dec-06     436.32      12.84     882.99      44.00
14:13:46 02-Dec-06     437.17      12.66     874.00      44.00
14:13:56 02-Dec-06     442.97      12.44     873.00      44.00
14:14:06 02-Dec-06     448.27      13.12     925.98      43.00
14:14:16 02-Dec-06     448.78      12.79     907.00      43.00
14:14:26 02-Dec-06     448.30      12.74     903.00      43.00
14:14:36 02-Dec-06     447.02      12.70     898.00      43.00
14:14:46 02-Dec-06     445.86      12.71     896.00      42.00
14:14:56 02-Dec-06     444.77      12.64     889.00      42.00
14:15:06 02-Dec-06     443.64      12.73     892.00      42.00
14:15:16 02-Dec-06     442.54      12.73     890.00      41.00
14:15:26 02-Dec-06     441.47      12.70     886.00      41.00
14:15:36 02-Dec-06     440.23      12.75     886.00      41.00
14:15:46 02-Dec-06     438.76      12.80     885.96      41.00
14:15:56 02-Dec-06     437.24      12.05     838.00      40.00
14:16:06 02-Dec-06     436.41      12.54     865.01      40.00
14:16:16 02-Dec-06     442.30      12.46     873.00      40.00
14:16:26 02-Dec-06     444.89      13.08     916.00      40.00
14:16:36 02-Dec-06     447.02      12.75     901.00      40.00
14:16:46 02-Dec-06     448.76      12.71     902.00      39.00
14:16:56 02-Dec-06     449.00      12.80     907.99      39.00
14:17:06 02-Dec-06     448.06      12.60     894.00      39.00
14:17:16 02-Dec-06     447.05      12.65     895.00      39.00
14:17:26 02-Dec-06     445.83      12.58     888.00      39.00
14:17:36 02-Dec-06     444.64      12.53     882.00      39.00
14:17:46 02-Dec-06     443.46      12.50     878.00      39.00
14:17:56 02-Dec-06     442.33      12.46     873.00      39.00
14:18:06 02-Dec-06     441.17      12.42     868.00      38.00
14:18:16 02-Dec-06     439.95      12.43     866.00      38.00
14:18:26 02-Dec-06     438.76      12.42     863.00      38.00
14:18:36 02-Dec-06     437.60      12.36     856.99      38.00
14:18:46 02-Dec-06     436.42      12.28     850.00      38.00
14:18:56 02-Dec-06     437.21      12.14     843.00      38.00
14:19:06 02-Dec-06     440.71      12.18     853.02      38.00
14:19:16 02-Dec-06     445.40      12.43     878.00      38.00
14:19:26 02-Dec-06     447.32      12.40     880.00      38.00
14:19:36 02-Dec-06     448.60      12.34     879.00      38.00
14:19:46 02-Dec-06     448.18      12.32     877.00      38.00
14:19:56 02-Dec-06     447.57      12.28     873.00      38.00
14:20:06 02-Dec-06     446.81      12.32     874.00      38.00
14:20:16 02-Dec-06     446.08      12.23     867.00      38.00
14:20:26 02-Dec-06     445.28      12.24     866.00      38.00
14:20:36 02-Dec-06     444.46      12.20     862.00      38.00
14:20:46 02-Dec-06     443.61      12.17     858.00      38.00
14:20:56 02-Dec-06     442.76      12.11     853.00      38.00
14:21:06 02-Dec-06     441.90      12.06     848.00      38.00
14:21:16 02-Dec-06     441.05      12.06     846.00      38.00
14:21:26 02-Dec-06     440.13      12.00     841.00      38.00
14:21:36 02-Dec-06     439.25      12.08     843.99      38.00
14:21:46 02-Dec-06     438.34      11.97     835.00      38.00
14:21:56 02-Dec-06     437.48      12.04     837.99      38.00
14:22:06 02-Dec-06     436.54      11.91     828.00      38.00
14:22:16 02-Dec-06     437.78      11.93     832.00      38.00
14:22:26 02-Dec-06     441.75      11.95     841.00      38.00
14:22:36 02-Dec-06     445.40      11.91     846.00      38.00
14:22:46 02-Dec-06     448.67      12.01     859.00      38.00
14:22:56 02-Dec-06     448.42      12.09     863.00      38.00
14:23:06 02-Dec-06     447.45      11.96     853.00      38.00
14:23:16 02-Dec-06     446.41      11.89     847.00      38.00
14:23:26 02-Dec-06     445.35      11.86     843.00      38.00
14:23:36 02-Dec-06     444.46      11.84     840.00      38.00
14:23:46 02-Dec-06     443.46      11.88     840.00      38.00
14:23:56 02-Dec-06     442.51      11.86     837.00      38.00
14:24:06 02-Dec-06     441.63      11.87     836.00      37.00
14:24:16 02-Dec-06     440.62      11.85     833.00      37.00
14:24:26 02-Dec-06     439.62      11.87     832.00      37.00
14:24:36 02-Dec-06     438.58      11.84     828.00      37.00
14:24:46 02-Dec-06     437.45      11.85     826.00      37.00
14:24:56 02-Dec-06     436.42      11.81     822.00      37.00
14:25:06 02-Dec-06     437.30      11.88     828.00      37.00
14:25:16 02-Dec-06     438.42      11.81     826.00      37.00
14:25:26 02-Dec-06     439.43      11.81     828.00      37.00
14:25:36 02-Dec-06     439.86      11.83     830.00      37.00
14:25:46 02-Dec-06     441.50      11.89     837.01      37.00
14:25:56 02-Dec-06     443.51      11.94     844.00      37.00
14:26:06 02-Dec-06     445.83      11.85     843.00      37.00
14:26:16 02-Dec-06     447.39      11.89     849.00      37.00
14:26:26 02-Dec-06     448.39      11.84     848.00      37.00
14:26:36 02-Dec-06     448.61      11.92     852.99      37.00
14:26:46 02-Dec-06     447.45      11.78     842.00      36.00
14:26:56 02-Dec-06     446.35      11.76     839.00      36.00
14:27:06 02-Dec-06     445.22      11.70     833.00      36.00
14:27:16 02-Dec-06     445.22      11.65     830.00      36.00
14:27:26 02-Dec-06     447.48      11.74     840.00      36.00
14:27:36 02-Dec-06     448.57      11.81     846.00      36.00
14:27:46 02-Dec-06     449.18      11.66     838.00      36.00
14:27:56 02-Dec-06     449.37      11.62     836.00      36.00
